time,x,y,z,yaw,throttle,roll_rate,pitch_rate,yaw_rate,x_ref,y_ref,z_ref,yaw_ref,pred_time,nr_time,ctrl_callback_time,metadata
9.5367431640625e-07,-0.015769626945257187,0.005587024614214897,1.3142316341400146,1.5453370679577154,0.7565038674752146,-0.018296435475349426,0.010502416640520096,-0.5794880986213684,0.0,0.0,-0.6,0.0,0.502227783203125,0.502227783203125,0.5692241191864014,Sim
0.5697085857391357,-0.015769626945257187,0.005587024614214897,1.3142316341400146,1.5453370679577154,0.8037447095280835,-0.027405206114053726,0.010917626321315765,-0.6456416845321655,0.0,0.0,-0.6,0.0,0.00022029876708984375,0.00022029876708984375,0.003042459487915039,jax_reg_wardi
0.5800726413726807,-0.015913598239421844,0.0071291569620370865,1.3349440097808838,1.5453173849606157,0.8403888490938204,-0.03276720643043518,0.010835754685103893,-0.691949188709259,0.0,0.0,-0.6,0.0,0.0002467632293701172,0.0002467632293701172,0.0033698081970214844,1x Speed
0.5897781848907471,-0.015857430174946785,0.007143370341509581,1.334235429763794,1.5453460638769803,0.8686871269919921,-0.03576510772109032,0.010135378688573837,-0.7243644595146179,0.0,0.0,-0.6,0.0,0.0003764629364013672,0.0003764629364013672,0.005013227462768555,circle_horz_ref_func
0.5999758243560791,-0.015772808343172073,0.007170008961111307,1.3331916332244873,1.5453597165838553,0.8907195617327842,-0.03758744150400162,0.009403596632182598,-0.7470551133155823,0.0,0.0,-0.6,0.0,0.00023484230041503906,0.00023484230041503906,0.0032923221588134766,0
0.6098809242248535,-0.015742750838398933,0.007184492889791727,1.332849144935608,1.545350117220637,0.9079896762864191,-0.03860348090529442,0.008815302513539791,-0.7629385590553284,0.0,0.0,-0.6,0.0,0.00023818016052246094,0.00023818016052246094,0.003469228744506836,0
0.6199450492858887,-0.015715133398771286,0.007199798710644245,1.332621693611145,1.5453554248969528,0.9215884078238162,-0.039234671741724014,0.008316881954669952,-0.7740569710731506,0.0,0.0,-0.6,0.0,0.0002429485321044922,0.0002429485321044922,0.003538846969604492,0
0.6299433708190918,-0.015694890171289444,0.0072153168730437756,1.3325047492980957,1.545355064350227,0.9323277095961339,-0.03962849825620651,0.007930479012429714,-0.781839907169342,0.0,0.0,-0.6,0.0,0.00029206275939941406,0.00029206275939941406,0.004199504852294922,0
0.6398537158966064,-0.015668487176299095,0.007249361369758844,1.3323829174041748,1.5447058612702214,0.9404130189496861,-0.039049047976732254,0.007955728098750114,-0.7872879505157471,0.0,0.0,-0.6,0.0,0.0002562999725341797,0.0002562999725341797,0.004015684127807617,0
0.6499204635620117,-0.015659058466553688,0.007265533320605755,1.3322296142578125,1.5438643523281912,0.9464138760547856,-0.037777118384838104,0.008304156363010406,-0.7911015748977661,0.0,0.0,-0.6,0.0,0.0002548694610595703,0.0002548694610595703,0.0035393238067626953,0
0.6602199077606201,-0.015650948509573936,0.007280769757926464,1.3319731950759888,1.5426764995293498,0.9507052988350254,-0.03559717535972595,0.009058944880962372,-0.7937710881233215,0.0,0.0,-0.6,0.0,0.0005195140838623047,0.0005195140838623047,0.00767064094543457,0
0.6697292327880859,-0.01564323529601097,0.007293613161891699,1.3315861225128174,1.5410925905611048,0.9535914768068314,-0.03255326300859451,0.010259712114930153,-0.7956397533416748,0.0,0.0,-0.6,0.0,0.00038886070251464844,0.00038886070251464844,0.0062901973724365234,0
0.6800870895385742,-0.015634099021553993,0.007321667391806841,1.3303239345550537,1.5368324863960319,0.9546809351647539,-0.026997890323400497,0.012584537267684937,-0.7969478368759155,0.0,0.0,-0.6,0.0,0.00042629241943359375,0.00042629241943359375,0.00621342658996582,0
0.6902487277984619,-0.01562982052564621,0.007356490474194288,1.3282084465026855,1.5311407994533002,0.9541820288735716,-0.01960606500506401,0.01587097719311714,-0.7978634834289551,0.0,0.0,-0.6,0.0,0.00038504600524902344,0.00038504600524902344,0.005480766296386719,0
0.6998703479766846,-0.01562982052564621,0.007356490474194288,1.3282084465026855,1.5311407994533002,0.9537844300425016,-0.014655213803052902,0.018741603940725327,-0.7985044717788696,0.0,0.0,-0.6,0.0,0.00026345252990722656,0.00026345252990722656,0.0035283565521240234,0
0.7099311351776123,-0.01563125103712082,0.0073751178570091724,1.3267858028411865,1.5278063462608147,0.9527377997393274,-0.009648756124079227,0.02169208973646164,-0.798953115940094,0.0,0.0,-0.6,0.0,0.0003960132598876953,0.0003960132598876953,0.004572629928588867,0
0.7198326587677002,-0.015634430572390556,0.00741559499874711,1.3232066631317139,1.5203073458517244,0.9503419681227633,-0.0030014445073902607,0.025338120758533478,-0.7992671728134155,0.0,0.0,-0.6,0.0,0.00019621849060058594,0.00019621849060058594,0.003172636032104492,0
0.7302591800689697,-0.015618929639458656,0.007465649861842394,1.3185588121414185,1.5117939847275785,0.9467432230494734,0.004544923547655344,0.02948221005499363,-0.7994869947433472,0.0,0.0,-0.6,0.0,0.0002148151397705078,0.0002148151397705078,0.003040790557861328,0
0.7399992942810059,-0.015618929639458656,0.007465649861842394,1.3185588121414185,1.5117939847275785,0.9438571501886645,0.00965618435293436,0.03300553187727928,-0.7996408939361572,0.0,0.0,-0.6,0.0,0.0002484321594238281,0.0002484321594238281,0.00356292724609375,0
0.7498321533203125,-0.015604062005877495,0.007491379510611296,1.3158046007156372,1.5071946430152205,0.9406613882526824,0.014425400644540787,0.036367084830999374,-0.7997485995292664,0.0,0.0,-0.6,0.0,0.00020432472229003906,0.00020432472229003906,0.0030281543731689453,0
0.7598326206207275,-0.015550325624644756,0.007542630657553673,1.3092939853668213,1.4974889807135185,0.9362500904704423,0.020279930904507637,0.04011869058012962,-0.7998239994049072,0.0,0.0,-0.6,0.0,0.00023746490478515625,0.00023746490478515625,0.0035200119018554688,0
0.7695729732513428,-0.015451692044734955,0.007600020617246628,1.3014254570007324,1.487191152769174,0.9307684026977155,0.026531940326094627,0.04409549757838249,-0.7998768091201782,0.0,0.0,-0.6,0.0,0.00020742416381835938,0.00020742416381835938,0.003101348876953125,0
0.7801051139831543,-0.015451692044734955,0.007600020617246628,1.3014254570007324,1.487191152769174,0.9263633615830215,0.030804023146629333,0.04740523919463158,-0.799913763999939,0.0,0.0,-0.6,0.0,0.0002181529998779297,0.0002181529998779297,0.0033426284790039062,0
0.7898929119110107,-0.015385044738650322,0.007629681378602982,1.297001838684082,1.4818378488477817,0.9218382638656667,0.03475907817482948,0.05046199634671211,-0.7999396324157715,0.0,0.0,-0.6,0.0,0.00022482872009277344,0.00022482872009277344,0.003326416015625,0
0.7998049259185791,-0.015213517472147942,0.007688474841415882,1.287180781364441,1.4708424231110617,0.9162253072030828,0.03931844234466553,0.053593430668115616,-0.7999577522277832,0.0,0.0,-0.6,0.0,0.0002446174621582031,0.0002446174621582031,0.0036826133728027344,0
0.8099043369293213,-0.014994333498179913,0.007751116994768381,1.2760132551193237,1.4594291983290353,0.9097451101639462,0.04381841793656349,0.05669822171330452,-0.7999703884124756,0.0,0.0,-0.6,0.0,0.00027298927307128906,0.00027298927307128906,0.0031816959381103516,0
0.8200089931488037,-0.014994333498179913,0.007751116994768381,1.2760132551193237,1.4594291983290353,0.9045316072677853,0.04692789167165756,0.059235118329524994,-0.7999792695045471,0.0,0.0,-0.6,0.0,0.0002598762512207031,0.0002598762512207031,0.0034890174865722656,0
0.8297302722930908,-0.01486782543361187,0.00778381060808897,1.2699307203292847,1.453582583245031,0.8993607644389487,0.04968009516596794,0.061435457319021225,-0.7999854683876038,0.0,0.0,-0.6,0.0,0.00022459030151367188,0.00022459030151367188,0.0029754638671875,0
0.8398787975311279,-0.014574701897799969,0.007849390618503094,1.2568707466125488,1.4417717453472136,0.8932707649478061,0.052522651851177216,0.0635557770729065,-0.7999898195266724,0.0,0.0,-0.6,0.0,0.0002415180206298828,0.0002415180206298828,0.0032892227172851562,0
0.8498518466949463,-0.014232630841434002,0.007917705923318863,1.2426670789718628,1.4297279522495863,0.8864799795231528,0.055193252861499786,0.06522643566131592,-0.7999928593635559,0.0,0.0,-0.6,0.0,0.0001995563507080078,0.0001995563507080078,0.0029790401458740234,0
0.8599052429199219,-0.014232630841434002,0.007917705923318863,1.2426670789718628,1.4297279522495863,0.8810137932261707,0.05708729103207588,0.06657422333955765,-0.7999950051307678,0.0,0.0,-0.6,0.0,0.00020742416381835938,0.00020742416381835938,0.0030906200408935547,0
0.8699381351470947,-0.014044326730072498,0.00795090850442648,1.2351555824279785,1.4236497239138153,0.8756902684766309,0.05862007290124893,0.06756113469600677,-0.7999964952468872,0.0,0.0,-0.6,0.0,0.0002224445343017578,0.0002224445343017578,0.0030791759490966797,0
0.8797750473022461,-0.013640590012073517,0.008017236366868019,1.219305157661438,1.4113821994959208,0.8695901840468477,0.05981847643852234,0.06800961494445801,-0.7999975681304932,0.0,0.0,-0.6,0.0,0.0002071857452392578,0.0002071857452392578,0.0031213760375976562,0
0.8895986080169678,-0.0128986407071352,0.007741085719317198,1.1955006122589111,1.3989849476406364,0.862728024937469,0.06100323423743248,0.06782761216163635,-0.7999982833862305,0.0,0.0,-0.6,0.0,0.00020885467529296875,0.00020885467529296875,0.0028438568115234375,0
0.8998968601226807,-0.0128986407071352,0.007741085719317198,1.1955006122589111,1.3989849476406364,0.8572030544769486,0.061938464641571045,0.06771226227283478,-0.7999988198280334,0.0,0.0,-0.6,0.0,0.0002529621124267578,0.0002529621124267578,0.0032720565795898438,0
0.9099287986755371,-0.012515741400420666,0.007605867926031351,1.183388590812683,1.3927806822563427,0.8518000709182575,0.06280218809843063,0.0672915056347847,-0.7999991774559021,0.0,0.0,-0.6,0.0,0.0002307891845703125,0.0002307891845703125,0.0030226707458496094,0
0.9199724197387695,-0.011734256520867348,0.007335756439715624,1.1587728261947632,1.380305903550287,0.8455860286087141,0.06363455206155777,0.06609511375427246,-0.7999994158744812,0.0,0.0,-0.6,0.0,0.00024390220642089844,0.00024390220642089844,0.0031168460845947266,0
0.9296524524688721,-0.010930377058684826,0.007066462188959122,1.1336183547973633,1.367803610764038,0.8387955714637771,0.06438963115215302,0.06430977582931519,-0.7999995946884155,0.0,0.0,-0.6,0.0,0.0002105236053466797,0.0002105236053466797,0.0038902759552001953,0
0.9400050640106201,-0.010930377058684826,0.007066462188959122,1.1336183547973633,1.367803610764038,0.8333278831686108,0.06510548293590546,0.0629887655377388,-0.7999997138977051,0.0,0.0,-0.6,0.0,0.0002484321594238281,0.0002484321594238281,0.0037581920623779297,0
0.9499268531799316,-0.01052215788513422,0.0069318125024437904,1.1208518743515015,1.3615337965753371,0.828056133808726,0.0656827911734581,0.06148185208439827,-0.7999997735023499,0.0,0.0,-0.6,0.0,0.00024580955505371094,0.00024580955505371094,0.003206968307495117,0
0.9597687721252441,-0.009695084765553474,0.006659124977886677,1.095027208328247,1.3490189428042543,0.8221156380845083,0.0659857839345932,0.05926850065588951,-0.7999998331069946,0.0,0.0,-0.6,0.0,0.00018286705017089844,0.00018286705017089844,0.0028533935546875,0
0.969578742980957,-0.008857496082782745,0.006385205779224634,1.0688525438308716,1.3365229915140797,0.8157085712714498,0.06609050929546356,0.056468091905117035,-0.7999998927116394,0.0,0.0,-0.6,0.0,0.00022482872009277344,0.00022482872009277344,0.003228902816772461,0
0.9800443649291992,-0.008857496082782745,0.006385205779224634,1.0688525438308716,1.3365229915140797,0.8105508634886905,0.06637555360794067,0.05436931923031807,-0.7999999523162842,0.0,0.0,-0.6,0.0,0.000263214111328125,0.000263214111328125,0.0032269954681396484,0
0.9898076057434082,-0.008433104492723942,0.006245653610676527,1.055649995803833,1.3302636997326138,0.8056130865330955,0.06657450646162033,0.05219452828168869,-0.7999999523162842,0.0,0.0,-0.6,0.0,0.00019812583923339844,0.00019812583923339844,0.0028443336486816406,0
1.0000529289245605,-0.007583707571029663,0.005961025133728981,1.0289808511734009,1.3177227550329376,0.8001133609162793,0.06633710861206055,0.04917406290769577,-0.7999999523162842,0.0,0.0,-0.6,0.0,0.00024247169494628906,0.00024247169494628906,0.0033829212188720703,0
1.0098614692687988,-0.006740218494087458,0.005667027551680803,1.0020241737365723,1.3051730884545225,0.794228648053729,0.06575418263673782,0.045441243797540665,-0.7999999523162842,0.0,0.0,-0.6,0.0,0.0002880096435546875,0.0002880096435546875,0.004643440246582031,0
1.0201022624969482,-0.006740218494087458,0.005667027551680803,1.0020241737365723,1.3051730884545225,0.7894933600089435,0.06557071954011917,0.042634591460227966,-0.7999999523162842,0.0,0.0,-0.6,0.0,0.00041794776916503906,0.00041794776916503906,0.004889011383056641,0
1.0300257205963135,-0.0063210660591721535,0.005516711622476578,0.9884770512580872,1.2989100782020901,0.7849856990369957,0.06534399837255478,0.03982992097735405,-0.7999999523162842,0.0,0.0,-0.6,0.0,0.0002961158752441406,0.0002961158752441406,0.0035924911499023438,0
1.0397615432739258,-0.005488372873514891,0.005208317190408707,0.9612753391265869,1.286358858282055,0.7800055752664298,0.06473272293806076,0.036255672574043274,-0.7999999523162842,0.0,0.0,-0.6,0.0,0.00020432472229003906,0.00020432472229003906,0.0029265880584716797,0
1.049846887588501,-0.004663342144340277,0.004885690286755562,0.9338927268981934,1.273859035746067,0.7747109879840313,0.0637872964143753,0.03210924565792084,-0.7999999523162842,0.0,0.0,-0.6,0.0,0.00034546852111816406,0.00034546852111816406,0.006299018859863281,0
1.0602736473083496,-0.004663342144340277,0.004885690286755562,0.9338927268981934,1.273859035746067,0.7704527198532957,0.06334200501441956,0.029000544920563698,-0.7999999523162842,0.0,0.0,-0.6,0.0,0.00028896331787109375,0.00028896331787109375,0.0040204524993896484,0
1.0697622299194336,-0.004254687577486038,0.004718922544270754,0.9201399087905884,1.2675980918852816,0.7664055776597932,0.06295549869537354,0.025898700580000877,-0.7999999523162842,0.0,0.0,-0.6,0.0,0.00020599365234375,0.00020599365234375,0.0029535293579101562,0
1.0800230503082275,-0.003449770389124751,0.00437180045992136,0.892606258392334,1.255057359132817,0.7619539938418988,0.062087543308734894,0.022042470052838326,-0.7999999523162842,0.0,0.0,-0.6,0.0,0.0002357959747314453,0.0002357959747314453,0.0031578540802001953,0
1.0898549556732178,-0.0026644147001206875,0.004009037744253874,0.8650663495063782,1.2425433930321792,0.7572397564275702,0.060883231461048126,0.01764676347374916,-0.7999999523162842,0.0,0.0,-0.6,0.0,0.0002193450927734375,0.0002193450927734375,0.003204822540283203,0
1.0999159812927246,-0.0026644147001206875,0.004009037744253874,0.8650663495063782,1.2425433930321792,0.7534502402015012,0.060244087129831314,0.014364657923579216,-0.7999999523162842,0.0,0.0,-0.6,0.0,0.00021219253540039062,0.00021219253540039062,0.0030579566955566406,0
1.109980821609497,-0.002279018284752965,0.0038222346920520067,0.8513054251670837,1.2362980467963967,0.7498592530531158,0.059561241418123245,0.0111594432964921,-0.7999999523162842,0.0,0.0,-0.6,0.0,0.0002543926239013672,0.0002543926239013672,0.0032508373260498047,0
1.1198046207427979,-0.001525979139842093,0.0034368853084743023,0.8236628174781799,1.2237704364457997,0.7459209847852221,0.058288801461458206,0.00728927506133914,-0.7999999523162842,0.0,0.0,-0.6,0.0,0.00020432472229003906,0.00020432472229003906,0.0030405521392822266,0
1.129819631576538,-0.0008035980863496661,0.003033015411347151,0.7961093783378601,1.2113065105326657,0.7417731657043957,0.056568972766399384,0.0028008960653096437,-0.7999999523162842,0.0,0.0,-0.6,0.0,0.00022363662719726562,0.00022363662719726562,0.0030155181884765625,0
1.139883041381836,-0.0008035980863496661,0.003033015411347151,0.7961093783378601,1.2113065105326657,0.7384407403030938,0.055545199662446976,-0.0005512330681085587,-0.7999999523162842,0.0,0.0,-0.6,0.0,0.0002446174621582031,0.0002446174621582031,0.0034303665161132812,0
1.1498024463653564,-0.00045491845230571926,0.0028246380388736725,0.7823774218559265,1.2050733775827254,0.7352939228199856,0.05439858138561249,-0.0036721008364111185,-0.7999999523162842,0.0,0.0,-0.6,0.0,0.00020194053649902344,0.00020194053649902344,0.0028913021087646484,0
1.1599094867706299,0.00022037603775970638,0.0024005339946597815,0.7550207376480103,1.1926146970825817,0.7318686419742002,0.05264567956328392,-0.007312777917832136,-0.7999999523162842,0.0,0.0,-0.6,0.0,0.00023889541625976562,0.00023889541625976562,0.003238677978515625,0
1.1695911884307861,0.0008617783896625042,0.0019631676841527224,0.7276930212974548,1.1801585670917647,0.7282762597708569,0.05042673274874687,-0.011360817588865757,-0.7999999523162842,0.0,0.0,-0.6,0.0,0.00020313262939453125,0.00020313262939453125,0.0030481815338134766,0
1.180027723312378,0.0008617783896625042,0.0019631676841527224,0.7276930212974548,1.1801585670917647,0.7253916116002149,0.04901057854294777,-0.014395356178283691,-0.7999999523162842,0.0,0.0,-0.6,0.0,0.000240325927734375,0.000240325927734375,0.003109455108642578,0
1.1900789737701416,0.0011681501055136323,0.0017350747948512435,0.7141052484512329,1.173945152677088,0.7226771465769546,0.047435130923986435,-0.017461882904171944,-0.7999999523162842,0.0,0.0,-0.6,0.0,0.0002827644348144531,0.0002827644348144531,0.003421306610107422,0
1.199819564819336,0.0017467576544731855,0.0012660527136176825,0.6870928406715393,1.1614737819200138,0.7197334551547839,0.045219339430332184,-0.020953863859176636,-0.7999999523162842,0.0,0.0,-0.6,0.0,0.00018978118896484375,0.00018978118896484375,0.0031404495239257812,0
1.2098534107208252,0.002286174101755023,0.0007827046792954206,0.6603163480758667,1.149013490704332,0.7166537286390113,0.04257190600037575,-0.02484012581408024,-0.7999999523162842,0.0,0.0,-0.6,0.0,0.00025343894958496094,0.00025343894958496094,0.00337982177734375,0
1.2200732231140137,0.002286174101755023,0.0007827046792954206,0.6603163480758667,1.149013490704332,0.7141821049372186,0.04083288833498955,-0.027754776179790497,-0.7999999523162842,0.0,0.0,-0.6,0.0,0.0002911090850830078,0.0002911090850830078,0.003593921661376953,0
1.2297680377960205,0.0025397364515811205,0.0005341341020539403,0.6469184160232544,1.1427897626029653,0.7118634814425391,0.03910238668322563,-0.03045536018908024,-0.7999999523162842,0.0,0.0,-0.6,0.0,0.00021028518676757812,0.00021028518676757812,0.0028481483459472656,0
1.240290880203247,0.0032446617260575294,-0.00023449947184417397,0.6071557402610779,1.1241158631893946,0.7090519529053743,0.03630349040031433,-0.03391154110431671,-0.7999999523162842,0.0,0.0,-0.6,0.0,0.00025081634521484375,0.00025081634521484375,0.0033822059631347656,0
1.2497434616088867,0.00346026080660522,-0.0004988789441995323,0.5940520763397217,1.1178837480153057,0.7065044172228693,0.03390786424279213,-0.03690044581890106,-0.7999999523162842,0.0,0.0,-0.6,0.0,0.00019216537475585938,0.00019216537475585938,0.0029783248901367188,0
1.2599735260009766,0.003664457006379962,-0.0007665560115128756,0.5810285210609436,1.111617105470444,0.7041831259110078,0.03160665184259415,-0.03963322564959526,-0.7999999523162842,0.0,0.0,-0.6,0.0,0.00021910667419433594,0.00021910667419433594,0.0029022693634033203,0
1.269991159439087,0.003664457006379962,-0.0007665560115128756,0.5810285210609436,1.111617105470444,0.7023215923181926,0.030065473169088364,-0.04168098419904709,-0.7999999523162842,0.0,0.0,-0.6,0.0,0.00025773048400878906,0.00025773048400878906,0.0034029483795166016,0
1.2796401977539062,0.004329011309891939,-0.0013880280312150717,0.5384506583213806,1.0928625153364686,0.6999021815197155,0.026750970631837845,-0.04420681297779083,-0.7999999523162842,0.0,0.0,-0.6,0.0,0.00021195411682128906,0.00021195411682128906,0.0029032230377197266,0
1.2897896766662598,0.004606027156114578,-0.0014713272685185075,0.521861732006073,1.0865712580570073,0.6975897676750875,0.023633280768990517,-0.046293389052152634,-0.7999999523162842,0.0,0.0,-0.6,0.0,0.0002048015594482422,0.0002048015594482422,0.0029273033142089844,0
1.299957513809204,0.004866183735430241,-0.0015590375987812877,0.5054587125778198,1.0803016225911026,0.6953744008327147,0.020727969706058502,-0.04808913916349411,-0.7999999523162842,0.0,0.0,-0.6,0.0,0.00022649765014648438,0.00022649765014648438,0.0031223297119140625,0
1.3099052906036377,0.004866183735430241,-0.0015590375987812877,0.5054587125778198,1.0803016225911026,0.6935979775679876,0.01871437393128872,-0.04948107898235321,-0.7999999523162842,0.0,0.0,-0.6,0.0,0.0002465248107910156,0.0002465248107910156,0.0030722618103027344,0
1.3199543952941895,0.005558997858315706,-0.0018504816107451916,0.457351952791214,1.0615007241197876,0.6911663067901717,0.015309417620301247,-0.05058274418115616,-0.7999999523162842,0.0,0.0,-0.6,0.0,0.0002162456512451172,0.0002162456512451172,0.0030469894409179688,0
1.3297839164733887,0.005761843640357256,-0.001956160180270672,0.4416797459125519,1.0551904966919088,0.6889037092700224,0.012162345461547375,-0.05156346410512924,-0.7999999523162842,0.0,0.0,-0.6,0.0,0.00019240379333496094,0.00019240379333496094,0.003008604049682617,0
1.3396282196044922,0.005949278362095356,-0.002066035056486726,0.42612144351005554,1.0488776996914824,0.6867868993571258,0.009274285286664963,-0.052409809082746506,-0.7999999523162842,0.0,0.0,-0.6,0.0,0.00021076202392578125,0.00021076202392578125,0.002950906753540039,0
1.3499743938446045,0.005949278362095356,-0.002066035056486726,0.42612144351005554,1.0488776996914824,0.6850896047585906,0.007237007841467857,-0.053113777190446854,-0.7999999523162842,0.0,0.0,-0.6,0.0,0.0002429485321044922,0.0002429485321044922,0.0031647682189941406,0
1.359647512435913,0.006280113477259874,-0.002295944606885314,0.39554476737976074,1.0362750535203502,0.6831672873658603,0.004428140353411436,-0.053669825196266174,-0.7999999523162842,0.0,0.0,-0.6,0.0,0.0001938343048095703,0.0001938343048095703,0.0028624534606933594,0
1.3699209690093994,0.006551248952746391,-0.002537338063120842,0.36568766832351685,1.0236774454090156,0.681116668622556,0.000995152280665934,-0.05407620221376419,-0.7999999523162842,0.0,0.0,-0.6,0.0,0.00026702880859375,0.00026702880859375,0.003210783004760742,0
1.3797681331634521,0.006664645858108997,-0.002661834005266428,0.3510265350341797,1.0173748714116984,0.6792348009425657,-0.002113424241542816,-0.05434510484337807,-0.7999999523162842,0.0,0.0,-0.6,0.0,0.00023794174194335938,0.00023794174194335938,0.0031418800354003906,0
1.3898108005523682,0.006664645858108997,-0.002661834005266428,0.3510265350341797,1.0173748714116984,0.6777262934349075,-0.004323207773268223,-0.05463477969169617,-0.7999999523162842,0.0,0.0,-0.6,0.0,0.00024271011352539062,0.00024271011352539062,0.0029234886169433594,0
1.3996319770812988,0.006927059963345528,-0.0030513948295265436,0.30801308155059814,0.9983756699782839,0.6758724927460698,-0.007806641515344381,-0.05441341921687126,-0.7999999523162842,0.0,0.0,-0.6,0.0,0.0002315044403076172,0.0002315044403076172,0.003187417984008789,0
1.409780740737915,0.006986898835748434,-0.003184698289260268,0.2939717173576355,0.9919957836604192,0.6741903431973302,-0.010972979478538036,-0.054097216576337814,-0.7999999523162842,0.0,0.0,-0.6,0.0,0.0002560615539550781,0.0002560615539550781,0.003168344497680664,0
1.4197783470153809,0.007032589986920357,-0.0033162494655698538,0.2801054120063782,0.9856181537826554,0.6726545961812431,-0.014004833064973354,-0.053699225187301636,-0.7999999523162842,0.0,0.0,-0.6,0.0,0.00020837783813476562,0.00020837783813476562,0.0029697418212890625,0
1.4300181865692139,0.007032589986920357,-0.0033162494655698538,0.2801054120063782,0.9856181537826554,0.6714240484325077,-0.016172360628843307,-0.05350363254547119,-0.7999999523162842,0.0,0.0,-0.6,0.0,0.00023508071899414062,0.00023508071899414062,0.0031599998474121094,0
1.4396493434906006,0.007094103842973709,-0.0036973319947719574,0.23955217003822327,0.9665053207609695,0.6699552746750944,-0.019568156450986862,-0.05229832977056503,-0.7999999523162842,0.0,0.0,-0.6,0.0,0.00019812583923339844,0.00019812583923339844,0.002928018569946289,0
1.4498281478881836,0.007089952472597361,-0.003822358325123787,0.22638411819934845,0.9601296176483728,0.6686414150954918,-0.022568386048078537,-0.0511663481593132,-0.7999999523162842,0.0,0.0,-0.6,0.0,0.00021600723266601562,0.00021600723266601562,0.0030782222747802734,0
1.459817886352539,0.007073323708027601,-0.003947364632040262,0.213298499584198,0.95376167572972,0.6674554547333675,-0.0253073088824749,-0.05008665472269058,-0.7999999523162842,0.0,0.0,-0.6,0.0,0.0002396106719970703,0.0002396106719970703,0.003301858901977539,0
1.4698975086212158,0.007073323708027601,-0.003947364632040262,0.213298499584198,0.95376167572972,0.6665055446635726,-0.027276599779725075,-0.049393460154533386,-0.7999999523162842,0.0,0.0,-0.6,0.0,0.00019812583923339844,0.00019812583923339844,0.0030336380004882812,0
1.479813814163208,0.006949900649487972,-0.004311137832701206,0.1750870943069458,0.9347416586172448,0.6654058972205531,-0.030420593917369843,-0.04781724885106087,-0.7999999523162842,0.0,0.0,-0.6,0.0,0.0002295970916748047,0.0002295970916748047,0.003020763397216797,0
1.4898004531860352,0.0068856640718877316,-0.004427196457982063,0.16269712150096893,0.9284079800714147,0.6644327145014138,-0.03322992101311684,-0.04641866311430931,-0.7999999523162842,0.0,0.0,-0.6,0.0,0.00024771690368652344,0.00024771690368652344,0.003282785415649414,0
1.49969482421875,0.006810417398810387,-0.004541404079645872,0.15047957003116608,0.9220691124823654,0.6635694140024205,-0.035689327865839005,-0.04507630318403244,-0.7999999523162842,0.0,0.0,-0.6,0.0,0.0002567768096923828,0.0002567768096923828,0.0036520957946777344,0
1.510059118270874,0.006810417398810387,-0.004541404079645872,0.15047957003116608,0.9220691124823654,0.6628782668289877,-0.0374581441283226,-0.044186070561409,-0.7999999523162842,0.0,0.0,-0.6,0.0,0.00030231475830078125,0.00030231475830078125,0.0037038326263427734,0
1.51975679397583,0.006522133946418762,-0.004871442448347807,0.11478664726018906,0.9030964761753315,0.6621409810527183,-0.03998005390167236,-0.04229797050356865,-0.7999999523162842,0.0,0.0,-0.6,0.0,0.00018644332885742188,0.00018644332885742188,0.0029015541076660156,0
1.529827356338501,0.0064061470329761505,-0.004974568262696266,0.10318170487880707,0.8967629952278547,0.661499015101136,-0.04225548729300499,-0.04058492183685303,-0.7999999523162842,0.0,0.0,-0.6,0.0,0.0002219676971435547,0.0002219676971435547,0.0029976367950439453,0
1.53987455368042,0.006280631758272648,-0.0050742411985993385,0.09174710512161255,0.8903665368898793,0.6609428772910618,-0.044166602194309235,-0.03892163187265396,-0.7999999523162842,0.0,0.0,-0.6,0.0,0.0002307891845703125,0.0002307891845703125,0.003385782241821289,0
1.5498661994934082,0.006280631758272648,-0.0050742411985993385,0.09174710512161255,0.8903665368898793,0.6604978221533577,-0.04554729908704758,-0.037790440022945404,-0.7999999523162842,0.0,0.0,-0.6,0.0,0.00021338462829589844,0.00021338462829589844,0.0035805702209472656,0
1.5597012042999268,0.005851675756275654,-0.005348854698240757,0.058467213064432144,0.8712109246157805,0.6600727350063282,-0.047448404133319855,-0.03563755750656128,-0.7999999523162842,0.0,0.0,-0.6,0.0,0.0002853870391845703,0.0002853870391845703,0.0036377906799316406,0
1.5697848796844482,0.005689205136150122,-0.005432869773358107,0.04771081730723381,0.8648421623714401,0.6597217006904569,-0.04915254935622215,-0.03379558026790619,-0.7999999523162842,0.0,0.0,-0.6,0.0,0.00022554397583007812,0.00022554397583007812,0.003187894821166992,0
1.5797383785247803,0.0055177053436636925,-0.005511719733476639,0.03700316697359085,0.8584675936868235,0.6594327652926228,-0.05060006305575371,-0.032040297985076904,-0.7999999523162842,0.0,0.0,-0.6,0.0,0.0002167224884033203,0.0002167224884033203,0.0028858184814453125,0
1.5900001525878906,0.0055177053436636925,-0.005511719733476639,0.03700316697359085,0.8584675936868235,0.6592016777510439,-0.05164884775876999,-0.030834132805466652,-0.7999999523162842,0.0,0.0,-0.6,0.0,0.00023484230041503906,0.00023484230041503906,0.0031740665435791016,0
1.5997838973999023,0.004953220020979643,-0.005723943002521992,0.005884382873773575,0.8393476162478405,0.6590311670148993,-0.052893683314323425,-0.028691209852695465,-0.7999999523162842,0.0,0.0,-0.6,0.0,0.000179290771484375,0.000179290771484375,0.0027990341186523438,0
1.6099176406860352,0.004747313912957907,-0.0057872445322573185,-0.004157152492552996,0.8329364897988657,0.6589120090629743,-0.0539080984890461,-0.026879094541072845,-0.7999999523162842,0.0,0.0,-0.6,0.0,0.00024390220642089844,0.00024390220642089844,0.0031027793884277344,0
1.6198887825012207,0.00453377328813076,-0.005847152788192034,-0.014035556465387344,0.8265327069856976,0.6588389980753493,-0.054636042565107346,-0.02518792636692524,-0.7999999523162842,0.0,0.0,-0.6,0.0,0.0002276897430419922,0.0002276897430419922,0.0031435489654541016,0
1.6297965049743652,0.00453377328813076,-0.005847152788192034,-0.014035556465387344,0.8265327069856976,0.6587806830698841,-0.055172719061374664,-0.024014275521039963,-0.7999999523162842,0.0,0.0,-0.6,0.0,0.000186920166015625,0.000186920166015625,0.002832651138305664,0
1.639679193496704,0.0038586456794291735,-0.006003610324114561,-0.04279065877199173,0.8072947260106633,0.6588420454877286,-0.055496517568826675,-0.021935798227787018,-0.7999999523162842,0.0,0.0,-0.6,0.0,0.00021147727966308594,0.00021147727966308594,0.003038167953491211,0
1.6498281955718994,0.0036216313019394875,-0.006049029529094696,-0.05211839824914932,0.8008840076307225,0.6589330915831777,-0.05576149746775627,-0.020117713138461113,-0.7999999523162842,0.0,0.0,-0.6,0.0,0.0002262592315673828,0.0002262592315673828,0.0030853748321533203,0
1.6597721576690674,0.0033790795132517815,-0.0060891080647706985,-0.06128571555018425,0.7944678195708851,0.6590567748857789,-0.055942974984645844,-0.018326247110962868,-0.7999999523162842,0.0,0.0,-0.6,0.0,0.0001990795135498047,0.0001990795135498047,0.0028450489044189453,0
1.6700124740600586,0.0033790795132517815,-0.0060891080647706985,-0.06128571555018425,0.7944678195708851,0.6591557811147855,-0.05609315261244774,-0.01707574538886547,-0.7999999523162842,0.0,0.0,-0.6,0.0,0.0002262592315673828,0.0002262592315673828,0.00313568115234375,0
1.6797304153442383,0.0032323466148227453,-0.006084859371185303,-0.09239619225263596,0.7753218207817616,0.6592437438003688,-0.05571692809462547,-0.014483683742582798,-0.7999999523162842,0.0,0.0,-0.6,0.0,0.0001976490020751953,0.0001976490020751953,0.0029327869415283203,0
1.6897597312927246,0.003564246464520693,-0.006012313067913055,-0.10537669062614441,0.7689789117716322,0.6592197475039753,-0.055072661489248276,-0.011851955205202103,-0.7999999523162842,0.0,0.0,-0.6,0.0,0.00023555755615234375,0.00023555755615234375,0.0031485557556152344,0
1.6997077465057373,0.0038796509616076946,-0.005937018897384405,-0.11814939230680466,0.7626286086433532,0.6591127221961176,-0.054346054792404175,-0.009194552898406982,-0.7999999523162842,0.0,0.0,-0.6,0.0,0.0002689361572265625,0.0002689361572265625,0.0033524036407470703,0
1.7099745273590088,0.0038796509616076946,-0.005937018897384405,-0.11814939230680466,0.7626286086433532,0.6590272145977376,-0.05386433005332947,-0.0073246764950454235,-0.7999999523162842,0.0,0.0,-0.6,0.0,0.00022339820861816406,0.00022339820861816406,0.003169536590576172,0
1.7198445796966553,0.0047307852655649185,-0.005688630510121584,-0.15491792559623718,0.743693331384196,0.6587390444019604,-0.05271877720952034,-0.003750514704734087,-0.7999999523162842,0.0,0.0,-0.6,0.0,0.00021505355834960938,0.00021505355834960938,0.003158092498779297,0
1.7298436164855957,0.004985393024981022,-0.005597682204097509,-0.16667474806308746,0.7373700852637248,0.6584474685171017,-0.051545076072216034,-0.0005056691588833928,-0.7999999523162842,0.0,0.0,-0.6,0.0,0.00022029876708984375,0.00022029876708984375,0.0032699108123779297,0
1.7397711277008057,0.005226996727287769,-0.0055031501688063145,-0.17818863689899445,0.7310452156716701,0.6581639829219006,-0.05040324851870537,0.002512503881007433,-0.7999999523162842,0.0,0.0,-0.6,0.0,0.00021147727966308594,0.00021147727966308594,0.003082752227783203,0
1.7501351833343506,0.005226996727287769,-0.0055031501688063145,-0.17818863689899445,0.7310452156716701,0.6579372912715141,-0.04962506890296936,0.004639539401978254,-0.7999999523162842,0.0,0.0,-0.6,0.0,0.00039124488830566406,0.00039124488830566406,0.005576133728027344,0
1.7597036361694336,0.005882047116756439,-0.005201808642596006,-0.21149122714996338,0.7121035446939141,0.6576494901997889,-0.04797150567173958,0.008242473006248474,-0.7999999523162842,0.0,0.0,-0.6,0.0,0.000278472900390625,0.000278472900390625,0.004765510559082031,0
1.7697343826293945,0.006077053025364876,-0.0050949836149811745,-0.2221277505159378,0.7057937990379305,0.6573894308742366,-0.04645172879099846,0.011462599970400333,-0.7999999523162842,0.0,0.0,-0.6,0.0,0.00029969215393066406,0.00029969215393066406,0.003618955612182617,0
1.779858112335205,0.0062619708478450775,-0.004984531085938215,-0.23253971338272095,0.6994833080049637,0.6571635391380121,-0.04510409012436867,0.014388962648808956,-0.7999999523162842,0.0,0.0,-0.6,0.0,0.0002522468566894531,0.0002522468566894531,0.0035233497619628906,0
1.7899222373962402,0.0062619708478450775,-0.004984531085938215,-0.23253971338272095,0.6994833080049637,0.6569829506006063,-0.0441734604537487,0.01644832454621792,-0.7999999523162842,0.0,0.0,-0.6,0.0,0.0002503395080566406,0.0002503395080566406,0.0041561126708984375,0
1.7997462749481201,0.006755484733730555,-0.004630580078810453,-0.26245149970054626,0.6805817426246419,0.6568372513295048,-0.042438045144081116,0.01945359632372856,-0.7999999523162842,0.0,0.0,-0.6,0.0,0.0002830028533935547,0.0002830028533935547,0.0036156177520751953,0
1.8097453117370605,0.006901143584400415,-0.004509161692112684,-0.272060751914978,0.6742877394000145,0.6567328623761493,-0.040710434317588806,0.022009454667568207,-0.7999999523162842,0.0,0.0,-0.6,0.0,0.0002846717834472656,0.0002846717834472656,0.004025459289550781,0
1.8198444843292236,0.0070382594130933285,-0.004386757034808397,-0.2814578711986542,0.6679851486380272,0.6566668272760475,-0.03914102911949158,0.024248970672488213,-0.7999999523162842,0.0,0.0,-0.6,0.0,0.0002644062042236328,0.0002644062042236328,0.003474712371826172,0
1.8300111293792725,0.0070382594130933285,-0.004386757034808397,-0.2814578711986542,0.6679851486380272,0.6566141272141303,-0.03804701939225197,0.025821246206760406,-0.7999999523162842,0.0,0.0,-0.6,0.0,0.00027298927307128906,0.00027298927307128906,0.003473997116088867,0
1.8397932052612305,0.007401569280773401,-0.004006280098110437,-0.3084084093570709,0.6490071262017559,0.6566598476197875,-0.03608114272356033,0.028225917369127274,-0.7999999523162842,0.0,0.0,-0.6,0.0,0.00020551681518554688,0.00020551681518554688,0.0029594898223876953,0
1.8497593402862549,0.007508337497711182,-0.0038750735111534595,-0.31698912382125854,0.6426789848589011,0.6567381895345311,-0.034371308982372284,0.03021105006337166,-0.7999999523162842,0.0,0.0,-0.6,0.0,0.00022745132446289062,0.00022745132446289062,0.003022432327270508,0
1.859694480895996,0.0076071168296039104,-0.003742743516340852,-0.3253714144229889,0.6363532785106103,0.6568535608028808,-0.03268182650208473,0.031801894307136536,-0.7985427379608154,0.0,0.0,-0.6,0.0,0.00022482872009277344,0.00022482872009277344,0.0031151771545410156,0
1.8698687553405762,0.0076071168296039104,-0.003742743516340852,-0.3253714144229889,0.6363532785106103,0.6569459194684916,-0.031499456614255905,0.03291346877813339,-0.7975239157676697,0.0,0.0,-0.6,0.0,0.00020265579223632812,0.00020265579223632812,0.0028765201568603516,0
1.8797798156738281,0.007866262458264828,-0.0033442808780819178,-0.3495647609233856,0.6174255799595203,0.6571939563282317,-0.029420988634228706,0.034385796636343,-0.7897058129310608,0.0,0.0,-0.6,0.0,0.00022459030151367188,0.00022459030151367188,0.0031211376190185547,0
1.8898215293884277,0.007941419258713722,-0.0032093902118504047,-0.3572453558444977,0.9953239749395901,0.6574660058378857,-0.031005581840872765,0.03782500699162483,-0.7927940487861633,0.0,0.0,-0.6,0.0,0.0002536773681640625,0.0002536773681640625,0.0033369064331054688,0
1.8997912406921387,0.008011269383132458,-0.0030729935970157385,-0.3647381663322449,0.9890093989419926,0.6577575057364988,-0.031869858503341675,0.04035831615328789,-0.794955849647522,0.0,0.0,-0.6,0.0,0.00021123886108398438,0.00021123886108398438,0.0029954910278320312,0
1.910048484802246,0.008011269383132458,-0.0030729935970157385,-0.3647381663322449,0.9890093989419926,0.6579907651152486,-0.032551560550928116,0.04210282117128372,-0.7964690923690796,0.0,0.0,-0.6,0.0,0.0002529621124267578,0.0002529621124267578,0.0033211708068847656,0
1.9197955131530762,0.00817758496850729,-0.0026504553388804197,-0.3861197531223297,0.9701268094243872,0.6584302456389777,-0.03203289583325386,0.043376266956329346,-0.7975283861160278,0.0,0.0,-0.6,0.0,0.0001895427703857422,0.0001895427703857422,0.003052949905395508,0
1.9297959804534912,0.008219333365559578,-0.002507890108972788,-0.3929610252380371,0.9637983021055588,0.6588723130408699,-0.031250353902578354,0.04424373060464859,-0.7982698678970337,0.0,0.0,-0.6,0.0,0.00020813941955566406,0.00020813941955566406,0.002983570098876953,0
1.9398550987243652,0.008255798369646072,-0.00236500590108335,-0.39962467551231384,0.9574597175029704,0.6593234653294997,-0.030292155221104622,0.04479333385825157,-0.7987889051437378,0.0,0.0,-0.6,0.0,0.00023412704467773438,0.00023412704467773438,0.0033059120178222656,0
1.9498353004455566,0.008255798369646072,-0.00236500590108335,-0.39962467551231384,0.9574597175029704,0.6596842682983504,-0.029639793559908867,0.045202020555734634,-0.7991522550582886,0.0,0.0,-0.6,0.0,0.0002548694610595703,0.0002548694610595703,0.00360107421875,0
1.9597055912017822,0.008301333524286747,-0.002091692527756095,-0.41242721676826477,0.9448706816398353,0.6601781041308675,-0.02858201414346695,0.045375678688287735,-0.7994065880775452,0.0,0.0,-0.6,0.0,0.00027108192443847656,0.00027108192443847656,0.0032689571380615234,0
1.9697554111480713,0.008316265419125557,-0.001828084816224873,-0.4245487153530121,0.9230293291874747,0.6607928019507019,-0.026906659826636314,0.04517005383968353,-0.7995846271514893,0.0,0.0,-0.6,0.0,0.00020456314086914062,0.00020456314086914062,0.0029883384704589844,0
1.9798336029052734,0.008315450511872768,-0.0016962125664576888,-0.4303596317768097,0.9121366036997858,0.6613981382955962,-0.025468287989497185,0.044803932309150696,-0.7997092604637146,0.0,0.0,-0.6,0.0,0.00022649765014648438,0.00022649765014648438,0.003080606460571289,0
1.990103006362915,0.008315450511872768,-0.0016962125664576888,-0.4303596317768097,0.9121366036997858,0.6618821267098999,-0.024459175765514374,0.044581033289432526,-0.799796462059021,0.0,0.0,-0.6,0.0,0.00025725364685058594,0.00025725364685058594,0.003290414810180664,0
1.999713659286499,0.008279111236333847,-0.0012949069496244192,-0.4470597505569458,0.87937924352496,0.6626180236527327,-0.022596493363380432,0.043673932552337646,-0.799857497215271,0.0,0.0,-0.6,0.0,0.0002586841583251953,0.0002586841583251953,0.0039212703704833984,0
2.0098302364349365,0.008257783018052578,-0.0011602796148508787,-0.45230817794799805,0.868451194248994,0.6633284433977291,-0.02087356708943844,0.04272539168596268,-0.799900233745575,0.0,0.0,-0.6,0.0,0.0002911090850830078,0.0002911090850830078,0.0034170150756835938,0
2.0197296142578125,0.008231126703321934,-0.0010251557687297463,-0.45740169286727905,0.8575401464363983,0.6640188970176065,-0.019264262169599533,0.041749291121959686,-0.7999301552772522,0.0,0.0,-0.6,0.0,0.0002257823944091797,0.0002257823944091797,0.0032241344451904297,0
2.0299270153045654,0.008231126703321934,-0.0010251557687297463,-0.45740169286727905,0.8575401464363983,0.664570835501852,-0.018127184361219406,0.04109855741262436,-0.7999511361122131,0.0,0.0,-0.6,0.0,0.000354766845703125,0.000354766845703125,0.0033102035522460938,0
2.0396907329559326,0.008109873160719872,-0.0006282585673034191,-0.4717775881290436,0.8238185682741074,0.665392342201044,-0.016137676313519478,0.03939115256071091,-0.7999657988548279,0.0,0.0,-0.6,0.0,0.000217437744140625,0.000217437744140625,0.003285646438598633,0
2.0498228073120117,0.008060596883296967,-0.0004967910936102271,-0.4763425290584564,0.8124143708495831,0.666174262162336,-0.014323493465781212,0.037858426570892334,-0.7999760508537292,0.0,0.0,-0.6,0.0,0.00023794174194335938,0.00023794174194335938,0.0031571388244628906,0
2.059809684753418,0.008008059114217758,-0.000364827923476696,-0.48076313734054565,0.8010074502026914,0.6669304075338257,-0.012588966637849808,0.03643961250782013,-0.7999832630157471,0.0,0.0,-0.6,0.0,0.00021123886108398438,0.00021123886108398438,0.0030035972595214844,0
2.070160150527954,0.008008059114217758,-0.000364827923476696,-0.48076313734054565,0.8010074502026914,0.6675348933436186,-0.011363695375621319,0.03547552227973938,-0.7999882698059082,0.0,0.0,-0.6,0.0,0.00037479400634765625,0.00037479400634765625,0.005327701568603516,0
2.0798327922821045,0.008397579193115234,-0.00014687131624668837,-0.49810925126075745,0.766785555435985,0.6682440204778687,-0.008617835119366646,0.03368736431002617,-0.79999178647995,0.0,0.0,-0.6,0.0,0.00028824806213378906,0.00028824806213378906,0.004424333572387695,0
2.0897932052612305,0.008886693976819515,-0.00018848259060177952,-0.5067778825759888,0.7553504657939143,0.6687785360557356,-0.005839538294821978,0.03227541223168373,-0.7999942302703857,0.0,0.0,-0.6,0.0,0.0002315044403076172,0.0002315044403076172,0.0030257701873779297,0
2.09969162940979,0.009359175339341164,-0.0002295832528034225,-0.5151919722557068,0.7439297264523531,0.669180732988028,-0.0030996575951576233,0.031145788729190826,-0.7999959588050842,0.0,0.0,-0.6,0.0,0.00023746490478515625,0.00023746490478515625,0.003324747085571289,0
2.1099460124969482,0.009359175339341164,-0.0002295832528034225,-0.5151919722557068,0.7439297264523531,0.6695024772539722,-0.001178072881884873,0.03038143552839756,-0.7999971508979797,0.0,0.0,-0.6,0.0,0.000217437744140625,0.000217437744140625,0.0030486583709716797,0
2.1196625232696533,0.010256302542984486,-0.000307718466501683,-0.5314157009124756,0.7207405121452428,0.6697093607329978,0.0013758949935436249,0.029307419434189796,-0.7999979853630066,0.0,0.0,-0.6,0.0,0.00025773048400878906,0.00025773048400878906,0.003014802932739258,0
2.1297566890716553,0.011096803471446037,-0.0003805775777436793,-0.546683669090271,0.6979254103554309,0.6698538416478805,0.004540159832686186,0.028192613273859024,-0.7999985814094543,0.0,0.0,-0.6,0.0,0.0002276897430419922,0.0002276897430419922,0.0030336380004882812,0
2.1398065090179443,0.011496340855956078,-0.0004153763293288648,-0.5539723634719849,0.6867135844183384,0.6699631890551652,0.007318766787648201,0.027125593274831772,-0.7999989986419678,0.0,0.0,-0.6,0.0,0.00022554397583007812,0.00022554397583007812,0.0029981136322021484,0
2.150026559829712,0.011496340855956078,-0.0004153763293288648,-0.5539723634719849,0.6867135844183384,0.6700508100119108,0.009266389533877373,0.026390207931399345,-0.7999992966651917,0.0,0.0,-0.6,0.0,0.0002510547637939453,0.0002510547637939453,0.0033447742462158203,0
2.1597719192504883,0.012612555176019669,-0.0005141078727319837,-0.5745158791542053,0.653701486234931,0.6701364327182555,0.01215347833931446,0.025255266577005386,-0.7999995350837708,0.0,0.0,-0.6,0.0,0.00020074844360351562,0.00020074844360351562,0.002885580062866211,0
2.169870376586914,0.012958633713424206,-0.0005453167832456529,-0.5809999704360962,0.6429716260724246,0.6702219647608084,0.014616227708756924,0.024338088929653168,-0.7999996542930603,0.0,0.0,-0.6,0.0,0.00024819374084472656,0.00024819374084472656,0.003199338912963867,0
2.179863929748535,0.013292734511196613,-0.0005759193445555866,-0.5872763395309448,0.6322738417829251,0.6703087854880017,0.016754986718297005,0.02337762527167797,-0.7970973253250122,0.0,0.0,-0.6,0.0,0.0002391338348388672,0.0002391338348388672,0.0031278133392333984,0
2.189835786819458,0.013292734511196613,-0.0005759193445555866,-0.5872763395309448,0.6322738417829251,0.6703783161538233,0.018249977380037308,0.022703424096107483,-0.7950649857521057,0.0,0.0,-0.6,0.0,0.00021266937255859375,0.00021266937255859375,0.0028696060180664062,0
2.199782609939575,0.013922995887696743,-0.0006417581462301314,-0.5992252230644226,0.6112345087612211,0.6704892114754105,0.020134462043642998,0.02158958464860916,-0.7857605814933777,0.0,0.0,-0.6,0.0,0.0002079010009765625,0.0002079010009765625,0.003031492233276367,0
2.2097976207733154,0.01450494397431612,-0.0007093771710060537,-0.6103930473327637,0.5907432797480374,0.6706531320899176,0.022128736600279808,0.020336568355560303,-0.7715685963630676,0.0,0.0,-0.6,0.0,0.0002200603485107422,0.0002200603485107422,0.003119945526123047,0
2.2198050022125244,0.014779401011765003,-0.0007444793591275811,-0.6156944632530212,0.5806714321122206,0.6708259369014512,0.02382611855864525,0.019135218113660812,-0.7578591704368591,0.0,0.0,-0.6,0.0,0.00020599365234375,0.00020599365234375,0.002974987030029297,0
2.2300775051116943,0.014779401011765003,-0.0007444793591275811,-0.6156944632530212,0.5806714321122206,0.6709642096102775,0.025006581097841263,0.018286792561411858,-0.7482614517211914,0.0,0.0,-0.6,0.0,0.00022411346435546875,0.00022411346435546875,0.003244161605834961,0
2.23964524269104,0.015534683130681515,-0.0008526378660462797,-0.6307122111320496,0.5513137001059986,0.671238411582307,0.026442840695381165,0.016830110922455788,-0.7305395603179932,0.0,0.0,-0.6,0.0,0.00020074844360351562,0.00020074844360351562,0.0029778480529785156,0
2.2498576641082764,0.01576404459774494,-0.0008916896767914295,-0.635360062122345,0.5417823364259382,0.6715202524885526,0.027707785367965698,0.015501337125897408,-0.7145608067512512,0.0,0.0,-0.6,0.0,0.00022363662719726562,0.00022363662719726562,0.0030024051666259766,0
2.259779214859009,0.01598244160413742,-0.000933439121581614,-0.6398345232009888,0.5323864460289979,0.6718123557575377,0.028704933822155,0.014119496569037437,-0.699852466583252,0.0,0.0,-0.6,0.0,0.00035691261291503906,0.00035691261291503906,0.0056569576263427734,0
2.270048141479492,0.01598244160413742,-0.000933439121581614,-0.6398345232009888,0.5323864460289979,0.6720459830864999,0.029393939301371574,0.013149016536772251,-0.6895554661750793,0.0,0.0,-0.6,0.0,0.0004420280456542969,0.0004420280456542969,0.004202604293823242,0
2.2798104286193848,0.016570094972848892,-0.0010675436351448298,-0.6522480845451355,0.5051267528094918,0.672456268988737,0.029941393062472343,0.01136027555912733,-0.6721259951591492,0.0,0.0,-0.6,0.0,0.00037598609924316406,0.00037598609924316406,0.0044918060302734375,0
2.2896568775177,0.016744719818234444,-0.0011176031548529863,-0.6561317443847656,0.49636847204997586,0.6728647601618281,0.030316442251205444,0.009675871580839157,-0.6566396951675415,0.0,0.0,-0.6,0.0,0.0002601146697998047,0.0002601146697998047,0.003493785858154297,0
2.299644947052002,0.016907600685954094,-0.001169524621218443,-0.6598542928695679,0.4877441023459615,0.6732763897856963,0.030432403087615967,0.00803125649690628,-0.6425630450248718,0.0,0.0,-0.6,0.0,0.00027680397033691406,0.00027680397033691406,0.0034384727478027344,0
2.31005859375,0.016907600685954094,-0.001169524621218443,-0.6598542928695679,0.4877441023459615,0.6736055196287059,0.03050491027534008,0.0068832216784358025,-0.6327086687088013,0.0,0.0,-0.6,0.0,0.0003159046173095703,0.0003159046173095703,0.0035474300384521484,0
2.319777011871338,0.017197946086525917,-0.001272979425266385,-0.6668274402618408,0.4709703365380896,0.674049618887575,0.029950201511383057,0.005313506815582514,-0.6195163726806641,0.0,0.0,-0.6,0.0,0.00023555755615234375,0.00023555755615234375,0.0031363964080810547,0
2.329854726791382,0.0174433384090662,-0.0013772760285064578,-0.6731882095336914,0.4546886370995108,0.6745951361840584,0.02906203456223011,0.0035166603047400713,-0.6041725873947144,0.0,0.0,-0.6,0.0,0.0004248619079589844,0.0004248619079589844,0.0034093856811523438,0
2.339813709259033,0.01755056530237198,-0.001430597621947527,-0.6761472225189209,0.44678995431588786,0.6751340206699742,0.028036735951900482,0.0018682735972106457,-0.5904677510261536,0.0,0.0,-0.6,0.0,0.00023436546325683594,0.00023436546325683594,0.0031120777130126953,0
2.3498125076293945,0.01755056530237198,-0.001430597621947527,-0.6761472225189209,0.44678995431588786,0.6755649150780353,0.0273139625787735,0.0007246636669151485,-0.5808749794960022,0.0,0.0,-0.6,0.0,0.000213623046875,0.000213623046875,0.0029096603393554688,0
2.3596248626708984,0.017803357914090157,-0.0015914436662569642,-0.6843726634979248,0.42404688001536867,0.6762330513447621,0.025280483067035675,-0.001228537643328309,-0.5656233429908752,0.0,0.0,-0.6,0.0,0.00022029876708984375,0.00022029876708984375,0.0029904842376708984,0
2.369791269302368,0.01786503940820694,-0.001643221010453999,-0.6868307590484619,0.4167809207208332,0.6768786102088279,0.023227741941809654,-0.0029740124009549618,-0.552221417427063,0.0,0.0,-0.6,0.0,0.00020241737365722656,0.00020241737365722656,0.0029070377349853516,0
2.379715919494629,0.01791480742394924,-0.0016952699515968561,-0.6891512870788574,0.4096999564095337,0.6775100883589871,0.021238822489976883,-0.0045807017013430595,-0.5401839017868042,0.0,0.0,-0.6,0.0,0.00021719932556152344,0.00021719932556152344,0.002917766571044922,0
2.3900058269500732,0.01791480742394924,-0.0016952699515968561,-0.6891512870788574,0.4096999564095337,0.6780149821822199,0.019846566021442413,-0.005690662190318108,-0.53175950050354,0.0,0.0,-0.6,0.0,0.0002532005310058594,0.0002532005310058594,0.0031058788299560547,0
2.3997442722320557,0.018000544980168343,-0.0018495004624128342,-0.6954962611198425,0.3891506269343685,0.6787541733435526,0.016973232850432396,-0.007418865337967873,-0.518150806427002,0.0,0.0,-0.6,0.0,0.00017523765563964844,0.00017523765563964844,0.002636432647705078,0
2.409891366958618,0.018009841442108154,-0.0018998334417119622,-0.6973800659179688,0.38260747389000127,0.6794639183438833,0.014350811019539833,-0.008962541818618774,-0.5061720013618469,0.0,0.0,-0.6,0.0,0.0002295970916748047,0.0002295970916748047,0.0033042430877685547,0
2.419757127761841,0.018007546663284302,-0.001950118108652532,-0.6991375088691711,0.37623318955425133,0.6801508267636458,0.011850104667246342,-0.010533717460930347,-0.4953966736793518,0.0,0.0,-0.6,0.0,0.00027632713317871094,0.00027632713317871094,0.0035474300384521484,0
2.429746389389038,0.018007546663284302,-0.001950118108652532,-0.6991375088691711,0.37623318955425133,0.6807000464326872,0.010102944448590279,-0.011617283336818218,-0.4878564476966858,0.0,0.0,-0.6,0.0,0.00022602081298828125,0.00022602081298828125,0.0029556751251220703,0
2.4397003650665283,0.017924461513757706,-0.00209437170997262,-0.7036773562431335,0.3579289153820101,0.6815043186061098,0.006684361025691032,-0.01374370139092207,-0.4757104814052582,0.0,0.0,-0.6,0.0,0.0002143383026123047,0.0002143383026123047,0.0032296180725097656,0
2.449789047241211,0.01787392981350422,-0.002138623269274831,-0.7049539685249329,0.352134519024531,0.6822700540733999,0.003461231244727969,-0.015535254031419754,-0.46503946185112,0.0,0.0,-0.6,0.0,0.0002887248992919922,0.0002887248992919922,0.003108978271484375,0
2.4597630500793457,0.017811933532357216,-0.002179361879825592,-0.7062011361122131,0.3463514400436264,0.6830000798211965,0.00031883129850029945,-0.01713351532816887,-0.4554050862789154,0.0,0.0,-0.6,0.0,0.00020647048950195312,0.00020647048950195312,0.0030345916748046875,0
2.4700255393981934,0.017811933532357216,-0.002179361879825592,-0.7062011361122131,0.3463514400436264,0.6835837941790271,-0.0018738573417067528,-0.018234234303236008,-0.4486643970012665,0.0,0.0,-0.6,0.0,0.00023865699768066406,0.00023865699768066406,0.0033159255981445312,0
2.479871988296509,0.018410492688417435,-0.0025352260563522577,-0.7142210602760315,0.3298407220216866,0.6842545425434271,-0.0055802371352910995,-0.019169196486473083,-0.43776050209999084,0.0,0.0,-0.6,0.0,0.0003120899200439453,0.0003120899200439453,0.003743886947631836,0
2.489821195602417,0.019137876108288765,-0.0028142109513282776,-0.7198524475097656,0.3245634001032541,0.6847477301655609,-0.008540818467736244,-0.01946619711816311,-0.4281526207923889,0.0,0.0,-0.6,0.0,0.00021505355834960938,0.00021505355834960938,0.0029976367950439453,0
2.499892473220825,0.019838331267237663,-0.0030835215002298355,-0.7252587676048279,0.3194201266171342,0.6851017051949384,-0.01112457551062107,-0.019330846145749092,-0.41950157284736633,0.0,0.0,-0.6,0.0,0.0003113746643066406,0.0003113746643066406,0.004205942153930664,0
2.5098204612731934,0.020510965958237648,-0.003342265961691737,-0.7304456830024719,0.3144217507935373,0.685353542998311,-0.013396198861300945,-0.01898265816271305,-0.4115731418132782,0.0,0.0,-0.6,0.0,0.000244140625,0.000244140625,0.0032143592834472656,0
2.519800901412964,0.02177475579082966,-0.0038338445592671633,-0.7403000593185425,0.30474509247039855,0.6855011139393756,-0.015838149935007095,-0.018131643533706665,-0.4023972749710083,0.0,0.0,-0.6,0.0,0.0002315044403076172,0.0002315044403076172,0.002980470657348633,0
2.529788017272949,0.022369295358657837,-0.004066296853125095,-0.7449172735214233,0.29996143095709726,0.6855947587656119,-0.01800037920475006,-0.017231212928891182,-0.3941808342933655,0.0,0.0,-0.6,0.0,0.00020551681518554688,0.00020551681518554688,0.002981424331665039,0
2.5396668910980225,0.022939840331673622,-0.004288916941732168,-0.7493370771408081,0.29527024384139994,0.68564189520417,-0.020044753327965736,-0.016169674694538116,-0.386671245098114,0.0,0.0,-0.6,0.0,0.00022602081298828125,0.00022602081298828125,0.0029516220092773438,0
2.5500428676605225,0.022939840331673622,-0.004288916941732168,-0.7493370771408081,0.29527024384139994,0.6856797216423496,-0.0214722640812397,-0.015421065501868725,-0.3814132809638977,0.0,0.0,-0.6,0.0,0.000232696533203125,0.000232696533203125,0.003112316131591797,0
2.5597472190856934,0.024516291916370392,-0.004891727119684219,-0.7614573240280151,0.28181211925917476,0.6856722837799485,-0.02384609915316105,-0.013772450387477875,-0.37268975377082825,0.0,0.0,-0.6,0.0,0.00018215179443359375,0.00018215179443359375,0.0027451515197753906,0
2.569868326187134,0.024996474385261536,-0.005071830470114946,-0.7651307582855225,0.27753271813029456,0.6856713291828842,-0.025852831080555916,-0.012317552231252193,-0.3649771511554718,0.0,0.0,-0.6,0.0,0.000217437744140625,0.000217437744140625,0.0029892921447753906,0
2.579789400100708,0.02545495517551899,-0.005242960061877966,-0.7686997056007385,0.2733177773103839,0.6856779715634135,-0.0274856835603714,-0.01090314332395792,-0.3579958379268646,0.0,0.0,-0.6,0.0,0.00023031234741210938,0.00023031234741210938,0.003103971481323242,0
2.5898685455322266,0.02545495517551899,-0.005242960061877966,-0.7686997056007385,0.2733177773103839,0.6856833808857102,-0.028624899685382843,-0.00990879163146019,-0.35310739278793335,0.0,0.0,-0.6,0.0,0.00021886825561523438,0.00021886825561523438,0.0029914379119873047,0
2.5996761322021484,0.026710031554102898,-0.005698998924344778,-0.778365969657898,0.2611656769789935,0.6857356027952405,-0.030578745529055595,-0.008105732500553131,-0.34512847661972046,0.0,0.0,-0.6,0.0,0.0002281665802001953,0.0002281665802001953,0.003123760223388672,0
2.609833002090454,0.02708894945681095,-0.005829681642353535,-0.7812542915344238,0.2572588506924894,0.6858038082116935,-0.03229731321334839,-0.00651501165702939,-0.3380759060382843,0.0,0.0,-0.6,0.0,0.00024271011352539062,0.00024271011352539062,0.0031692981719970703,0
2.619763135910034,0.0274494681507349,-0.00595057150349021,-0.7839815616607666,0.2534180722646478,0.6858874362782498,-0.03376475349068642,-0.005058704875409603,-0.3316963315010071,0.0,0.0,-0.6,0.0,0.00020956993103027344,0.00020956993103027344,0.0029244422912597656,0
2.6300363540649414,0.0274494681507349,-0.00595057150349021,-0.7839815616607666,0.2534180722646478,0.6859543561810699,-0.03478778898715973,-0.004036386497318745,-0.32722917199134827,0.0,0.0,-0.6,0.0,0.00024628639221191406,0.00024628639221191406,0.003216266632080078,0
2.6396615505218506,0.028421076014637947,-0.006256603170186281,-0.7914047837257385,0.24231120229903622,0.6861210943614221,-0.03634614869952202,-0.0024207141250371933,-0.31993368268013,0.0,0.0,-0.6,0.0,0.00020599365234375,0.00020599365234375,0.002923727035522461,0
2.649900436401367,0.02870934084057808,-0.006340597756206989,-0.7936019897460938,0.23873600347049861,0.6863069534221353,-0.037705227732658386,-0.0011242381297051907,-0.3134840130805969,0.0,0.0,-0.6,0.0,0.0003039836883544922,0.0003039836883544922,0.004283905029296875,0
2.6598317623138428,0.02897910587489605,-0.006414111237972975,-0.7956502437591553,0.23524224161894108,0.6865065161840682,-0.03891804441809654,-4.811406688531861e-05,-0.30765724182128906,0.0,0.0,-0.6,0.0,0.0002682209014892578,0.0002682209014892578,0.0034117698669433594,0
2.6700000762939453,0.02897910587489605,-0.006414111237972975,-0.7956502437591553,0.23524224161894108,0.6866661855577625,-0.039763327687978745,0.0007067275000736117,-0.30357763171195984,0.0,0.0,-0.6,0.0,0.00025844573974609375,0.00025844573974609375,0.0032677650451660156,0
2.6797537803649902,0.0296856090426445,-0.006578973028808832,-0.8009459376335144,0.22493505052989288,0.6869588219849879,-0.04083617404103279,0.0016744992462918162,-0.2968533933162689,0.0,0.0,-0.6,0.0,0.00023627281188964844,0.00023627281188964844,0.0029382705688476562,0
2.689789295196533,0.029888086020946503,-0.006616697646677494,-0.8024353384971619,0.22159222701869713,0.6872565099762593,-0.04170188680291176,0.002482515526935458,-0.2908911406993866,0.0,0.0,-0.6,0.0,0.0002446174621582031,0.0002446174621582031,0.0038573741912841797,0
2.6996707916259766,0.030075324699282646,-0.0066461823880672455,-0.803851842880249,0.2183097484145174,0.6875579740565135,-0.04237102344632149,0.0031493769492954016,-0.2854852080345154,0.0,0.0,-0.6,0.0,0.0002434253692626953,0.0002434253692626953,0.0034313201904296875,0
2.7100203037261963,0.030075324699282646,-0.0066461823880672455,-0.803851842880249,0.2183097484145174,0.6877990701949324,-0.04283697158098221,0.003616528119891882,-0.2817007601261139,0.0,0.0,-0.6,0.0,0.0002524852752685547,0.0002524852752685547,0.0035338401794433594,0
2.719850778579712,0.03054210916161537,-0.00668647326529026,-0.8073174953460693,0.20885131846235086,0.6882114643292115,-0.04336807504296303,0.004079547245055437,-0.27550286054611206,0.0,0.0,-0.6,0.0,0.0003809928894042969,0.0003809928894042969,0.004628181457519531,0
2.7298660278320312,0.030666865408420563,-0.0066844625398516655,-0.8082199096679688,0.2058196155420048,0.6886211067426486,-0.04371034353971481,0.004394784569740295,-0.27002713084220886,0.0,0.0,-0.6,0.0,0.00026226043701171875,0.00026226043701171875,0.0034236907958984375,0
2.7398040294647217,0.030776800587773323,-0.006675561424344778,-0.8089993596076965,0.2028260511742832,0.6890350515027834,-0.043912872672080994,0.004645234439522028,-0.26507091522216797,0.0,0.0,-0.6,0.0,0.0004372596740722656,0.0004372596740722656,0.0045490264892578125,0
2.749760389328003,0.030776800587773323,-0.006675561424344778,-0.8089993596076965,0.2028260511742832,0.6893660826891411,-0.04405374825000763,0.004820474423468113,-0.2616015374660492,0.0,0.0,-0.6,0.0,0.00022029876708984375,0.00022029876708984375,0.00330352783203125,0
2.7596964836120605,0.03095567785203457,-0.006634904071688652,-0.8102809190750122,0.19683943407485574,0.689805909701871,-0.04408209025859833,0.00488625280559063,-0.256928026676178,0.0,0.0,-0.6,0.0,0.0002593994140625,0.0002593994140625,0.003486156463623047,0
2.7696826457977295,0.031078338623046875,-0.00656474893912673,-0.8110951781272888,0.19107177475571732,0.6903455336117236,-0.043974246829748154,0.0047210087068378925,-0.2514954209327698,0.0,0.0,-0.6,0.0,0.00023865699768066406,0.00023865699768066406,0.003514528274536133,0
2.7797248363494873,0.031119229272007942,-0.0065189022570848465,-0.811331570148468,0.18823470773600173,0.6908738047248751,-0.04385581985116005,0.004497780930250883,-0.24662962555885315,0.0,0.0,-0.6,0.0,0.00023651123046875,0.00023651123046875,0.0033617019653320312,0
