time,x,y,z,yaw,throttle,roll_rate,pitch_rate,yaw_rate,x_ref,y_ref,z_ref,yaw_ref,pred_time,nr_time,ctrl_callback_time,metadata
9.5367431640625e-07,0.010483860969543457,-0.005014768801629543,-0.02444908395409584,-0.021669032137745275,0.6935150256235927,0.0,0.0,0.0,0.0,0.0,-0.6,0.0,0.002125978469848633,0.002125978469848633,0.0028471946716308594,Sim
0.010263919830322266,0.010474496521055698,-0.005038953386247158,-0.024418707937002182,-0.02166215742165122,0.6935150256235927,0.00028068955242266884,0.00012736188376601007,-4.981474555983491e-07,0.0,0.0,-0.6,0.0,0.002097606658935547,0.002097606658935547,0.0029032230377197266,flat wardi normal
0.019884109497070312,0.010464495979249477,-0.005064599681645632,-0.024389030411839485,-0.021669184809199306,0.6935558243980565,0.0007591589046225948,0.0003539021479927068,-1.36490163487811e-06,0.0,0.0,-0.6,0.0,0.001786947250366211,0.001786947250366211,0.0023453235626220703,1x Speed
0.03010416030883789,0.01044634822756052,-0.005124023649841547,-0.024333378300070763,-0.02162385785214234,0.6936659824442168,0.0013782364796749182,0.0006579613443620353,-2.5098156208866e-06,0.0,0.0,-0.6,0.0,0.0018737316131591797,0.0018737316131591797,0.002588510513305664,circle_horz_ref_func
0.04016566276550293,0.01043821219354868,-0.00515617523342371,-0.02430723048746586,-0.021607689930296475,0.6938654775577364,0.002101290488891934,0.001022207902622262,-3.878540833781296e-06,0.0,0.0,-0.6,0.0,0.003961801528930664,0.003961801528930664,0.005009174346923828,0
0.05025768280029297,0.010429596528410912,-0.005190599709749222,-0.02428095042705536,-0.02160225704457277,0.6941682273809513,0.002896330705987369,0.0014333443137189636,-5.39276485598547e-06,0.0,0.0,-0.6,0.0,0.0026924610137939453,0.0026924610137939453,0.0035948753356933594,0
0.06015443801879883,0.01042206585407257,-0.0052270120941102505,-0.02425656095147133,-0.021586391072079443,0.6945838329466435,0.0037414620149979192,0.001880980647099,-7.093636885098332e-06,0.0,0.0,-0.6,0.0,0.001990079879760742,0.001990079879760742,0.002783536911010742,0
0.06986403465270996,0.010408547706902027,-0.0053005581721663475,-0.024177387356758118,-0.021579335411100624,0.6951187908164225,0.004620086555443544,0.002355284222406903,-8.918101725555842e-06,0.0,0.0,-0.6,0.0,0.0014448165893554688,0.0014448165893554688,0.0019681453704833984,0
0.08040618896484375,0.010404324159026146,-0.005338055081665516,-0.024121617898344994,-0.0215881721521743,0.6957773061092372,0.0055177017533902945,0.0028498539362518285,-1.092508709969375e-05,0.0,0.0,-0.6,0.0,0.0021398067474365234,0.0021398067474365234,0.0028839111328125,0
0.0902254581451416,0.010401462204754353,-0.005376399029046297,-0.02406756393611431,-0.021589605036704526,0.6965619058581244,0.006425952579492656,0.0033588611736397097,-1.3061916417485128e-05,0.0,0.0,-0.6,0.0,0.0018835067749023438,0.0018835067749023438,0.0026247501373291016,0
0.09987568855285645,0.010399236343801022,-0.005414594430476427,-0.024014852941036224,-0.021584697824043125,0.6974738314880313,0.007335607359348756,0.0038760551260827833,-1.5357422093242393e-05,0.0,0.0,-0.6,0.0,0.001718759536743164,0.001718759536743164,0.0022764205932617188,0
0.11017894744873047,0.010399559512734413,-0.005497531965374947,-0.023910455405712128,-0.021568615694377728,0.6985133184823995,0.008241600583046767,0.004397001314724092,-1.7643368896133713e-05,0.0,0.0,-0.6,0.0,0.0016551017761230469,0.0016551017761230469,0.0022993087768554688,0
0.1201941967010498,0.010399294085800648,-0.005542117636650801,-0.02386116422712803,-0.02157126090257788,0.6996797989889374,0.009145746508471919,0.004918805023898216,-1.9843173750455355e-05,0.0,0.0,-0.6,0.0,0.0023474693298339844,0.0023474693298339844,0.0033228397369384766,0
0.1299748420715332,0.01039868500083685,-0.0055882069282233715,-0.023813994601368904,-0.021580594576637135,0.7009720532553309,0.010044442705481216,0.0054374430268523954,-2.217444886146372e-05,0.0,0.0,-0.6,0.0,0.001598358154296875,0.001598358154296875,0.0021071434020996094,0
0.14004969596862793,0.010398304089903831,-0.00563599169254303,-0.023767773061990738,-0.02158254500932159,0.7023882758002133,0.010933798035683041,0.005949714248759704,-2.476105748218273e-05,0.0,0.0,-0.6,0.0,0.0017206668853759766,0.0017206668853759766,0.0024111270904541016,0
0.1499805450439453,0.009909234941005707,-0.005644386634230614,-0.023625066503882408,-0.0215923838072413,0.7039261576266187,0.011813895436421371,0.0064541103252478685,-2.7496506172810635e-05,0.0,0.0,-0.6,0.0,0.001596212387084961,0.001596212387084961,0.002160310745239258,0
0.16001081466674805,0.009670908562839031,-0.005651325453072786,-0.02355627529323101,-0.021592855536785527,0.7055829482915575,0.012684436822224402,0.006937176517736574,-3.064221624791168e-05,0.0,0.0,-0.6,0.0,0.0016019344329833984,0.0016019344329833984,0.0022263526916503906,0
0.17014503479003906,0.00943668931722641,-0.00565960630774498,-0.023488862439990044,-0.021593427532929196,0.7073555051020628,0.01353803812060566,0.00739479490898583,-3.359820963631241e-05,0.0,0.0,-0.6,0.0,0.0015919208526611328,0.0015919208526611328,0.002229928970336914,0
0.17999625205993652,0.009205684997141361,-0.0056708743795752525,-0.023423874750733376,-0.021582443127821305,0.7092403114481527,0.014373101408084808,0.007823013017120907,-3.674406085857595e-05,0.0,0.0,-0.6,0.0,0.0015053749084472656,0.0015053749084472656,0.001992940902709961,0
0.19009947776794434,0.008753138594329357,-0.005699066910892725,-0.02330218069255352,-0.021579955753778222,0.7112335034827579,0.015188831303985972,0.008218223862500413,-3.95294831925926e-05,0.0,0.0,-0.6,0.0,0.0015404224395751953,0.0015404224395751953,0.0021436214447021484,0
0.1999666690826416,0.008532766252756119,-0.005714063532650471,-0.023246681317687035,-0.02157109858658431,0.7133308829406951,0.015981237661657082,0.008574541340280187,-4.2517275266619346e-05,0.0,0.0,-0.6,0.0,0.0016584396362304688,0.0016584396362304688,0.002299070358276367,0
0.2098684310913086,0.008314624428749084,-0.005728837102651596,-0.023193156346678734,-0.021560246028359147,0.7155279436308011,0.01674660634122254,0.008892283078700738,-4.560481901830282e-05,0.0,0.0,-0.6,0.0,0.0015027523040771484,0.0015027523040771484,0.002075672149658203,0
0.2200312614440918,0.008098175749182701,-0.0057443659752607346,-0.02313256449997425,-0.021565500097353682,0.7178198883618937,0.01748327148699693,0.009170060288298636,-4.884971885377669e-05,0.0,0.0,-0.6,0.0,0.0016460418701171875,0.0016460418701171875,0.0023038387298583984,0
0.22995972633361816,0.007885037921369076,-0.0057604992762207985,-0.02307484671473503,-0.021558109792923805,0.7202016713714497,0.01819217976312021,0.009408123144094017,-5.231510830976726e-05,0.0,0.0,-0.6,0.0,0.0015408992767333984,0.0015408992767333984,0.002096414566040039,0
0.24010276794433594,0.007675541564822197,-0.005776157137006521,-0.023020142689347267,-0.021549726359639598,0.7226680019507334,0.01886961535866947,0.009607125595213173,-5.551226612495077e-05,0.0,0.0,-0.6,0.0,0.0019338130950927734,0.0019338130950927734,0.0026824474334716797,0
0.2502734661102295,0.007268443703651428,-0.005807964596897364,-0.022926699370145798,-0.021546950124783217,0.7252133589731902,0.0195139287929194,0.009768986929184,-5.76458855126235e-05,0.0,0.0,-0.6,0.0,0.0026688575744628906,0.0026688575744628906,0.003650188446044922,0
0.25997042655944824,0.0070705595426261425,-0.005824791733175516,-0.02289488911628723,-0.021550501185537932,0.7278320131363069,0.020122406421094592,0.009894367136332256,-5.9934906198908934e-05,0.0,0.0,-0.6,0.0,0.0017604827880859375,0.0017604827880859375,0.0023756027221679688,0
0.27011656761169434,0.006876223720610142,-0.005842023994773626,-0.022875774651765823,-0.021537066290394223,0.7305179735939136,0.020694909604445602,0.009985564379489135,-6.18562885764093e-05,0.0,0.0,-0.6,0.0,0.0016024112701416016,0.0016024112701416016,0.0021963119506835938,0
0.28021812438964844,0.0066830310970544815,-0.0058593470603227615,-0.022872930392622948,-0.021538834010375606,0.7332650427858528,0.021231619377400188,0.010044276327944128,-6.318398313832667e-05,0.0,0.0,-0.6,0.0,0.0015506744384765625,0.0015506744384765625,0.0021734237670898438,0
0.28987574577331543,0.006299973465502262,-0.005891735199838877,-0.02293090708553791,-0.02156182590633264,0.7360668205055257,0.021729751900437046,0.01007194505948158,-6.32370989049421e-05,0.0,0.0,-0.6,0.0,0.001508474349975586,0.001508474349975586,0.0020208358764648438,0
0.2999997138977051,0.006111417431384325,-0.005907728336751461,-0.02299676090478897,-0.021576618497427633,0.7389167194633428,0.022180212932937312,0.010064817172378912,-6.431410365231395e-05,0.0,0.0,-0.6,0.0,0.0013070106506347656,0.0013070106506347656,0.0018842220306396484,0
0.3097987174987793,0.005925006698817015,-0.0059244283474981785,-0.02308911830186844,-0.02157978757599127,0.7418078456628272,0.02258662229429719,0.010027190757869243,-6.53521331937105e-05,0.0,0.0,-0.6,0.0,0.0017864704132080078,0.0017864704132080078,0.0024175643920898438,0
0.3201282024383545,0.005740142427384853,-0.005941428709775209,-0.023210780695080757,-0.021561687478250824,0.744733173372761,0.022951304613780716,0.009960843861947004,-6.57601779750931e-05,0.0,0.0,-0.6,0.0,0.0023064613342285156,0.0023064613342285156,0.0031723976135253906,0
0.3303952217102051,0.0053762830793857574,-0.005977913271635771,-0.023558424785733223,-0.021550158012977504,0.7476855548318779,0.023275227464987475,0.009869242541156582,-6.371281950210146e-05,0.0,0.0,-0.6,0.0,0.003025531768798828,0.003025531768798828,0.004167318344116211,0
0.3399627208709717,0.005197316408157349,-0.005997351370751858,-0.02379125915467739,-0.021565096059540895,0.7506577358304879,0.023552378929076107,0.009752513964288485,-6.362038625503412e-05,0.0,0.0,-0.6,0.0,0.0018744468688964844,0.0018744468688964844,0.002506256103515625,0
0.3501460552215576,0.00484467763453722,-0.0060349577106535435,-0.024392753839492798,-0.021566334645112963,0.7536420893513486,0.02378600715105462,0.009613787126251385,-6.146648346241326e-05,0.0,0.0,-0.6,0.0,0.001590728759765625,0.001590728759765625,0.002217531204223633,0
0.3600122928619385,0.004670529626309872,-0.006052093114703894,-0.024766772985458374,-0.02157075921542626,0.7566309537812196,0.023965051325853193,0.009451866585796817,-6.107229070592078e-05,0.0,0.0,-0.6,0.0,0.0016396045684814453,0.0016396045684814453,0.0023021697998046875,0
0.3699679374694824,0.004499827511608601,-0.006068806163966656,-0.025195591151714325,-0.021576293922955278,0.7596162897036584,0.02409383676170751,0.009270415392128114,-5.974339241469278e-05,0.0,0.0,-0.6,0.0,0.0015757083892822266,0.0015757083892822266,0.0021102428436279297,0
0.3803565502166748,0.0043327659368515015,-0.006084285210818052,-0.025681061670184135,-0.021591461274049064,0.762590097932259,0.02417624194486502,0.009075686248119988,-5.9134685567934385e-05,0.0,0.0,-0.6,0.0,0.0016605854034423828,0.0016605854034423828,0.0022590160369873047,0
0.3899381160736084,0.0040047368966042995,-0.006113093812018633,-0.026838792487978935,-0.021606994282470683,0.7655444042598988,0.024212675217982746,0.008869773593583154,-5.738641937612e-05,0.0,0.0,-0.6,0.0,0.0015385150909423828,0.0015385150909423828,0.002053499221801758,0
0.4000415802001953,0.0038468753919005394,-0.006125090178102255,-0.027517195791006088,-0.02161695430018615,0.7684712588175926,0.024190506531336177,0.008648995499311323,-5.667173185887212e-05,0.0,0.0,-0.6,0.0,0.0015888214111328125,0.0015888214111328125,0.002231121063232422,0
0.41019558906555176,0.0036916928365826607,-0.006136562209576368,-0.028267474845051765,-0.021612559505318006,0.7713622625465797,0.024117506514779546,0.008416849412948214,-5.635579187804301e-05,0.0,0.0,-0.6,0.0,0.0016531944274902344,0.0016531944274902344,0.0022995471954345703,0
0.41982555389404297,0.0035392390564084053,-0.006146837957203388,-0.02909318543970585,-0.021598638341866157,0.774209155798951,0.024000713527582682,0.008174567215283311,-5.505348833863715e-05,0.0,0.0,-0.6,0.0,0.0015106201171875,0.0015106201171875,0.0019860267639160156,0
0.43007826805114746,0.0033889340702444315,-0.00615600636228919,-0.029997872188687325,-0.021591139263865113,0.7770037780049739,0.02384302051393435,0.007925998005159423,-5.378402439999088e-05,0.0,0.0,-0.6,0.0,0.001605987548828125,0.001605987548828125,0.0022318363189697266,0
0.44014930725097656,0.00308853923343122,-0.00617142952978611,-0.032029878348112106,-0.021572082933718244,0.7797380553295897,0.0236497126513389,0.007671334328566098,-4.9712188952422686e-05,0.0,0.0,-0.6,0.0,0.0018935203552246094,0.0018935203552246094,0.0026187896728515625,0
0.4501383304595947,0.002938695251941681,-0.006177044939249754,-0.033180736005306244,-0.021557315778003138,0.7824039932500986,0.023410514495752415,0.00740845638188778,-4.7728884289787785e-05,0.0,0.0,-0.6,0.0,0.0021753311157226562,0.0021753311157226562,0.002925395965576172,0
0.46010398864746094,0.0027914925012737513,-0.006180050317198038,-0.03442734107375145,-0.02155325018428084,0.7849930555750091,0.023130277344691627,0.007139839066320031,-4.5619001006331694e-05,0.0,0.0,-0.6,0.0,0.001886129379272461,0.001886129379272461,0.0026483535766601562,0
0.4698374271392822,0.0024992884136736393,-0.006177188828587532,-0.03721746429800987,-0.021576706119603117,0.7874969296463026,0.022810126631633256,0.006869415068721974,-4.211370473928503e-05,0.0,0.0,-0.6,0.0,0.001596689224243164,0.001596689224243164,0.0021538734436035156,0
0.4801754951477051,0.0023562631104141474,-0.006168954074382782,-0.03876875340938568,-0.021585076932946923,0.7899075005301831,0.022430138619257176,0.006594882447428655,-4.072197920149284e-05,0.0,0.0,-0.6,0.0,0.0013239383697509766,0.0013239383697509766,0.0018639564514160156,0
0.4901149272918701,0.0022146182600408792,-0.006156648509204388,-0.04042946919798851,-0.021599875353164596,0.7922160831851633,0.021996995708028558,0.006318279882209355,-3.926662149209943e-05,0.0,0.0,-0.6,0.0,0.0014834403991699219,0.0014834403991699219,0.002091646194458008,0
0.49985313415527344,0.0020739149767905474,-0.006140758749097586,-0.042201731353998184,-0.02161049292583722,0.7944143385493112,0.021516349554027498,0.006038770664184063,-3.747563535371031e-05,0.0,0.0,-0.6,0.0,0.001459360122680664,0.001459360122680664,0.0019745826721191406,0
0.5099368095397949,0.0019353099633008242,-0.006120255216956139,-0.04410798102617264,-0.021623305148169625,0.7964942028344526,0.020992436016295225,0.005757782256545884,-3.561403409898695e-05,0.0,0.0,-0.6,0.0,0.001268148422241211,0.001268148422241211,0.0018260478973388672,0
0.520000696182251,0.0016638059169054031,-0.0060673970729112625,-0.0482742078602314,-0.021620375908054327,0.7984478581880511,0.020427471495487442,0.005476236405803207,-3.1789574922766014e-05,0.0,0.0,-0.6,0.0,0.0012493133544921875,0.0012493133544921875,0.0018143653869628906,0
0.5298991203308105,0.001531615387648344,-0.006035182625055313,-0.05053931474685669,-0.021617392866862675,0.8002676954374099,0.01980889570720684,0.005196256917449586,-2.9645228036848422e-05,0.0,0.0,-0.6,0.0,0.0011942386627197266,0.0011942386627197266,0.00160980224609375,0
0.5399677753448486,0.00140310765709728,-0.00600010110065341,-0.05293012782931328,-0.02161340563529882,0.8019454118268894,0.01914463230140049,0.0049201992609916615,-2.7421097015719037e-05,0.0,0.0,-0.6,0.0,0.0018961429595947266,0.0018961429595947266,0.0024979114532470703,0
0.5499250888824463,0.0013321085134521127,-0.005887710489332676,-0.054918915033340454,-0.021624313780266483,0.8034731343249246,0.018440699713532308,0.004649675085534831,-2.5269768447799488e-05,0.0,0.0,-0.6,0.0,0.0017409324645996094,0.0017409324645996094,0.002350330352783203,0
0.5600371360778809,0.001260389108210802,-0.0057747927494347095,-0.057048771530389786,-0.021621012328298456,0.8048433411595648,0.017700106080080855,0.0043843841581863476,-2.3465134013376842e-05,0.0,0.0,-0.6,0.0,0.001650094985961914,0.001650094985961914,0.002319812774658203,0
0.570183515548706,0.0011160989524796605,-0.005543889943510294,-0.06173770874738693,-0.021645520956305026,0.8060488605691017,0.01692333529905696,0.004123869536336299,-2.0277071780970432e-05,0.0,0.0,-0.6,0.0,0.001707315444946289,0.001707315444946289,0.002330303192138672,0
0.5799989700317383,0.0010439623147249222,-0.00542416563257575,-0.06430234014987946,-0.02166904042291062,0.8070828162886763,0.0160916817432095,0.0038672625216918553,-1.8507972382810374e-05,0.0,0.0,-0.6,0.0,0.0015282630920410156,0.0015282630920410156,0.002017974853515625,0
0.5900213718414307,0.0009733253973536193,-0.005301028024405241,-0.06701631844043732,-0.021674588577668425,0.8079376208640746,0.015209596832166121,0.003615038131559814,-1.6577407008162918e-05,0.0,0.0,-0.6,0.0,0.0016765594482421875,0.0016765594482421875,0.0022873878479003906,0
0.5999031066894531,0.0009038966381922364,-0.005173899699002504,-0.06988070160150528,-0.02167054377265501,0.8086061965516437,0.01427821786446138,0.003369650535840795,-1.4929152624468786e-05,0.0,0.0,-0.6,0.0,0.0016658306121826172,0.0016658306121826172,0.0022695064544677734,0
0.6100308895111084,0.0007694732048548758,-0.004910691641271114,-0.07606644928455353,-0.02166659215403849,0.8090818878841697,0.013299424816506998,0.003130929601403814,-1.3007656947943478e-05,0.0,0.0,-0.6,0.0,0.0016605854034423828,0.0016605854034423828,0.002222776412963867,0
0.6200942993164062,0.0007067156257107854,-0.004774907138198614,-0.07939095795154572,-0.021673411022843474,0.8093583993645673,0.012258648872187314,0.002903316876449134,-1.1719692569519525e-05,0.0,0.0,-0.6,0.0,0.001661062240600586,0.001661062240600586,0.002347230911254883,0
0.6299395561218262,0.0006462741293944418,-0.004634364973753691,-0.08287013322114944,-0.021671905660495934,0.8094286635038757,0.01116021774525098,0.0026869348681935056,-1.0207194346424817e-05,0.0,0.0,-0.6,0.0,0.0016236305236816406,0.0016236305236816406,0.0021393299102783203,0
0.6400163173675537,0.0005305969389155507,-0.0043388535268604755,-0.09029565751552582,-0.02169343193497827,0.809286210127086,0.010004883201675304,0.0024829934509971825,-7.737308251668603e-06,0.0,0.0,-0.6,0.0,0.0016565322875976562,0.0016565322875976562,0.0022962093353271484,0
0.6501741409301758,0.00047394121065735817,-0.004184463061392307,-0.09424427151679993,-0.021681348250836525,0.8089250619849775,0.008774443720617309,0.0022933256445381465,-6.451313004889692e-06,0.0,0.0,-0.6,0.0,0.0016810894012451172,0.0016810894012451172,0.002326488494873047,0
0.6598732471466064,0.00041868112748488784,-0.00402550445869565,-0.09835170954465866,-0.021651108930514244,0.8083385031031904,0.00747359737415165,0.002117836179076276,-5.415490374475721e-06,0.0,0.0,-0.6,0.0,0.0015821456909179688,0.0015821456909179688,0.0020973682403564453,0
0.6701123714447021,0.00030972520471550524,-0.0036931284703314304,-0.10704444348812103,-0.021641365674605156,0.8075205020644772,0.006103101705137579,0.001956853017481143,-4.281568242595603e-06,0.0,0.0,-0.6,0.0,0.0016758441925048828,0.0016758441925048828,0.0022695064544677734,0
0.6802680492401123,0.00025871588150039315,-0.0035203027073293924,-0.11162781715393066,-0.021641900948631335,0.8064655741842516,0.004648735404436287,0.0018101164909079396,-3.926856110486125e-06,0.0,0.0,-0.6,0.0,0.0016314983367919922,0.0016314983367919922,0.002268552780151367,0
0.6899173259735107,0.00020937345107086003,-0.0033437535166740417,-0.11636804789304733,-0.021637847452842085,0.8051674936425484,0.003115327106109506,0.0016771558166077064,-3.872761418215731e-06,0.0,0.0,-0.6,0.0,0.0014963150024414062,0.0014963150024414062,0.001997709274291992,0
0.7000224590301514,0.00016110972501337528,-0.003163570072501898,-0.12126322090625763,-0.021618775615719205,0.80362079319055,0.0015059089567574708,0.0015580071631147597,-4.091734754785424e-06,0.0,0.0,-0.6,0.0,0.0015366077423095703,0.0015366077423095703,0.0021436214447021484,0
0.7100222110748291,0.00011277488374616951,-0.0029787702951580286,-0.12628598511219025,-0.021612514481433927,0.8018206289501251,-0.00018048843268728994,0.0014507438440053235,-4.55997823561044e-06,0.0,0.0,-0.6,0.0,0.001589059829711914,0.001589059829711914,0.0021741390228271484,0
0.7199661731719971,6.483203469542786e-05,-0.0027882808353751898,-0.13146254420280457,-0.02160943564485308,0.799762680980874,-0.0019471105697510989,0.0013533657898722458,-5.300361086019952e-06,0.0,0.0,-0.6,0.0,0.0015900135040283203,0.0015900135040283203,0.002196073532104492,0
0.7301187515258789,-2.348784255445935e-05,-0.002393078990280628,-0.14227472245693207,-0.021643190198087303,0.7974430899157968,-0.003800851899278363,0.0012660774134377543,-6.319534385558302e-06,0.0,0.0,-0.6,0.0,0.0016078948974609375,0.0016078948974609375,0.002225160598754883,0
0.7398889064788818,-6.61446392768994e-05,-0.0021894474048167467,-0.14790670573711395,-0.021649434218489236,0.7948584055626325,-0.005755290146269423,0.0011921457484878864,-7.713563570035534e-06,0.0,0.0,-0.6,0.0,0.0016069412231445312,0.0016069412231445312,0.002161741256713867,0
0.7501401901245117,-0.00010714434029068798,-0.0019805957563221455,-0.1536875218153,-0.021668556315379835,0.792004307643627,-0.007814191186435164,0.0011299046285601353,-9.585656916509075e-06,0.0,0.0,-0.6,0.0,0.0016679763793945312,0.0016679763793945312,0.002295970916748047,0
0.7599673271179199,-0.00018260374781675637,-0.0015521408058702946,-0.1656830608844757,-0.021689773825811873,0.7888771944603804,-0.009982913702067057,0.0010802050453298298,-1.2382242605225537e-05,0.0,0.0,-0.6,0.0,0.0017049312591552734,0.0017049312591552734,0.0023560523986816406,0
0.7700023651123047,-0.0002169545623473823,-0.0013309288769960403,-0.17191126942634583,-0.021715351626330644,0.7854740716030255,-0.012281718478370608,0.0010475338951520783,-1.5164609322108563e-05,0.0,0.0,-0.6,0.0,0.0015995502471923828,0.0015995502471923828,0.0021479129791259766,0
0.7803149223327637,-0.00024929892970249057,-0.001105115981772542,-0.1782764047384262,-0.02172908785870056,0.7817912334153281,-0.014714014621838975,0.0010317755202197308,-1.8491498468717305e-05,0.0,0.0,-0.6,0.0,0.001935720443725586,0.001935720443725586,0.0026865005493164062,0
0.7900211811065674,-0.000308647402562201,-0.0006372449570335448,-0.19140513241291046,-0.021757858034722726,0.7778258140476715,-0.017287461152150088,0.001032625596432498,-2.270753542347092e-05,0.0,0.0,-0.6,0.0,0.002421855926513672,0.002421855926513672,0.003168344497680664,0
0.8001341819763184,-0.0003368344623595476,-0.0003961552865803242,-0.19816286861896515,-0.021782709283032945,0.7735756451332874,-0.020022583466305064,0.0010513225832322148,-2.6877267896396625e-05,0.0,0.0,-0.6,0.0,0.0017702579498291016,0.0017702579498291016,0.002518892288208008,0
0.8100800514221191,-0.0003633485175669193,-0.00015086586063262075,-0.20504330098628998,-0.021797883931139905,0.7690379274718872,-0.022925160055621535,0.0010862600792312044,-3.172913670214646e-05,0.0,0.0,-0.6,0.0,0.002260923385620117,0.002260923385620117,0.0030601024627685547,0
0.8200278282165527,-0.00038735929410904646,0.00010029873374151066,-0.2120417207479477,-0.021805414310315338,0.764210759851459,-0.02600496141856839,0.0011376193740858657,-3.7078965411026146e-05,0.0,0.0,-0.6,0.0,0.0022504329681396484,0.0022504329681396484,0.003017902374267578,0
0.8302040100097656,-0.00042717292672023177,0.0006197430193424225,-0.2263810634613037,-0.02184971103684248,0.7590930061785075,-0.029277629343479578,0.0012036853600845368,-4.479329144137451e-05,0.0,0.0,-0.6,0.0,0.0019311904907226562,0.0019311904907226562,0.002656221389770508,0
0.8399710655212402,-0.0004433459253050387,0.0008863454568199813,-0.23372045159339905,-0.021870415346230552,0.7536841801591283,-0.032766682991659316,0.001290537258411839,-5.136496595854102e-05,0.0,0.0,-0.6,0.0,0.0017368793487548828,0.0017368793487548828,0.0024213790893554688,0
0.8500244617462158,-0.0004582804103847593,0.0011583671439439058,-0.24115954339504242,-0.02188014923985526,0.7479832252849715,-0.03648660890452658,0.0013968380642024887,-5.797941166796159e-05,0.0,0.0,-0.6,0.0,0.0015795230865478516,0.0015795230865478516,0.0021317005157470703,0
0.8600454330444336,-0.00047137393266893923,0.00143578986171633,-0.24869555234909058,-0.021877002069927622,0.7419899861309338,-0.040456267828761966,0.0015206512527042488,-6.553006959038718e-05,0.0,0.0,-0.6,0.0,0.0015897750854492188,0.0015897750854492188,0.002248525619506836,0
0.8699672222137451,-0.00048230375978164375,0.0017175063258036971,-0.2563225328922272,-0.021885305083413856,0.7357050754138714,-0.044694564129576626,0.0016608178823949225,-7.322970048229726e-05,0.0,0.0,-0.6,0.0,0.0015912055969238281,0.0015912055969238281,0.002141714096069336,0
0.8802633285522461,-0.0004915831959806383,0.002004443434998393,-0.2640327215194702,-0.021888271139478346,0.7291297767771013,-0.04922407438826486,0.0018177907456432465,-8.260245254063289e-05,0.0,0.0,-0.6,0.0,0.0015494823455810547,0.0015494823455810547,0.0021424293518066406,0
0.8900072574615479,-0.0005059618852101266,0.0025902509223669767,-0.27968212962150574,-0.021902145501418217,0.7222660261803825,-0.05406932517787531,0.001989717786852608,-9.550136801178697e-05,0.0,0.0,-0.6,0.0,0.002126455307006836,0.002126455307006836,0.0029337406158447266,0
0.9000232219696045,-0.0005068661412224174,0.0028874885756522417,-0.28760698437690735,-0.021901537217602268,0.715116380229111,-0.05925799684243042,0.002183709398806931,-0.00010806678347647474,0.0,0.0,-0.6,0.0,0.0020742416381835938,0.0020742416381835938,0.0028197765350341797,0
0.9100110530853271,-0.0005011895555071533,0.003489078488200903,-0.3036344051361084,-0.021934611773907604,0.7076830056370359,-0.06481744747570026,0.002397796297371188,-0.0001220278031885745,0.0,0.0,-0.6,0.0,0.0018723011016845703,0.0018723011016845703,0.0025603771209716797,0
0.9199955463409424,-0.0004945575492456555,0.003793099196627736,-0.31172460317611694,-0.021945060484368655,0.6999689979000524,-0.07077330857791168,0.0026412536835528693,-0.00013598831215054727,0.0,0.0,-0.6,0.0,0.0017135143280029297,0.0017135143280029297,0.0024213790893554688,0
0.9298355579376221,-0.0004868657561019063,0.004100538790225983,-0.31984972953796387,-0.021955079757567997,0.6919774158063996,-0.07716228226213928,0.002911994203140132,-0.00014930074486687464,0.0,0.0,-0.6,0.0,0.001485586166381836,0.001485586166381836,0.001993417739868164,0
0.9401936531066895,-0.00047849692055024207,0.004410642199218273,-0.32800227403640747,-0.021956059513397852,0.683712388014449,-0.08402510509680333,0.003208456617147522,-0.00016036801627216025,0.0,0.0,-0.6,0.0,0.0020935535430908203,0.0020935535430908203,0.0029218196868896484,0
0.9500231742858887,-0.0004226466699037701,0.005141970701515675,-0.3416118919849396,-0.02197462593221084,0.675179030152223,-0.09140661877696771,0.0035252757869583123,-0.00017879473668611272,0.0,0.0,-0.6,0.0,0.0019049644470214844,0.0019049644470214844,0.002550840377807617,0
0.9599771499633789,-0.00039220054168254137,0.005510038696229458,-0.34846875071525574,-0.021976077016357124,0.6663833830168706,-0.09935038276204118,0.0038689238215895614,-0.0001954677111061787,0.0,0.0,-0.6,0.0,0.0015096664428710938,0.0015096664428710938,0.002094745635986328,0
0.9701464176177979,-0.00035939321969635785,0.005880308803170919,-0.35534733533859253,-0.02196660860720325,0.6573320278177252,-0.1079077415114409,0.0042408436988549585,-0.00021354306505961193,0.0,0.0,-0.6,0.0,0.0015714168548583984,0.0015714168548583984,0.0021758079528808594,0
0.9801473617553711,-0.0003255566116422415,0.0062519400380551815,-0.362238347530365,-0.02195995259307261,0.6480327326762582,-0.11713553891953722,0.004640546242948339,-0.00023050323234072878,0.0,0.0,-0.6,0.0,0.001650094985961914,0.001650094985961914,0.002231597900390625,0
0.9903659820556641,-0.0002902537235058844,0.006624710746109486,-0.3691452741622925,-0.021933789095189365,0.6384944125652946,-0.12709479837632331,0.005070492309250324,-0.0002460939900413474,0.0,0.0,-0.6,0.0,0.002804994583129883,0.002804994583129883,0.0037794113159179688,0
0.9999349117279053,-0.00021331795142032206,0.007372300606220961,-0.38292285799980164,-0.021925569546580974,0.62872708790483,-0.13785175355454762,0.00552564245294353,-0.0002715464606826507,0.0,0.0,-0.6,0.0,0.0015735626220703125,0.0015735626220703125,0.0021820068359375,0
1.0098605155944824,-0.00017152581131085753,0.007746802642941475,-0.3897688388824463,-0.0219306080631948,0.6187419027571012,-0.14945779366648412,0.006015014735746118,-0.00029126461276108076,0.0,0.0,-0.6,0.0,0.001489400863647461,0.001489400863647461,0.0020194053649902344,0
1.0200467109680176,-0.00012931453238707036,0.008122040890157223,-0.3965740203857422,-0.021938596231534817,0.6085510933666379,-0.16198827862615142,0.006537754834016544,-0.0003129520407841602,0.0,0.0,-0.6,0.0,0.0015811920166015625,0.0015811920166015625,0.0022673606872558594,0
1.029860019683838,-8.626126509625465e-05,0.008496998809278011,-0.4033290445804596,-0.02196654512577437,0.598168247510829,-0.1755211775680989,0.007090490269512869,-0.0003336630521000348,0.0,0.0,-0.6,0.0,0.0014336109161376953,0.0014336109161376953,0.001957416534423828,0
1.0400681495666504,-4.233887739246711e-05,0.008870071731507778,-0.4100223779678345,-0.021998481416900993,0.5876083150163202,-0.19013279700685412,0.00767381364258232,-0.00034913694316529966,0.0,0.0,-0.6,0.0,0.0018224716186523438,0.0018224716186523438,0.0025429725646972656,0
1.0501418113708496,5.6858254538383335e-05,0.009613215923309326,-0.4231870770454407,-0.02202336706732211,0.5768876878371886,-0.20589866608893967,0.008289255451746014,-0.0003754373459437373,0.0,0.0,-0.6,0.0,0.0017871856689453125,0.0017871856689453125,0.0024721622467041016,0
1.059952974319458,0.00010996731725754216,0.009984876029193401,-0.429678350687027,-0.022032290378884302,0.5660242762803658,-0.22286410990628835,0.008947360743162786,-0.00039929722522208887,0.0,0.0,-0.6,0.0,0.0016579627990722656,0.0016579627990722656,0.0022923946380615234,0
1.070019006729126,0.00022240311955101788,0.010723233222961426,-0.4423445165157318,-0.022033288136498876,0.555037991636016,-0.24111410579713718,0.009647180030876302,-0.00043243330002079523,0.0,0.0,-0.6,0.0,0.0015246868133544922,0.0015246868133544922,0.0021271705627441406,0
1.080230712890625,0.00027962864260189235,0.011087832041084766,-0.4484961926937103,-0.022015886040122275,0.5439504462938738,-0.26066639919138773,0.010394284175386643,-0.0004485974291526254,0.0,0.0,-0.6,0.0,0.001500844955444336,0.001500844955444336,0.002122163772583008,0
1.0898847579956055,0.00033802102552726865,0.011448717676103115,-0.4545133411884308,-0.022020539824312114,0.5327858086991011,-0.28158174264780333,0.011173318438935955,-0.00046582323861963385,0.0,0.0,-0.6,0.0,0.0013494491577148438,0.0013494491577148438,0.0018184185028076172,0
1.1000053882598877,0.00039806272252462804,0.01180640235543251,-0.4603857398033142,-0.022020692248369517,0.5215701897239687,-0.30390643765151987,0.011987567240998849,-0.0004804462243879821,0.0,0.0,-0.6,0.0,0.0013747215270996094,0.0013747215270996094,0.0019936561584472656,0
1.1098201274871826,0.000520008965395391,0.012508993968367577,-0.47164997458457947,-0.022006003895693217,0.5103318067957635,-0.32765988342085306,0.012836415506626552,-0.0004881148253040802,0.0,0.0,-0.6,0.0,0.0014500617980957031,0.0014500617980957031,0.001940011978149414,0
1.1199631690979004,0.000582110311370343,0.012850477360188961,-0.4770204424858093,-0.022005132594805486,0.49910117019591016,-0.352730193322978,0.013701080859718927,-0.0004763760089731518,0.0,0.0,-0.6,0.0,0.0029382705688476562,0.0029382705688476562,0.0038170814514160156,0
1.1300673484802246,0.0006467393832281232,0.013185120187699795,-0.4822096824645996,-0.021995592281816953,0.4879125780741064,-0.379061344407888,0.014579314278167216,-0.00045682784146592605,0.0,0.0,-0.6,0.0,0.0019593238830566406,0.0019593238830566406,0.0027320384979248047,0
1.1400387287139893,0.0007130331359803677,0.01351230964064598,-0.48719707131385803,-0.021970885087853144,0.4768027782237218,-0.4065356522203314,0.015465180276624838,-0.00043314542040931247,0.0,0.0,-0.6,0.0,0.0017113685607910156,0.0017113685607910156,0.0023300647735595703,0
1.150059461593628,0.0008430358720943332,0.014144307933747768,-0.49652138352394104,-0.02198189683008199,0.46581120675621357,-0.43496519435066805,0.01631980039222576,-0.0004059190104413396,0.0,0.0,-0.6,0.0,0.001979351043701172,0.001979351043701172,0.002666950225830078,0
1.1600291728973389,0.0009068843792192638,0.014448972418904305,-0.5008333921432495,-0.02199213401676571,0.4549801646867365,-0.46391518793936554,0.01712493185193627,-0.00036610548464548903,0.0,0.0,-0.6,0.0,0.0018410682678222656,0.0018410682678222656,0.002526998519897461,0
1.1699461936950684,0.0009718021610751748,0.014745931141078472,-0.5048970580101013,-0.02198428973212546,0.444357075967495,-0.4930069035232431,0.017864650409360208,-0.00031555926693707263,0.0,0.0,-0.6,0.0,0.0016269683837890625,0.0016269683837890625,0.002141237258911133,0
1.1802902221679688,0.0010408750968053937,0.0150354178622365,-0.5087035894393921,-0.021984310800672018,0.43399212948043997,-0.5217188494550602,0.01849986926680647,-0.000245795029194556,0.0,0.0,-0.6,0.0,0.001584768295288086,0.001584768295288086,0.0021791458129882812,0
1.1899585723876953,0.0011109960032626987,0.015314973890781403,-0.5122445821762085,-0.021990685490045868,0.4239383942097218,-0.549379536611874,0.018998769266803175,-0.0001723792676487424,0.0,0.0,-0.6,0.0,0.0016222000122070312,0.0016222000122070312,0.0021436214447021484,0
1.1999807357788086,0.0012551560066640377,0.0158434696495533,-0.5185344815254211,-0.021990803389883327,0.4142517944249793,-0.5751595051632712,0.01933077089717862,-9.64362820415181e-05,0.0,0.0,-0.6,0.0,0.0015225410461425781,0.0015225410461425781,0.0021026134490966797,0
1.2100458145141602,0.0013304309686645865,0.01608944684267044,-0.5212613344192505,-0.02200428188289673,0.404990974850065,-0.5977848342812597,0.01944541461275964,-2.4432426502499345e-06,0.0,0.0,-0.6,0.0,0.0016541481018066406,0.0016541481018066406,0.0022449493408203125,0
1.2198278903961182,0.0014069131575524807,0.01632237248122692,-0.523681640625,-0.022028160691371156,0.39622016785985625,-0.6161023652527765,0.019300860436209738,8.573195446444889e-05,0.0,0.0,-0.6,0.0,0.0015192031860351562,0.0015192031860351562,0.0020051002502441406,0
1.2299017906188965,0.0014846510021016002,0.016542239114642143,-0.5257851481437683,-0.022056925493533636,0.38800501425131506,-0.6288231782308834,0.018857524458933805,0.0001954018814793679,0.0,0.0,-0.6,0.0,0.0015425682067871094,0.0015425682067871094,0.00206756591796875,0
1.2399358749389648,0.0016430101823061705,0.016941042616963387,-0.5290024280548096,-0.022073407951211283,0.3804121168598855,-0.6345672776319294,0.018085384262778285,0.00032856650022007936,0.0,0.0,-0.6,0.0,0.0015456676483154297,0.0015456676483154297,0.0021486282348632812,0
1.2499353885650635,0.0017223515314981341,0.017116209492087364,-0.5300982594490051,-0.022099339892783804,0.3735083825374343,-0.6315080217054948,0.016918323960482727,0.0004154906915125098,0.0,0.0,-0.6,0.0,0.0014719963073730469,0.0014719963073730469,0.0019474029541015625,0
1.2600741386413574,0.0018014998640865088,0.017275463789701462,-0.5308708548545837,-0.022127767103707285,0.36736415373472947,-0.618349120736304,0.01533252194649834,0.0004676523233365313,0.0,0.0,-0.6,0.0,0.0015485286712646484,0.0015485286712646484,0.0022020339965820312,0
1.269941806793213,0.0019592929165810347,0.01754855550825596,-0.5313303470611572,-0.02210960464135247,0.36204714180148095,-0.5940047532267615,0.013344348712060748,0.0005253768188974768,0.0,0.0,-0.6,0.0,0.001520395278930664,0.001520395278930664,0.002038240432739258,0
1.2800772190093994,0.002036426216363907,0.017663104459643364,-0.5310037136077881,-0.02211976893311556,0.35762137374432956,-0.5571987477716576,0.010890284141750885,0.0005158047686554019,0.0,0.0,-0.6,0.0,0.0013992786407470703,0.0013992786407470703,0.001890420913696289,0
1.2901239395141602,0.002112390473484993,0.01776335947215557,-0.5302979350090027,-0.02213007350014783,0.3541506404440183,-0.5077609596073277,0.008017967262716844,0.0004526289468404727,0.0,0.0,-0.6,0.0,0.0015797615051269531,0.0015797615051269531,0.002204418182373047,0
1.299821138381958,0.0021878229454159737,0.017846297472715378,-0.5292053818702698,-0.022132294666347186,0.3516913801719009,-0.4461059463404455,0.004782821667782558,0.00035251194728773877,0.0,0.0,-0.6,0.0,0.0014312267303466797,0.0014312267303466797,0.001905202865600586,0
1.3100316524505615,0.0023393656592816114,0.01795887015759945,-0.5258306264877319,-0.02215761273494962,0.35029170794899306,-0.3732917358172718,0.0012550414203991156,0.00024508036685052755,0.0,0.0,-0.6,0.0,0.0015339851379394531,0.0015339851379394531,0.0020630359649658203,0
1.3198330402374268,0.002415324794128537,0.01798870600759983,-0.5235804319381714,-0.022148032355228733,0.3499905236691438,-0.2903706840675478,-0.0024679870344845602,4.8772702162458975e-05,0.0,0.0,-0.6,0.0,0.0014722347259521484,0.0014722347259521484,0.0020105838775634766,0
1.329838514328003,0.002489654580131173,0.018002517521381378,-0.5209218263626099,-0.022173438120994298,0.3508220374736483,-0.19984997080469455,-0.0062864064259959915,-0.00016090962226446453,0.0,0.0,-0.6,0.0,0.0013256072998046875,0.0013256072998046875,0.0017478466033935547,0
1.339996576309204,0.0025631715543568134,0.01799868792295456,-0.5178501009941101,-0.02217462236502405,0.35280836586175124,-0.10466324266239067,-0.010059548078640946,-0.000375471078996906,0.0,0.0,-0.6,0.0,0.001413106918334961,0.001413106918334961,0.0020020008087158203,0
1.3499062061309814,0.003243477549403906,0.018194913864135742,-0.5140336751937866,-0.0221880692028696,0.3559596943596811,-0.007944068545319094,-0.013665756723830262,-0.0005123036712969866,0.0,0.0,-0.6,0.0,0.0014793872833251953,0.0014793872833251953,0.001951456069946289,0
1.359929084777832,0.0035746032372117043,0.018261289224028587,-0.5114385485649109,-0.02219730593733345,0.3602747003210234,0.08786782799903745,-0.016988244853793542,-0.0006946947554097,0.0,0.0,-0.6,0.0,0.0014033317565917969,0.0014033317565917969,0.0019311904907226562,0
1.3701233863830566,0.0039004383143037558,0.01830761320888996,-0.5083844065666199,-0.02221610785380246,0.36574619318307094,0.17961269334925642,-0.019915919131290895,-0.0008400451844348987,0.0,0.0,-0.6,0.0,0.0019941329956054688,0.0019941329956054688,0.0025925636291503906,0
1.3798959255218506,0.004222307354211807,0.018332792446017265,-0.5048708319664001,-0.02224470523875762,0.3723550480034477,0.2646523185512956,-0.02237104143300532,-0.0009324772951933203,0.0,0.0,-0.6,0.0,0.0013484954833984375,0.0013484954833984375,0.0017871856689453125,0
1.3899774551391602,0.004540880210697651,0.018337765708565712,-0.5009007453918457,-0.022243670907692525,0.38007186634038576,0.34098406447784424,-0.024315290710686114,-0.0009654942145786256,0.0,0.0,-0.6,0.0,0.00147247314453125,0.00147247314453125,0.0019919872283935547,0
1.399888515472412,0.005164476577192545,0.018287118524312973,-0.49159395694732666,-0.02223097462629596,0.3888585826934401,0.40729237462586987,-0.025736001256459702,-0.0008960527588377775,0.0,0.0,-0.6,0.0,0.001512765884399414,0.001512765884399414,0.0020792484283447266,0
1.409985065460205,0.005468251649290323,0.018231045454740524,-0.4862620532512665,-0.02221793940480034,0.3986700970358333,0.46349441935217467,-0.026653899460134363,-0.0008437255750350388,0.0,0.0,-0.6,0.0,0.0019381046295166016,0.0019381046295166016,0.0025415420532226562,0
1.4202015399932861,0.0057680644094944,0.018156083300709724,-0.4804805815219879,-0.022181965079444838,0.409461006939705,0.5092439059825586,-0.027112826474617643,-0.0007577962501211515,0.0,0.0,-0.6,0.0,0.002233266830444336,0.002233266830444336,0.003108501434326172,0
1.4300856590270996,0.006063565611839294,0.018062865361571312,-0.4742547571659088,-0.0221981035159959,0.4211799780538674,0.5447607687917461,-0.027122985478280882,-0.0006519037779326725,0.0,0.0,-0.6,0.0,0.0024955272674560547,0.0024955272674560547,0.0033168792724609375,0
1.440002679824829,0.006641215644776821,0.017816711217164993,-0.4604896605014801,-0.02221759645386836,0.4337716107850322,0.5706997890887937,-0.026767102951185576,-0.0005024236433031845,0.0,0.0,-0.6,0.0,0.0020067691802978516,0.0020067691802978516,0.002680540084838867,0
1.450209140777588,0.00692253652960062,0.017662500962615013,-0.4529630243778229,-0.02222532408930252,0.4471780121016042,0.5883732674891401,-0.026121924569119964,-0.0003769980977247339,0.0,0.0,-0.6,0.0,0.001744985580444336,0.001744985580444336,0.0024938583374023438,0
1.4598474502563477,0.007198977284133434,0.01748848147690296,-0.44501379132270813,-0.022216870213487342,0.4613448538856834,0.5986508883575178,-0.02525135641692332,-0.0002566373726544316,0.0,0.0,-0.6,0.0,0.001567840576171875,0.001567840576171875,0.0020895004272460938,0
1.470003366470337,0.007741767913103104,0.017074795439839363,-0.42787209153175354,-0.022176850539946356,0.4762157244557807,0.6025493000596369,-0.024219789599367682,-9.157621317369307e-05,0.0,0.0,-0.6,0.0,0.0015201568603515625,0.0015201568603515625,0.0020668506622314453,0
1.4800622463226318,0.008009367622435093,0.016832953318953514,-0.418695867061615,-0.022169263618532,0.49173354753138804,0.6013326923759288,-0.023032168818729475,2.7958901311264496e-05,0.0,0.0,-0.6,0.0,0.0013513565063476562,0.0013513565063476562,0.0018854141235351562,0
1.4899308681488037,0.008274116553366184,0.016564765945076942,-0.4091258645057678,-0.022135885851583017,0.5078459281288225,0.5958694464257831,-0.021764495830943677,0.00013011300955360157,0.0,0.0,-0.6,0.0,0.0015261173248291016,0.0015261173248291016,0.002019643783569336,0
1.4999701976776123,0.008535006083548069,0.01626921072602272,-0.3991728723049164,-0.022107935461211196,0.5244997900249563,0.5870194477790973,-0.02043460619451214,0.0002124598297556197,0.0,0.0,-0.6,0.0,0.0011897087097167969,0.0011897087097167969,0.001712799072265625,0
1.5099530220031738,0.00904163159430027,0.01559598557651043,-0.37816137075424194,-0.02209371776474978,0.5416424361893439,0.5755697461984719,-0.019073695740752326,0.0003303561232367761,0.0,0.0,-0.6,0.0,0.0015001296997070312,0.0015001296997070312,0.001982450485229492,0
1.519881248474121,0.009288391098380089,0.015216277912259102,-0.3671233057975769,-0.02206141086332267,0.5592222397660566,0.5622589906453614,-0.017722978341768444,0.00039483937341411947,0.0,0.0,-0.6,0.0,0.0014557838439941406,0.0014557838439941406,0.0019707679748535156,0
1.5300228595733643,0.009533889591693878,0.014805100858211517,-0.35574451088905334,-0.022030323481177432,0.577192779626428,0.5476174095198256,-0.016389185363401972,0.00043126119729380673,0.0,0.0,-0.6,0.0,0.0013842582702636719,0.0013842582702636719,0.00194549560546875,0
1.5398094654083252,0.009774557314813137,0.014360269531607628,-0.34403860569000244,-0.021990718041296032,0.5955079183959384,0.5321121460382152,-0.015091694101998263,0.0004622306630221618,0.0,0.0,-0.6,0.0,0.001397848129272461,0.001397848129272461,0.0018775463104248047,0
1.549950122833252,0.010240469127893448,0.013369581662118435,-0.3197075426578522,-0.02193217480799985,0.6141224511513678,0.5161331422900738,-0.013848034181225611,0.0005261075374392389,0.0,0.0,-0.6,0.0,0.0015332698822021484,0.0015332698822021484,0.0020236968994140625,0
1.559922218322754,0.01046637911349535,0.012820462696254253,-0.3071100413799286,-0.02190846248046676,0.6329924757131875,0.49993201834599404,-0.012633367090281967,0.0005517199004219486,0.0,0.0,-0.6,0.0,0.0015244483947753906,0.0015244483947753906,0.002120494842529297,0
1.569995403289795,0.01068829745054245,0.012233993969857693,-0.29424649477005005,-0.021858758613494383,0.6520785013052084,0.4837604836103581,-0.011481090725534297,0.000579162552438001,0.0,0.0,-0.6,0.0,0.0014874935150146484,0.0014874935150146484,0.0019838809967041016,0
1.5801763534545898,0.010905577801167965,0.01161285862326622,-0.28113195300102234,-0.021828418595028837,0.671341416872251,0.4678151288309149,-0.010370504210820246,0.0006028531132312656,0.0,0.0,-0.6,0.0,0.001397848129272461,0.001397848129272461,0.0019311904907226562,0
1.5899271965026855,0.011120759882032871,0.010955289006233215,-0.26776784658432007,-0.021793578165018684,0.6907429282081744,0.4522433641712667,-0.009311905184918258,0.0006302086612745706,0.0,0.0,-0.6,0.0,0.0014524459838867188,0.0014524459838867188,0.0019230842590332031,0
1.5999610424041748,0.011334117501974106,0.010258493013679981,-0.25418686866760254,-0.0217706437676273,0.7102458257798137,0.43716031471231187,-0.00829243755453546,0.0006376250805304298,0.0,0.0,-0.6,0.0,0.0014193058013916016,0.0014193058013916016,0.001977682113647461,0
1.6099786758422852,0.011752992868423462,0.008747419342398643,-0.2264455258846283,-0.021707595177263405,0.7298141022752432,0.42264927881956726,-0.007332741231326547,0.0006598862990968443,0.0,0.0,-0.6,0.0,0.0015740394592285156,0.0015740394592285156,0.002134561538696289,0
1.619856834411621,0.011958449147641659,0.007935604080557823,-0.21232566237449646,-0.02165371497394586,0.7494130015336479,0.4086013290012455,-0.006404037151715842,0.0006612609058438045,0.0,0.0,-0.6,0.0,0.0014553070068359375,0.0014553070068359375,0.00196075439453125,0
1.6299822330474854,0.012361578643321991,0.006197831593453884,-0.18369905650615692,-0.02153991476120807,0.7690108488495627,0.3950946766135178,-0.005532755277119267,0.0007057482949299469,0.0,0.0,-0.6,0.0,0.0013744831085205078,0.0013744831085205078,0.0019006729125976562,0
1.6398684978485107,0.0125603461638093,0.00527270557358861,-0.1692398190498352,-0.02149677864484494,0.7885763175154227,0.38200960068109374,-0.0046565355610165395,0.0006963442574733781,0.0,0.0,-0.6,0.0,0.0015790462493896484,0.0015790462493896484,0.0021512508392333984,0
1.6499748229980469,0.012757753022015095,0.004312198609113693,-0.15471073985099792,-0.021453530147211835,0.8080800175066681,0.36943369607558996,-0.003804194221841975,0.0006959962872980327,0.0,0.0,-0.6,0.0,0.0015444755554199219,0.0015444755554199219,0.0020537376403808594,0
1.660024642944336,0.012954707257449627,0.0033173884730786085,-0.14015617966651917,-0.021407309544381956,0.8274925969741895,0.35741553236686635,-0.002973778432019575,0.0006807981558515181,0.0,0.0,-0.6,0.0,0.0015614032745361328,0.0015614032745361328,0.0021958351135253906,0
1.669957160949707,0.013150263577699661,0.0022895014844834805,-0.12556859850883484,-0.02135357227553406,0.8467850507700367,0.34597868494549444,-0.002165563961987552,0.000669936755180658,0.0,0.0,-0.6,0.0,0.0015730857849121094,0.0015730857849121094,0.0020673274993896484,0
1.680154800415039,0.013344362378120422,0.001230025663971901,-0.11097343266010284,-0.02131135040737044,0.8659289123108597,0.3351283750225189,-0.0013720842441750324,0.0006522037559630374,0.0,0.0,-0.6,0.0,0.001466989517211914,0.001466989517211914,0.002009153366088867,0
1.690108299255371,0.013728656806051731,-0.0009798905812203884,-0.08185865730047226,-0.021217251791943642,0.8848963310407401,0.32485842933576337,-0.0006129030990322315,0.000663549954944678,0.0,0.0,-0.6,0.0,0.0015056133270263672,0.0015056133270263672,0.002168893814086914,0
1.6998372077941895,0.013918674550950527,-0.0021273342426866293,-0.06738503277301788,-0.02118243444965099,0.9036600882764221,0.3149675149578966,0.00015507287592195462,0.0006603055632776479,0.0,0.0,-0.6,0.0,0.0014123916625976562,0.0014123916625976562,0.0019025802612304688,0
1.7100660800933838,0.014297585003077984,-0.004493148531764746,-0.03873801976442337,-0.021146548198247142,0.9221939854207456,0.30550888607803806,0.0009140776841211175,0.0006834037050431744,0.0,0.0,-0.6,0.0,0.0014979839324951172,0.0014979839324951172,0.0020749568939208984,0
1.719881296157837,0.014485969208180904,-0.0057072327472269535,-0.02461431361734867,-0.02108795925900236,0.9404721818913863,0.29631904998568853,0.001665066775502082,0.0006701500022099324,0.0,0.0,-0.6,0.0,0.0014946460723876953,0.0014946460723876953,0.0020771026611328125,0
1.729750394821167,0.014675580896437168,-0.006937789730727673,-0.010665815323591232,-0.02105049808926016,0.9584691869053674,0.28747602721689164,0.0024221756217764406,0.0006582872424899096,0.0,0.0,-0.6,0.0,0.0011467933654785156,0.0011467933654785156,0.0015287399291992188,0
1.740044355392456,0.014867844991385937,-0.007914341054856777,0.00281910365447402,-0.020997905424194156,0.9750915857768673,0.27957591864460574,0.0031830107223231965,0.0006538758559085377,0.0,0.0,-0.6,0.0,0.0017261505126953125,0.0017261505126953125,0.002414226531982422,0
1.7499804496765137,0.015097151510417461,-0.006256496999412775,0.01725177653133869,-0.02086340881438709,0.9750915857768673,0.27905785220578594,0.004033224924692969,0.0007380270492048383,0.0,0.0,-0.6,0.0,0.0018458366394042969,0.0018458366394042969,0.002497434616088867,0
1.7599942684173584,0.015175783075392246,-0.005901019554585218,0.023553047329187393,-0.020768199560225437,0.9750915857768673,0.2766692288724693,0.004876553991179229,0.0007268133105294859,0.0,0.0,-0.6,0.0,0.0016837120056152344,0.0016837120056152344,0.0023314952850341797,0
1.770216464996338,0.015260583721101284,-0.005568589083850384,0.029600119218230247,-0.020673995370964753,0.9750915857768673,0.2731909162885834,0.005718127217484663,0.0006784275305583284,0.0,0.0,-0.6,0.0,0.001636505126953125,0.001636505126953125,0.002286672592163086,0
1.7799656391143799,0.015349588356912136,-0.005261855199933052,0.035425715148448944,-0.020570979913039866,0.9750915857768673,0.2692309083310083,0.006562662816660982,0.0006191760197772492,0.0,0.0,-0.6,0.0,0.0014276504516601562,0.0014276504516601562,0.0019044876098632812,0
1.7899677753448486,0.015442749485373497,-0.0049570100381970406,0.0410279780626297,-0.020468662432868413,0.9750915857768673,0.2652317420247893,0.007418343571731531,0.0005590558343240642,0.0,0.0,-0.6,0.0,0.0014386177062988281,0.0014386177062988281,0.0020132064819335938,0
1.799978256225586,0.015636323019862175,-0.004305417649447918,0.05152153968811035,-0.020200065654210522,0.9750915857768673,0.2614355807296063,0.008245356163179993,0.0005013869838544174,0.0,0.0,-0.6,0.0,0.002045154571533203,0.002045154571533203,0.002758502960205078,0
1.8101177215576172,0.01573633961379528,-0.003954559098929167,0.05635181441903114,-0.020075284670714743,0.9750915857768673,0.2578755378739618,0.009128861280557331,0.000450495860123893,0.0,0.0,-0.6,0.0,0.0019865036010742188,0.0019865036010742188,0.0027282238006591797,0
1.820068597793579,0.01584029197692871,-0.0035914466716349125,0.06084300950169563,-0.019942752957401312,0.9750915857768673,0.2544672668684093,0.010027348912178522,0.0004141421648193228,0.0,0.0,-0.6,0.0,0.0018699169158935547,0.0018699169158935547,0.0025835037231445312,0
1.8299033641815186,0.016054105013608932,-0.002850037533789873,0.06867965310811996,-0.01971713229795351,0.9750915857768673,0.25109724605092176,0.010919284575112558,0.00042690803920322095,0.0,0.0,-0.6,0.0,0.001796722412109375,0.001796722412109375,0.002389192581176758,0
1.8399839401245117,0.01616334542632103,-0.0024796815123409033,0.0719868466258049,-0.019602371929741128,0.9750915857768673,0.24745669977814327,0.011858348578462142,0.0004015394763723135,0.0,0.0,-0.6,0.0,0.0014853477478027344,0.0014853477478027344,0.0020897388458251953,0
1.8501908779144287,0.016276009380817413,-0.002111391630023718,0.07488023489713669,-0.019489519815745378,0.9750915857768673,0.243538446897051,0.012817755026408001,0.0003755859812754263,0.0,0.0,-0.6,0.0,0.0015597343444824219,0.0015597343444824219,0.0021827220916748047,0
1.859825849533081,0.01639227196574211,-0.001742086955346167,0.0773589238524437,-0.019383889152420133,0.9750915857768673,0.23935136730644993,0.013800179115768241,0.00034701861223303385,0.0,0.0,-0.6,0.0,0.0014319419860839844,0.0014319419860839844,0.0019154548645019531,0
1.8701188564300537,0.016634633764624596,-0.000986652448773384,0.08111366629600525,-0.019218245756621018,0.9750915857768673,0.23492034001387632,0.014791735854928278,0.00033888694524765396,0.0,0.0,-0.6,0.0,0.0015571117401123047,0.0015571117401123047,0.002160310745239258,0
1.880338191986084,0.01675971783697605,-0.0005905168363824487,0.08239036798477173,-0.019153477196651492,0.9750915857768673,0.23015207617252773,0.015834893248260748,0.0003032720922305797,0.0,0.0,-0.6,0.0,0.0022535324096679688,0.0022535324096679688,0.003075122833251953,0
1.8898983001708984,0.016889913007616997,-0.0001665500458329916,0.08324410021305084,-0.019078861003830123,0.9750915857768673,0.22512642661184076,0.016903895251341155,0.0002671590433418247,0.0,0.0,-0.6,0.0,0.0013086795806884766,0.0013086795806884766,0.001779794692993164,0
1.9000306129455566,0.01702410727739334,0.00026386711397208273,0.0836944654583931,-0.019005423620379405,0.9750915857768673,0.2198943633402407,0.018003334209984262,0.00022934082334486017,0.0,0.0,-0.6,0.0,0.001903533935546875,0.001903533935546875,0.0026116371154785156,0
1.9099116325378418,0.017303599044680595,0.0012107096845284104,0.08336490392684937,-0.018931817580671542,0.9750915857768673,0.21448511744715582,0.019134617144782772,0.00022269813814751823,0.0,0.0,-0.6,0.0,0.0018351078033447266,0.0018351078033447266,0.0024313926696777344,0
1.9199399948120117,0.017448697239160538,0.0017258449224755168,0.08259047567844391,-0.01889049719884284,0.9750915857768673,0.20877649508817409,0.02030844154056773,0.00019025780838059385,0.0,0.0,-0.6,0.0,0.0015716552734375,0.0015716552734375,0.0021462440490722656,0
1.9300737380981445,0.01759694144129753,0.00227179704234004,0.081412672996521,-0.018858301994082213,0.9750915857768673,0.20280057304167723,0.02152026156330655,0.00015541486437308042,0.0,0.0,-0.6,0.0,0.0019202232360839844,0.0019202232360839844,0.0026023387908935547,0
1.9398040771484375,0.017748016864061356,0.0028504463844001293,0.07983317226171494,-0.018852067617033764,0.9750915857768673,0.19657012775232469,0.022771527764330963,0.00012466208213842247,0.0,0.0,-0.6,0.0,0.0013949871063232422,0.0013949871063232422,0.0018589496612548828,0
1.9500606060028076,0.018060699105262756,0.0041144476272165775,0.075515978038311,-0.018791327137126293,0.9750915857768673,0.190087477509706,0.024047318422738967,0.00014299769243543263,0.0,0.0,-0.6,0.0,0.0014910697937011719,0.0014910697937011719,0.002035379409790039,0
1.9598603248596191,0.018219567835330963,0.004804449155926704,0.07276017218828201,-0.018768364525032867,0.9750915857768673,0.18319366229017242,0.025368113152520362,0.0001188612312234448,0.0,0.0,-0.6,0.0,0.001529693603515625,0.001529693603515625,0.0020933151245117188,0
1.9699242115020752,0.01838252693414688,0.005535220727324486,0.06961081176996231,-0.01874631858912285,0.9750915857768673,0.1759288583675491,0.026726884484747748,9.689947732393835e-05,0.0,0.0,-0.6,0.0,0.001951456069946289,0.001951456069946289,0.002521514892578125,0
1.980520486831665,0.01854833774268627,0.00630919449031353,0.06606899946928024,-0.018719694834931654,0.9750915857768673,0.16831917008509384,0.0281238659739861,7.513566497028281e-05,0.0,0.0,-0.6,0.0,0.002054929733276367,0.002054929733276367,0.0028295516967773438,0
1.9900155067443848,0.01871773600578308,0.007128077559173107,0.062137920409440994,-0.018683518328290107,0.9750915857768673,0.16037977562367578,0.02955834887052293,5.1673621836634164e-05,0.0,0.0,-0.6,0.0,0.0020797252655029297,0.0020797252655029297,0.0027348995208740234,0
2.0001869201660156,0.01889290101826191,0.007994004525244236,0.05781804025173187,-0.01861591572133223,0.9750915857768673,0.15211974928202823,0.031028394894319945,2.601090825789052e-05,0.0,0.0,-0.6,0.0,0.002138376235961914,0.002138376235961914,0.003011465072631836,0
2.010235548019409,0.019256403669714928,0.009879582561552525,0.048018306493759155,-0.01860058820884628,0.9750915857768673,0.14353908055719483,0.03254798426168287,5.3583658953982626e-05,0.0,0.0,-0.6,0.0,0.0021104812622070312,0.0021104812622070312,0.0029714107513427734,0
2.020151138305664,0.01944497972726822,0.01090511679649353,0.042525872588157654,-0.01858181807694995,0.9750915857768673,0.13448742395791893,0.0341103047716514,4.342993251109852e-05,0.0,0.0,-0.6,0.0,0.002767324447631836,0.002767324447631836,0.0037069320678710938,0
2.0300278663635254,0.019829530268907547,0.013127846643328667,0.03040831908583641,-0.018582430508953616,0.9750915857768673,0.12500280825510435,0.03571974068305578,8.790373162132291e-05,0.0,0.0,-0.6,0.0,0.0017223358154296875,0.0017223358154296875,0.002381563186645508,0
2.0400562286376953,0.020025460049510002,0.014327810145914555,0.02378561720252037,-0.01856760125544281,0.9750915857768673,0.11496780694185255,0.03737337773599656,8.90342430076972e-05,0.0,0.0,-0.6,0.0,0.004396915435791016,0.004396915435791016,0.005629062652587891,0
2.0499494075775146,0.0202234648168087,0.015588597394526005,0.016789712011814117,-0.018545220554032633,0.9750915857768673,0.10443953224544918,0.039074297736806346,9.191201395911737e-05,0.0,0.0,-0.6,0.0,0.002209901809692383,0.002209901809692383,0.002990245819091797,0
2.0601987838745117,0.020423628389835358,0.01691196672618389,0.009423329494893551,-0.018532279836822086,0.9750915857768673,0.09345215025092106,0.04082511333422355,0.00010042846837232605,0.0,0.0,-0.6,0.0,0.002148151397705078,0.002148151397705078,0.0029973983764648438,0
2.069918394088745,0.02083398774266243,0.019757017493247986,-0.006416013464331627,-0.018484814409621818,0.9750915857768673,0.08202558789859879,0.04262386467636242,0.00016564201248354932,0.0,0.0,-0.6,0.0,0.001680612564086914,0.001680612564086914,0.002228260040283203,0
2.0802195072174072,0.021043647080659866,0.021280162036418915,-0.014886535704135895,-0.01845397542255086,0.9750915857768673,0.07002155123904531,0.04447629949595738,0.00019118651901013807,0.0,0.0,-0.6,0.0,0.0021343231201171875,0.0021343231201171875,0.0028557777404785156,0
2.0899558067321777,0.021255331113934517,0.022869601845741272,-0.023775888606905937,-0.018445798237883917,0.9750915857768673,0.057482238954934206,0.04638473627049384,0.00022463737021279033,0.0,0.0,-0.6,0.0,0.001964092254638672,0.001964092254638672,0.0026993751525878906,0
2.099921226501465,0.02146856114268303,0.02452802285552025,-0.03302750736474991,-0.01842668596772043,0.9750915857768673,0.04443413076468447,0.048349549983482135,0.0002671823487367523,0.0,0.0,-0.6,0.0,0.001756906509399414,0.001756906509399414,0.002352476119995117,0
2.109917402267456,0.021680278703570366,0.02625919319689274,-0.0426398403942585,-0.018405471161573192,0.9750915857768673,0.030883982582989716,0.050374791686942984,0.00032086076015116913,0.0,0.0,-0.6,0.0,0.0013279914855957031,0.0013279914855957031,0.0018916130065917969,0
2.119863748550415,0.0221102237701416,0.02993466705083847,-0.06293985992670059,-0.018327370607370323,0.9750915857768673,0.016830446585457064,0.052463796442164486,0.00044563041514590737,0.0,0.0,-0.6,0.0,0.0018880367279052734,0.0018880367279052734,0.0025594234466552734,0
2.1298916339874268,0.022325798869132996,0.03188111260533333,-0.0736226961016655,-0.018289600819405127,0.9750915857768673,0.002129580395873655,0.054618761292412374,0.0005246348281078881,0.0,0.0,-0.6,0.0,0.0017979145050048828,0.0017979145050048828,0.0023887157440185547,0
2.1400578022003174,0.02254190854728222,0.03390203416347504,-0.08466113358736038,-0.018242070608673052,0.9750915857768673,-0.013191960520693666,0.05684333576568549,0.0006163575289084938,0.0,0.0,-0.6,0.0,0.0016560554504394531,0.0016560554504394531,0.002324819564819336,0
2.1498172283172607,0.022552501410245895,0.03523990511894226,-0.09945519268512726,-0.018214611144522254,0.9750915857768673,-0.029129459841500387,0.05914185001470877,0.000723575813792055,0.0,0.0,-0.6,0.0,0.0014743804931640625,0.0014743804931640625,0.0019655227661132812,0
2.1599836349487305,0.02256685681641102,0.03666600584983826,-0.11452899873256683,-0.018161649933874632,0.9750915857768673,-0.04567200224436957,0.061519999561859946,0.0008449107881630413,0.0,0.0,-0.6,0.0,0.0016334056854248047,0.0016334056854248047,0.0022439956665039062,0
2.1702611446380615,0.02260700799524784,0.03978780284523964,-0.1456134021282196,-0.01805548701294195,0.9750915857768673,-0.06282315921336426,0.06398548371621239,0.0010531777963715485,0.0,0.0,-0.6,0.0,0.0025098323822021484,0.0025098323822021484,0.0033881664276123047,0
2.1800622940063477,0.022628551349043846,0.041483230888843536,-0.16157348453998566,-0.01798083258009748,0.9750915857768673,-0.0807033753274345,0.06653129881467901,0.0012184053230800893,0.0,0.0,-0.6,0.0,0.001957416534423828,0.001957416534423828,0.002560853958129883,0
