time,x,y,z,yaw,throttle,roll_rate,pitch_rate,yaw_rate,x_ref,y_ref,z_ref,yaw_ref,pred_time,nr_time,ctrl_callback_time,v_norm,metadata
4.76837158203125e-07,-0.0006862763548269868,0.005391555372625589,-0.02158532664179802,0.01927146045967453,0.7101512975981709,0.008090936578810215,-0.003079633228480816,-0.007244784850627184,0.0,0.0,-0.6,0.0,0.48233771324157715,0.48233771324157715,0.5476996898651123,0,Sim
0.5481123924255371,-0.0006862763548269868,0.005391555372625589,-0.02158532664179802,0.01927146045967453,0.7232193662687971,0.013039389625191689,-0.004938122816383839,-0.012301076203584671,0.0,0.0,-0.6,0.0,0.0002472400665283203,0.0002472400665283203,0.0033457279205322266,0,jax_reg_wardi
0.5523018836975098,0.009918983094394207,0.001115310937166214,-0.012499143369495869,0.019544931403213315,0.7338926414713107,0.018825823441147804,0.002056114375591278,-0.01592353545129299,0.0,0.0,-0.6,0.0,0.00026726722717285156,0.00026726722717285156,0.003484010696411133,0,1x Speed
0.559927225112915,0.009918983094394207,0.001115310937166214,-0.012499143369495869,0.019544931403213315,0.7423351841755157,0.022543195635080338,0.006569343619048595,-0.018482716754078865,0.0,0.0,-0.6,0.0,0.00019359588623046875,0.00019359588623046875,0.0029916763305664062,0,circle_horz_ref_func
0.5700924396514893,0.010008175857365131,0.000966915744356811,-0.012413271702826023,0.019546319371079215,0.7490299243842939,0.0250860545784235,0.009583479724824429,-0.020284093916416168,0.0,0.0,-0.6,0.0,0.00022339820861816406,0.00022339820861816406,0.003092050552368164,0,0
0.580216646194458,0.01009594276547432,0.0008204863988794386,-0.012328234501183033,0.019539692655463046,0.7543519473846829,0.026887495070695877,0.011630326509475708,-0.021546905860304832,0.0,0.0,-0.6,0.0,0.0002410411834716797,0.0002410411834716797,0.0032815933227539062,0,0
0.5898361206054688,0.010266643948853016,0.0005318141775205731,-0.0121590755879879,0.0195622479402862,0.7585959832773503,0.02833726443350315,0.013218224048614502,-0.02244284376502037,0.0,0.0,-0.6,0.0,0.00020694732666015625,0.00020694732666015625,0.002928495407104492,0,0
0.6001062393188477,0.01035146415233612,0.00038930855225771666,-0.01207320298999548,0.01955300744494614,0.7619853174503612,0.029445907101035118,0.014370344579219818,-0.023068420588970184,0.0,0.0,-0.6,0.0,0.0002732276916503906,0.0002732276916503906,0.003933906555175781,0,0
0.6099824905395508,0.01043521985411644,0.00024755537742748857,-0.01198619045317173,0.019531778585126322,0.7646935873475644,0.03035515733063221,0.015179355628788471,-0.023499807342886925,0.0,0.0,-0.6,0.0,0.00025773048400878906,0.00025773048400878906,0.003403902053833008,0,0
0.6199178695678711,0.010599943809211254,-3.298718365840614e-05,-0.011744542978703976,0.019527288741092157,0.7668367060756023,0.031162135303020477,0.01587451994419098,-0.023802103474736214,0.0,0.0,-0.6,0.0,0.00023126602172851562,0.00023126602172851562,0.0030586719512939453,0,0
0.6301939487457275,0.0106800002977252,-0.00017135021334979683,-0.01165214367210865,0.019507680668002753,0.7684472134217485,0.03179663047194481,0.01637275703251362,-0.024007203057408333,0.0,0.0,-0.6,0.0,0.0003952980041503906,0.0003952980041503906,0.0068166255950927734,0,0
0.6399435997009277,0.010762006044387817,-0.0003093971754424274,-0.01161158550530672,0.019457076003425926,0.7695766570579042,0.03223169595003128,0.016832562163472176,-0.024132782593369484,0.0,0.0,-0.6,0.0,0.0002689361572265625,0.0002689361572265625,0.004231929779052734,0,0
0.6501309871673584,0.01084260642528534,-0.0004458425391931087,-0.01163958478718996,0.019434379080024124,0.7702844362620764,0.03254095837473869,0.017193734645843506,-0.024212829768657684,0.0,0.0,-0.6,0.0,0.00032830238342285156,0.00032830238342285156,0.003864765167236328,0,0
0.6601450443267822,0.010998929850757122,-0.0007142579997889698,-0.01194128580391407,0.019354436028281966,0.7703984719655704,0.03255879878997803,0.017647188156843185,-0.02424025349318981,0.0,0.0,-0.6,0.0,0.00033974647521972656,0.00033974647521972656,0.003942966461181641,0,0
0.6699588298797607,0.011075908318161964,-0.0008463729172945023,-0.012225878424942493,0.019302475278291775,0.7702394785345009,0.03238651156425476,0.018008394166827202,-0.0242400411516428,0.0,0.0,-0.6,0.0,0.00025463104248046875,0.00025463104248046875,0.0033206939697265625,0,0
0.6801128387451172,0.01115126721560955,-0.0009767680894583464,-0.01260304730385542,0.01923648440910716,0.7698563099730897,0.032086070626974106,0.018337909132242203,-0.02421550452709198,0.0,0.0,-0.6,0.0,0.00039577484130859375,0.00039577484130859375,0.003491640090942383,0,0
0.6901166439056396,0.01122698001563549,-0.001106123672798276,-0.013077185489237309,0.019193613333691587,0.7692791913418842,0.031686849892139435,0.018694667145609856,-0.02418282814323902,0.0,0.0,-0.6,0.0,0.00032067298889160156,0.00032067298889160156,0.0038411617279052734,0,0
0.7001402378082275,0.011380407027900219,-0.0013588794972747564,-0.014327647164463997,0.019000978960082276,0.768256082616183,0.030888497829437256,0.01903514564037323,-0.02408698759973049,0.0,0.0,-0.6,0.0,0.0002644062042236328,0.0002644062042236328,0.003189563751220703,0,0
0.710054874420166,0.011458509601652622,-0.0014793718000873923,-0.01510531920939684,0.01889924913180094,0.7671509744560056,0.029933569952845573,0.019431089982390404,-0.0239812433719635,0.0,0.0,-0.6,0.0,0.0002579689025878906,0.0002579689025878906,0.0032320022583007812,0,0
0.7199716567993164,0.011536164209246635,-0.0015958775766193867,-0.01598275452852249,0.018787451970470166,0.7659861069901757,0.028948353603482246,0.019707808271050453,-0.02386421523988247,0.0,0.0,-0.6,0.0,0.00018739700317382812,0.00018739700317382812,0.0029375553131103516,0,0
0.7302281856536865,0.01161193661391735,-0.0017101849662140012,-0.016958747059106827,0.018651078722737916,0.7647665508679207,0.028009098023176193,0.019960440695285797,-0.023730820044875145,0.0,0.0,-0.6,0.0,0.0002512931823730469,0.0002512931823730469,0.0033621788024902344,0,0
0.740142822265625,0.011759589426219463,-0.001931927283294499,-0.01920827105641365,0.018372781626545247,0.7632126041711856,0.026778854429721832,0.020224595442414284,-0.023532051593065262,0.0,0.0,-0.6,0.0,0.0002827644348144531,0.0002827644348144531,0.003385305404663086,0,0
0.7499980926513672,0.011831075884401798,-0.002039120066910982,-0.020479094237089157,0.01824461021043137,0.7616824748711093,0.02560162916779518,0.02042415551841259,-0.023343808948993683,0.0,0.0,-0.6,0.0,0.0002148151397705078,0.0002148151397705078,0.002972126007080078,0,0
0.7600812911987305,0.01190174650400877,-0.0021425667218863964,-0.02184533327817917,0.018089703930214907,0.7601682974860211,0.024376453831791878,0.02061593532562256,-0.023152492940425873,0.0,0.0,-0.6,0.0,0.0003440380096435547,0.0003440380096435547,0.004594564437866211,0,0
0.7700283527374268,0.011972768232226372,-0.0022410601377487183,-0.02330625243484974,0.017952809093479228,0.7586684459091296,0.023125512525439262,0.020842785015702248,-0.022966068238019943,0.0,0.0,-0.6,0.0,0.00023937225341796875,0.00023937225341796875,0.00348663330078125,0,0
0.7800142765045166,0.01204384583979845,-0.002335574710741639,-0.024860884994268417,0.017820076501177843,0.7571779643107958,0.021840954199433327,0.02098562754690647,-0.022784048691391945,0.0,0.0,-0.6,0.0,0.00022149085998535156,0.00022149085998535156,0.003052949905395508,0,0
0.7901809215545654,0.012111850082874298,-0.002422218443825841,-0.026507575064897537,0.01766285953637943,0.7556990928474798,0.020678123459219933,0.02111957035958767,-0.02259724587202072,0.0,0.0,-0.6,0.0,0.00023627281188964844,0.00023627281188964844,0.0033380985260009766,0,0
0.7999787330627441,0.012244965881109238,-0.002588279079645872,-0.03008669801056385,0.017357255574519895,0.7539462073222176,0.019053835421800613,0.021230941638350487,-0.02234884537756443,0.0,0.0,-0.6,0.0,0.00020885467529296875,0.00020885467529296875,0.0029206275939941406,0,0
0.8100793361663818,0.012311646714806557,-0.0026659222785383463,-0.03201540559530258,0.017203359871426235,0.7522588368565033,0.017556948587298393,0.021350128576159477,-0.022116154432296753,0.0,0.0,-0.6,0.0,0.00021719932556152344,0.00021719932556152344,0.003071308135986328,0,0
0.8201022148132324,0.012442712672054768,-0.002813168801367283,-0.03612203896045685,0.016889230311878226,0.7503617245031668,0.015695076435804367,0.02131643518805504,-0.021831898018717766,0.0,0.0,-0.6,0.0,0.0002589225769042969,0.0002589225769042969,0.0034592151641845703,0,0
0.8300304412841797,0.012505811639130116,-0.002881821244955063,-0.03829631209373474,0.016737526809903258,0.7485648914490866,0.013968516141176224,0.021242039278149605,-0.021574074402451515,0.0,0.0,-0.6,0.0,0.0002090930938720703,0.0002090930938720703,0.0029141902923583984,0,0
0.8401501178741455,0.012567799538373947,-0.0029465225525200367,-0.040550023317337036,0.01657732704009376,0.7468554333532967,0.01238053385168314,0.021139319986104965,-0.021331848576664925,0.0,0.0,-0.6,0.0,0.00026607513427734375,0.00026607513427734375,0.003615856170654297,0,0
0.8500452041625977,0.012548665516078472,-0.0029293629340827465,-0.04258394241333008,0.01640651113391209,0.7452354701501824,0.01083676889538765,0.020956948399543762,-0.021096058189868927,0.0,0.0,-0.6,0.0,0.00022220611572265625,0.00022220611572265625,0.003142833709716797,0,0
0.8601186275482178,0.01252854522317648,-0.002909312257543206,-0.044710204005241394,0.01623957837421232,0.7436930351140751,0.009280089288949966,0.02068011462688446,-0.020865650847554207,0.0,0.0,-0.6,0.0,0.0002753734588623047,0.0002753734588623047,0.0032639503479003906,0,0
0.870044469833374,0.012509412132203579,-0.00288568576797843,-0.04691062122583389,0.01606579269415309,0.7422168663711266,0.007692183367908001,0.020381169393658638,-0.020636655390262604,0.0,0.0,-0.6,0.0,0.0002493858337402344,0.0002493858337402344,0.0032241344451904297,0,0
0.8799846172332764,0.01247453410178423,-0.002829089295119047,-0.051525574177503586,0.015747119700741382,0.7405660295301018,0.0056448583491146564,0.01987936720252037,-0.020351899787783623,0.0,0.0,-0.6,0.0,0.0002090930938720703,0.0002090930938720703,0.003007650375366211,0,0
0.8902173042297363,0.012456963770091534,-0.0027963556349277496,-0.053934115916490555,0.015580910250723144,0.7390156807235488,0.0037648973520845175,0.019335130229592323,-0.02008836157619953,0.0,0.0,-0.6,0.0,0.00024247169494628906,0.00024247169494628906,0.003359079360961914,0,0
0.9002335071563721,0.01243999507278204,-0.002761347685009241,-0.05640709772706032,0.015417943825224732,0.7375498865739283,0.0019989018328487873,0.01879306323826313,-0.019841058179736137,0.0,0.0,-0.6,0.0,0.00033164024353027344,0.00033164024353027344,0.004072666168212891,0,0
0.9108357429504395,0.01239015068858862,-0.0026408000849187374,-0.0642085000872612,0.014911162836268775,0.7357314535782412,-0.0004772352403961122,0.01786430925130844,-0.019471872597932816,0.0,0.0,-0.6,0.0,0.00039768218994140625,0.00039768218994140625,0.007210254669189453,0,0
0.9199428558349609,0.01239015068858862,-0.0026408000849187374,-0.0642085000872612,0.014911162836268775,0.7342739732845559,-0.0022344100289046764,0.017205633223056793,-0.01921466551721096,0.0,0.0,-0.6,0.0,0.00025916099548339844,0.00025916099548339844,0.003907918930053711,0,0
0.9300425052642822,0.012373832054436207,-0.0025939885526895523,-0.06693705916404724,0.014728118695956824,0.732894125924778,-0.0038913427852094173,0.01659749262034893,-0.018964674323797226,0.0,0.0,-0.6,0.0,0.00030994415283203125,0.00030994415283203125,0.0037996768951416016,0,0
0.940039873123169,0.012342148460447788,-0.002493011299520731,-0.07254832983016968,0.014392581755169475,0.7313926945192627,-0.0056700934655964375,0.015810556709766388,-0.01866188459098339,0.0,0.0,-0.6,0.0,0.00023245811462402344,0.00023245811462402344,0.003350496292114258,0,0
0.9500744342803955,0.01232421025633812,-0.0024382746778428555,-0.07542348653078079,0.014215099908401894,0.729997665659368,-0.007319188676774502,0.015035784803330898,-0.018382463604211807,0.0,0.0,-0.6,0.0,0.0002429485321044922,0.0002429485321044922,0.003245830535888672,0,0
0.9600286483764648,0.012305857613682747,-0.0023779473267495632,-0.07834463566541672,0.01401941579500431,0.7286824633114907,-0.008964423090219498,0.01435010228306055,-0.018112143501639366,0.0,0.0,-0.6,0.0,0.0002193450927734375,0.0002193450927734375,0.0030312538146972656,0,0
0.9701271057128906,0.012288209982216358,-0.002312177326530218,-0.08131176978349686,0.013821448077429863,0.7274350050003927,-0.010507947765290737,0.013719018548727036,-0.01784789375960827,0.0,0.0,-0.6,0.0,0.00022554397583007812,0.00022554397583007812,0.0030345916748046875,0,0
0.980147123336792,0.012270620092749596,-0.0022419418673962355,-0.08433894068002701,0.01366061030444994,0.7262497352495794,-0.01191059872508049,0.013138820417225361,-0.01760209910571575,0.0,0.0,-0.6,0.0,0.00026106834411621094,0.00026106834411621094,0.003295421600341797,0,0
0.9900860786437988,0.012216628529131413,-0.0020101917907595634,-0.09364838898181915,0.013130467692788908,0.7247719381744265,-0.013744745403528214,0.012072811834514141,-0.017229797318577766,0.0,0.0,-0.6,0.0,0.00020933151245117188,0.00020933151245117188,0.002852916717529297,0,0
1.0001208782196045,0.012216628529131413,-0.0020101917907595634,-0.09364838898181915,0.013130467692788908,0.7235878823780738,-0.015043285675346851,0.011318442411720753,-0.016970310360193253,0.0,0.0,-0.6,0.0,0.00024318695068359375,0.00024318695068359375,0.003261089324951172,0,0
1.0099892616271973,0.012194577604532242,-0.0019252393394708633,-0.09681924432516098,0.012988824598469272,0.7224709721321476,-0.016162395477294922,0.010540666989982128,-0.016736244782805443,0.0,0.0,-0.6,0.0,0.00020503997802734375,0.00020503997802734375,0.002882719039916992,0,0
1.0200152397155762,0.012170562520623207,-0.0018373386701568961,-0.10002049803733826,0.01283429643336226,0.7214158508331818,-0.01718267612159252,0.009738451801240444,-0.016515085473656654,0.0,0.0,-0.6,0.0,0.0002658367156982422,0.0002658367156982422,0.0037086009979248047,0,0
1.0300559997558594,0.012115790508687496,-0.001648042001761496,-0.10650602728128433,0.012555657263479453,0.7202549527433528,-0.018424928188323975,0.008654963225126266,-0.016256706789135933,0.0,0.0,-0.6,0.0,0.0002410411834716797,0.0002410411834716797,0.0032646656036376953,0,0
1.0400481224060059,0.012085461989045143,-0.0015466188779100776,-0.1098099797964096,0.012403847247528589,0.719175271233208,-0.019571563228964806,0.007684042677283287,-0.016019856557250023,0.0,0.0,-0.6,0.0,0.0002377033233642578,0.0002377033233642578,0.003203868865966797,0,0
1.0501446723937988,0.01205338817089796,-0.001441205502487719,-0.11313675343990326,0.012264690028468996,0.7181597108755723,-0.020490672439336777,0.006770346779376268,-0.015803396701812744,0.0,0.0,-0.6,0.0,0.0002269744873046875,0.0002269744873046875,0.003091573715209961,0,0
1.0600063800811768,0.01201963983476162,-0.0013328943168744445,-0.11648507416248322,0.01211789689441736,0.7172041896001268,-0.02135358564555645,0.005901156459003687,-0.015598048456013203,0.0,0.0,-0.6,0.0,0.00023031234741210938,0.00023031234741210938,0.003002643585205078,0,0
1.0702736377716064,0.011896422132849693,-0.0009838492842391133,-0.1266338974237442,0.011623684085921413,0.7160379893117722,-0.022423094138503075,0.004444780293852091,-0.015273522585630417,0.0,0.0,-0.6,0.0,0.00020837783813476562,0.00020837783813476562,0.003108501434326172,0,0
1.0802173614501953,0.011896422132849693,-0.0009838492842391133,-0.1266338974237442,0.011623684085921413,0.7151039044195532,-0.023178664967417717,0.003416268387809396,-0.01504732109606266,0.0,0.0,-0.6,0.0,0.00024056434631347656,0.00024056434631347656,0.003229856491088867,0,0
1.0898668766021729,0.01184935588389635,-0.0008592833182774484,-0.13004779815673828,0.011460673798429768,0.71422240512037,-0.023833755403757095,0.0025626386050134897,-0.014829074963927269,0.0,0.0,-0.6,0.0,0.00021696090698242188,0.00021696090698242188,0.0031173229217529297,0,0
1.1000745296478271,0.01180124469101429,-0.0007316229166463017,-0.13348862528800964,0.011307119505389231,0.713382059674296,-0.024322979152202606,0.0017677434952929616,-0.014620468020439148,0.0,0.0,-0.6,0.0,0.00025916099548339844,0.00025916099548339844,0.003283262252807617,0,0
1.110158920288086,0.011641544289886951,-0.0003329883038531989,-0.14388085901737213,0.01087117319280865,0.7123520249867049,-0.024699803441762924,0.0005322120268829167,-0.014316624961793423,0.0,0.0,-0.6,0.0,0.00024509429931640625,0.00024509429931640625,0.0034902095794677734,0,0
1.1199359893798828,0.011641544289886951,-0.0003329883038531989,-0.14388085901737213,0.01087117319280865,0.7115270713291085,-0.024965830147266388,-0.0003395247331354767,-0.014104259200394154,0.0,0.0,-0.6,0.0,0.00022721290588378906,0.00022721290588378906,0.0034275054931640625,0,0
1.1303141117095947,0.011584857478737831,-0.00019516656175255775,-0.1473601758480072,0.010731972899460833,0.7107580172283219,-0.025208594277501106,-0.0010636403458192945,-0.013904597610235214,0.0,0.0,-0.6,0.0,0.00041103363037109375,0.00041103363037109375,0.004570484161376953,0,0
1.140199899673462,0.011471695266664028,9.041900921147317e-05,-0.15433292090892792,0.010435096983637294,0.7099314785832194,-0.025495747104287148,-0.0016473601572215557,-0.013654560782015324,0.0,0.0,-0.6,0.0,0.0003116130828857422,0.0003116130828857422,0.0035288333892822266,0,0
1.149773120880127,0.01135642733424902,0.0003874270769301802,-0.16135235130786896,0.010147454333861668,0.7090744712324076,-0.02570149302482605,-0.0022705274168401957,-0.013373984023928642,0.0,0.0,-0.6,0.0,0.0002124309539794922,0.0002124309539794922,0.0030803680419921875,0,0
1.1602542400360107,0.01135642733424902,0.0003874270769301802,-0.16135235130786896,0.010147454333861668,0.7083882111955865,-0.025846540927886963,-0.0027096369303762913,-0.013177681714296341,0.0,0.0,-0.6,0.0,0.00032901763916015625,0.00032901763916015625,0.0034782886505126953,0,0
1.1700983047485352,0.01129576563835144,0.0005393507890403271,-0.16488143801689148,0.010008788326043782,0.7077379680317126,-0.02594037726521492,-0.003139599459245801,-0.012989619746804237,0.0,0.0,-0.6,0.0,0.0002434253692626953,0.0002434253692626953,0.0035390853881835938,0,0
1.1801273822784424,0.011167094111442566,0.0008452145848423243,-0.17194093763828278,0.00974602376918153,0.7070247440444437,-0.025672970339655876,-0.003779011545702815,-0.012762834317982197,0.0,0.0,-0.6,0.0,0.00025653839111328125,0.00025653839111328125,0.0033597946166992188,0,0
1.1899738311767578,0.011031150817871094,0.0011560379061847925,-0.17899011075496674,0.009496718907564343,0.7062779064937846,-0.025332385674118996,-0.004377366509288549,-0.012512482702732086,0.0,0.0,-0.6,0.0,0.00023293495178222656,0.00023293495178222656,0.003275156021118164,0,0
1.2000510692596436,0.011031150817871094,0.0011560379061847925,-0.17899011075496674,0.009496718907564343,0.7056799535175242,-0.02509264461696148,-0.004798692651093006,-0.012337137013673782,0.0,0.0,-0.6,0.0,0.0002319812774658203,0.0002319812774658203,0.003204345703125,0,0
1.210172176361084,0.010961031541228294,0.0013145210687071085,-0.1825081706047058,0.009378865746487922,0.7051202161789257,-0.02471766248345375,-0.0051105208694934845,-0.012170323170721531,0.0,0.0,-0.6,0.0,0.00022602081298828125,0.00022602081298828125,0.0031976699829101562,0,0
1.2201581001281738,0.010819762013852596,0.0016254002694040537,-0.1895231306552887,0.009152929745435977,0.7045191498653093,-0.024143492802977562,-0.005372778512537479,-0.011969439685344696,0.0,0.0,-0.6,0.0,0.0002548694610595703,0.0002548694610595703,0.0032265186309814453,0,0
1.2298517227172852,0.010671551339328289,0.001946976874023676,-0.19650211930274963,0.00889626166753688,0.7039009578300054,-0.023611297830939293,-0.0056848069652915,-0.011734308674931526,0.0,0.0,-0.6,0.0,0.00020456314086914062,0.00020456314086914062,0.002910137176513672,0,0
1.2401666641235352,0.010671551339328289,0.001946976874023676,-0.19650211930274963,0.00889626166753688,0.7034060694941258,-0.023236988112330437,-0.005904333665966988,-0.011569627560675144,0.0,0.0,-0.6,0.0,0.0002727508544921875,0.0002727508544921875,0.003219127655029297,0,0
1.2499125003814697,0.010489103384315968,0.0022012093104422092,-0.1997964084148407,0.008785945756675927,0.7029504966061109,-0.022972673177719116,-0.006171421147882938,-0.01141446828842163,0.0,0.0,-0.6,0.0,0.000202178955078125,0.000202178955078125,0.003057241439819336,0,0
1.2601494789123535,0.010128489695489407,0.002708962420001626,-0.20636001229286194,0.008591580913838237,0.7024778813151177,-0.022664790973067284,-0.006506947334855795,-0.011235029436647892,0.0,0.0,-0.6,0.0,0.00027108192443847656,0.00027108192443847656,0.003180265426635742,0,0
1.2698249816894531,0.009773209691047668,0.0032107289880514145,-0.21290385723114014,0.008366149542750905,0.7019910769453734,-0.022157330065965652,-0.006746916566044092,-0.01102516334503889,0.0,0.0,-0.6,0.0,0.0002586841583251953,0.0002586841583251953,0.003260374069213867,0,0
1.2800889015197754,0.009773209691047668,0.0032107289880514145,-0.21290385723114014,0.008366149542750905,0.7016014050012638,-0.021800769492983818,-0.006915578618645668,-0.010878190398216248,0.0,0.0,-0.6,0.0,0.00022673606872558594,0.00022673606872558594,0.0031273365020751953,0,0
1.2901196479797363,0.009599619545042515,0.0034603080712258816,-0.21616819500923157,0.008278423354102825,0.7012414586128205,-0.02147258073091507,-0.007025436498224735,-0.010742521844804287,0.0,0.0,-0.6,0.0,0.00022411346435546875,0.00022411346435546875,0.003229856491088867,0,0
1.2999646663665771,0.009427955374121666,0.0037095670122653246,-0.2194213569164276,0.008187518440711049,0.7009032010798808,-0.02118278294801712,-0.007132193073630333,-0.01061408594250679,0.0,0.0,-0.6,0.0,0.00024056434631347656,0.00024056434631347656,0.003228425979614258,0,0
1.3100900650024414,0.008908161893486977,0.004455249290913343,-0.22910542786121368,0.007868937009052177,0.700503435345533,-0.020677315071225166,-0.007563160732388496,-0.01040938775986433,0.0,0.0,-0.6,0.0,0.00020360946655273438,0.00020360946655273438,0.0028769969940185547,0,0
1.320162057876587,0.008908161893486977,0.004455249290913343,-0.22910542786121368,0.007868937009052177,0.7001834555275434,-0.020322410389780998,-0.007865826599299908,-0.010265978053212166,0.0,0.0,-0.6,0.0,0.00024962425231933594,0.00024962425231933594,0.003255605697631836,0,0
1.329960584640503,0.00873587466776371,0.004702032543718815,-0.23230648040771484,0.0077780087710397966,0.6998869451366236,-0.01996830850839615,-0.008072689175605774,-0.010131570510566235,0.0,0.0,-0.6,0.0,0.0002791881561279297,0.0002791881561279297,0.003397703170776367,0,0
1.340162992477417,0.008565300144255161,0.004946911707520485,-0.23552356660366058,0.007674286247534832,0.6996052932541155,-0.019554900005459785,-0.008164951577782631,-0.009997949935495853,0.0,0.0,-0.6,0.0,0.00026226043701171875,0.00026226043701171875,0.003164529800415039,0,0
1.3500771522521973,0.008060676045715809,0.005666722543537617,-0.24508270621299744,0.0073791309411375475,0.6992673989347995,-0.018634704872965813,-0.008093800395727158,-0.009791838936507702,0.0,0.0,-0.6,0.0,0.0002110004425048828,0.0002110004425048828,0.002999544143676758,0,0
1.3600409030914307,0.008060676045715809,0.005666722543537617,-0.24508270621299744,0.0073791309411375475,0.6989969884173531,-0.01798885129392147,-0.00804393645375967,-0.009647597558796406,0.0,0.0,-0.6,0.0,0.00022459030151367188,0.00022459030151367188,0.0029892921447753906,0,0
1.370163917541504,0.007895758375525475,0.0059005580842494965,-0.2482360303401947,0.007271366709931348,0.6987470265985345,-0.01734951138496399,-0.007933137007057667,-0.009505304507911205,0.0,0.0,-0.6,0.0,0.00021409988403320312,0.00021409988403320312,0.003261089324951172,0,0
1.3801453113555908,0.007571714464575052,0.006361967418342829,-0.25448840856552124,0.007084575747675676,0.698487398147272,-0.01645011454820633,-0.007757703308016062,-0.009334102272987366,0.0,0.0,-0.6,0.0,0.00030040740966796875,0.00030040740966796875,0.0034558773040771484,0,0
1.389890193939209,0.007259012199938297,0.00680997408926487,-0.26066872477531433,0.00687521181997672,0.6982140220517302,-0.015372498892247677,-0.0073378486558794975,-0.009131912142038345,0.0,0.0,-0.6,0.0,0.0002079010009765625,0.0002079010009765625,0.002984285354614258,0,0
1.400191307067871,0.007259012199938297,0.00680997408926487,-0.26066872477531433,0.00687521181997672,0.6979952615774105,-0.014616512693464756,-0.00704340310767293,-0.008990640752017498,0.0,0.0,-0.6,0.0,0.0002484321594238281,0.0002484321594238281,0.0033948421478271484,0,0
1.4100148677825928,0.007105574011802673,0.007030687760561705,-0.2637331187725067,0.006776560173766356,0.6977905426864873,-0.013901780359447002,-0.006832640618085861,-0.008854713290929794,0.0,0.0,-0.6,0.0,0.0003807544708251953,0.0003807544708251953,0.00480341911315918,0,0
1.4200730323791504,0.0069524142891168594,0.007249555550515652,-0.2667786777019501,0.006686618098116853,0.6976018743709169,-0.013291222974658012,-0.006647588685154915,-0.00872551929205656,0.0,0.0,-0.6,0.0,0.0002951622009277344,0.0002951622009277344,0.0033974647521972656,0,0
1.4299254417419434,0.006497756112366915,0.007893752306699753,-0.2757982909679413,0.006370582913458392,0.6973805161276516,-0.012266378849744797,-0.00630239536985755,-0.0085136154666543,0.0,0.0,-0.6,0.0,0.0002281665802001953,0.0002281665802001953,0.0031654834747314453,0,0
1.4400174617767334,0.006497756112366915,0.007893752306699753,-0.2757982909679413,0.006370582913458392,0.6972033931187197,-0.011547708883881569,-0.006060423329472542,-0.008365488611161709,0.0,0.0,-0.6,0.0,0.00022792816162109375,0.00022792816162109375,0.003013134002685547,0,0
1.450119972229004,0.006349523551762104,0.00810319185256958,-0.27876344323158264,0.006269255887571169,0.6970448152393942,-0.0108101274818182,-0.00576627254486084,-0.0082223080098629,0.0,0.0,-0.6,0.0,0.00024819374084472656,0.00024819374084472656,0.003347158432006836,0,0
1.460066795349121,0.006057020742446184,0.008516211993992329,-0.2846311926841736,0.006086000736104807,0.6968772254870885,-0.010090765543282032,-0.00549697270616889,-0.008052801713347435,0.0,0.0,-0.6,0.0,0.0002593994140625,0.0002593994140625,0.003507852554321289,0,0
1.4699037075042725,0.005770512856543064,0.008920951746404171,-0.29041704535484314,0.005922453645645572,0.69670705092901,-0.00917924102395773,-0.005109092220664024,-0.007870317436754704,0.0,0.0,-0.6,0.0,0.00022530555725097656,0.00022530555725097656,0.0030927658081054688,0,0
1.4801781177520752,0.005770512856543064,0.008920951746404171,-0.29041704535484314,0.005922453645645572,0.6965708929530378,-0.008540291339159012,-0.004837276414036751,-0.007742785848677158,0.0,0.0,-0.6,0.0,0.00028204917907714844,0.00028204917907714844,0.003290891647338867,0,0
1.4900288581848145,0.005629980470985174,0.009119030088186264,-0.2932787835597992,0.005834524107910915,0.6964454626652098,-0.007879466749727726,-0.00454243179410696,-0.007619333919137716,0.0,0.0,-0.6,0.0,0.00023555755615234375,0.00023555755615234375,0.0031769275665283203,0,0
1.5000522136688232,0.0053533585742115974,0.009502680040895939,-0.29893505573272705,0.005637931026471904,0.6963231912986083,-0.006922171916812658,-0.004089068155735731,-0.0074561103247106075,0.0,0.0,-0.6,0.0,0.00023651123046875,0.00023651123046875,0.003145456314086914,0,0
1.5102620124816895,0.005083917640149593,0.009871844202280045,-0.30451565980911255,0.005488662761830379,0.6962070632065506,-0.00604513892903924,-0.0035842880606651306,-0.007284028921276331,0.0,0.0,-0.6,0.0,0.0002288818359375,0.0002288818359375,0.0032165050506591797,0,0
1.520085334777832,0.005083917640149593,0.009871844202280045,-0.30451565980911255,0.005488662761830379,0.6961141563871353,-0.005430619698017836,-0.003230676054954529,-0.007163832895457745,0.0,0.0,-0.6,0.0,0.00023126602172851562,0.00023126602172851562,0.003186941146850586,0,0
1.5300977230072021,0.00495122792199254,0.010053656063973904,-0.307278573513031,0.0054105462232307226,0.696033447789727,-0.004864222835749388,-0.002907699439674616,-0.007049686275422573,0.0,0.0,-0.6,0.0,0.00027680397033691406,0.00027680397033691406,0.0033349990844726562,0,0
1.540252923965454,0.004694146104156971,0.010412034578621387,-0.31273162364959717,0.0052444333332258355,0.6959564608067454,-0.004192989319562912,-0.0023682983592152596,-0.006904265843331814,0.0,0.0,-0.6,0.0,0.0002911090850830078,0.0002911090850830078,0.003416299819946289,0,0
1.5498683452606201,0.004447533283382654,0.010759999044239521,-0.3180895149707794,0.005053270915604312,0.6958846493054128,-0.0032621873542666435,-0.0017758990870788693,-0.00672847731038928,0.0,0.0,-0.6,0.0,0.00021076202392578125,0.00021076202392578125,0.0029401779174804688,0,0
1.5601649284362793,0.004447533283382654,0.010759999044239521,-0.3180895149707794,0.005053270915604312,0.6958272032922725,-0.0026102170813828707,-0.0013610473833978176,-0.006605752278119326,0.0,0.0,-0.6,0.0,0.0002722740173339844,0.0002722740173339844,0.0032591819763183594,0,0
1.5700030326843262,0.004327304661273956,0.010928750038146973,-0.32073265314102173,0.005005678545659071,0.6957759970619872,-0.0020946618169546127,-0.0009865171741694212,-0.006501317955553532,0.0,0.0,-0.6,0.0,0.00023698806762695312,0.00023698806762695312,0.0034956932067871094,0,0
1.5799775123596191,0.004209641367197037,0.011095846071839333,-0.3233526051044464,0.0049361711158390255,0.6957289111248881,-0.001628279685974121,-0.0005293471622280777,-0.006400342099368572,0.0,0.0,-0.6,0.0,0.00021791458129882812,0.00021791458129882812,0.003161191940307617,0,0
1.5902307033538818,0.003872574307024479,0.011579794809222221,-0.33107325434684753,0.004704145634584484,0.6956774236460401,-0.0008911159238778055,2.595010300865397e-05,-0.0062403809279203415,0.0,0.0,-0.6,0.0,0.0002338886260986328,0.0002338886260986328,0.003165721893310547,0,0
1.5999808311462402,0.003872574307024479,0.011579794809222221,-0.33107325434684753,0.004704145634584484,0.6956362626854058,-0.0003748578601516783,0.0004147712024860084,-0.006128651089966297,0.0,0.0,-0.6,0.0,0.00020956993103027344,0.00020956993103027344,0.0030667781829833984,0,0
1.6099801063537598,0.0037633331958204508,0.01173427700996399,-0.3336002230644226,0.004625647626501797,0.6956018555156844,6.060329178581014e-05,0.0007378044538199902,-0.006020655389875174,0.0,0.0,-0.6,0.0,0.00022172927856445312,0.00022172927856445312,0.0030927658081054688,0,0
1.6202094554901123,0.003655902110040188,0.011886198073625565,-0.33610349893569946,0.004542030639504753,0.6955731031778287,0.00043062493205070496,0.0010721692815423012,-0.0059127965942025185,0.0,0.0,-0.6,0.0,0.0002627372741699219,0.0002627372741699219,0.0034027099609375,0,0
1.6298575401306152,0.003348775440827012,0.012318714521825314,-0.343472957611084,0.0043386298110369495,0.6955498491609435,0.001218627323396504,0.0017630631336942315,-0.005757004488259554,0.0,0.0,-0.6,0.0,0.0002560615539550781,0.0002560615539550781,0.003529787063598633,0,0
1.6402041912078857,0.003348775440827012,0.012318714521825314,-0.343472957611084,0.0043386298110369495,0.6955312690271828,0.0017703714547678828,0.0022467314265668392,-0.005648273974657059,0.0,0.0,-0.6,0.0,0.0003058910369873047,0.0003058910369873047,0.0035758018493652344,0,0
1.6500844955444336,0.0033548930659890175,0.012568173930048943,-0.34616243839263916,0.004283092104684961,0.6955048711353061,0.0021640134509652853,0.0027993081603199244,-0.00554959150031209,0.0,0.0,-0.6,0.0,0.0002503395080566406,0.0002503395080566406,0.0036132335662841797,0,0
1.6602654457092285,0.0033674687147140503,0.013051886111497879,-0.3514563739299774,0.004138155000307351,0.6954605584188319,0.0024953382089734077,0.003529611276462674,-0.005423314403742552,0.0,0.0,-0.6,0.0,0.000270843505859375,0.000270843505859375,0.003537893295288086,0,0
1.6700022220611572,0.003378813387826085,0.013510540127754211,-0.3566350042819977,0.004026106669373016,0.6954141217001367,0.0028708833269774914,0.004340848885476589,-0.005290666129440069,0.0,0.0,-0.6,0.0,0.00025463104248046875,0.00025463104248046875,0.003292083740234375,0,0
1.6800239086151123,0.003378813387826085,0.013510540127754211,-0.3566350042819977,0.004026106669373016,0.6953769939468956,0.003133901860564947,0.004908905364573002,-0.005197991617023945,0.0,0.0,-0.6,0.0,0.00022673606872558594,0.00022673606872558594,0.0031299591064453125,0,0
1.6901276111602783,0.0033851286862045527,0.013730586506426334,-0.3591792583465576,0.003956293424243798,0.6953480763162755,0.003295507747679949,0.005428655073046684,-0.005105993710458279,0.0,0.0,-0.6,0.0,0.00022912025451660156,0.00022912025451660156,0.003142833709716797,0,0
1.700199842453003,0.0033971902448683977,0.014159352518618107,-0.3641800880432129,0.0038198039759860785,0.6953165250389306,0.0031970483250916004,0.0060490877367556095,-0.004987968597561121,0.0,0.0,-0.6,0.0,0.00027179718017578125,0.00027179718017578125,0.0034613609313964844,0,0
1.709791660308838,0.00341560086235404,0.014572183601558208,-0.36906787753105164,0.003688899811436337,0.6952788819024431,0.003113606944680214,0.006863861344754696,-0.0048530432395637035,0.0,0.0,-0.6,0.0,0.00020575523376464844,0.00020575523376464844,0.0029447078704833984,0,0
1.7201173305511475,0.00341560086235404,0.014572183601558208,-0.36906787753105164,0.003688899811436337,0.6952487425328003,0.0030552209354937077,0.007434376981109381,-0.004758552648127079,0.0,0.0,-0.6,0.0,0.0002529621124267578,0.0002529621124267578,0.0033397674560546875,0,0
1.730078935623169,0.0034284547436982393,0.014772343449294567,-0.37147247791290283,0.0036278093143246484,0.6952203311032735,0.002898165723308921,0.007976590655744076,-0.004668011330068111,0.0,0.0,-0.6,0.0,0.00023126602172851562,0.00023126602172851562,0.003196239471435547,0,0
1.7399964332580566,0.0034558854531496763,0.015161344781517982,-0.37619537115097046,0.0034953940652917505,0.6952069306161761,0.0028110297862440348,0.008660557679831982,-0.004552438389509916,0.0,0.0,-0.6,0.0,0.00022077560424804688,0.00022077560424804688,0.003043651580810547,0,0
1.7500624656677246,0.0034913725685328245,0.015530337579548359,-0.3808099329471588,0.003341570706040301,0.6951943551736267,0.002833027858287096,0.009525415487587452,-0.004410938825458288,0.0,0.0,-0.6,0.0,0.00024437904357910156,0.00024437904357910156,0.0031037330627441406,0,0
1.760049819946289,0.0034913725685328245,0.015530337579548359,-0.3808099329471588,0.003341570706040301,0.6951842946763976,0.002848475007340312,0.010130875743925571,-0.004311899654567242,0.0,0.0,-0.6,0.0,0.0002257823944091797,0.0002257823944091797,0.003033161163330078,0,0
1.7700951099395752,0.00351279997266829,0.015706898644566536,-0.383076012134552,0.003266230751547036,0.6951811114456882,0.002858967985957861,0.01070561632514,-0.004213232081383467,0.0,0.0,-0.6,0.0,0.0002200603485107422,0.0002200603485107422,0.003091096878051758,0,0
1.7801792621612549,0.003560192883014679,0.016046585515141487,-0.38752686977386475,0.0031598170843008954,0.6951838623865553,0.0027203906793147326,0.011249321512877941,-0.004102819133549929,0.0,0.0,-0.6,0.0,0.00025272369384765625,0.00025272369384765625,0.0031821727752685547,0,0
1.7897708415985107,0.003608552971854806,0.016382010653614998,-0.39186984300613403,0.0030359499223869013,0.6951940800835983,0.0024803304113447666,0.011989092454314232,-0.003975679166615009,0.0,0.0,-0.6,0.0,0.0002219676971435547,0.0002219676971435547,0.0028057098388671875,0,0
1.800074815750122,0.003608552971854806,0.016382010653614998,-0.39186984300613403,0.0030359499223869013,0.6952022541467044,0.0023123365826904774,0.01250690221786499,-0.0038865755777806044,0.0,0.0,-0.6,0.0,0.00024700164794921875,0.00024700164794921875,0.0032389163970947266,0,0
1.8101813793182373,0.0036371771711856127,0.01654374971985817,-0.39400118589401245,0.0030164288404089298,0.695216990827032,0.002211368177086115,0.013055659830570221,-0.0038155438378453255,0.0,0.0,-0.6,0.0,0.000232696533203125,0.000232696533203125,0.0033690929412841797,0,0
1.8199694156646729,0.0036679543554782867,0.01670112833380699,-0.3961046040058136,0.0029724192563752847,0.6952372680527492,0.002088990993797779,0.013558822683990002,-0.0037482695188373327,0.0,0.0,-0.6,0.0,0.00020837783813476562,0.00020837783813476562,0.002971649169921875,0,0
1.8300201892852783,0.0037004989571869373,0.01685500331223011,-0.39818161725997925,0.002926345750283632,0.6952590379869945,0.0019084776286035776,0.014023679308593273,-0.003682645270600915,0.0,0.0,-0.6,0.0,0.0002512931823730469,0.0002512931823730469,0.003197908401489258,0,0
1.840000867843628,0.003771631047129631,0.01715366542339325,-0.40225592255592346,0.0028604720100424788,0.6952949531463154,0.0016948591219261289,0.014549731276929379,-0.003610211657360196,0.0,0.0,-0.6,0.0,0.00023365020751953125,0.00023365020751953125,0.003103017807006836,0,0
1.8501269817352295,0.0038092893082648516,0.017297953367233276,-0.40425336360931396,0.002840460468911955,0.6953304344736219,0.0014495577197521925,0.014882591553032398,-0.003551940666511655,0.0,0.0,-0.6,0.0,0.0002391338348388672,0.0002391338348388672,0.0032205581665039062,0,0
1.8602044582366943,0.0038859641645103693,0.017577040940523148,-0.4081781506538391,0.0027753962789916517,0.6953759331284798,0.0012101784814149141,0.01519997138530016,-0.0034859066363424063,0.0,0.0,-0.6,0.0,0.0002536773681640625,0.0002536773681640625,0.0033745765686035156,0,0
1.8697795867919922,0.0039695571176707745,0.01784113235771656,-0.41200730204582214,0.002674402606903279,0.6954315652524735,0.001015936490148306,0.015488915145397186,-0.00340135395526886,0.0,0.0,-0.6,0.0,0.0001823902130126953,0.0001823902130126953,0.002607107162475586,0,0
1.8801846504211426,0.0039695571176707745,0.01784113235771656,-0.41200730204582214,0.002674402606903279,0.6954760760073178,0.0008800370269455016,0.01569109410047531,-0.00334213487803936,0.0,0.0,-0.6,0.0,0.0002675056457519531,0.0002675056457519531,0.0033113956451416016,0,0
1.8901126384735107,0.004014326259493828,0.017968103289604187,-0.4138839840888977,0.0026412929701291267,0.6955175987996746,0.0008016151841729879,0.01594388671219349,-0.0032874331809580326,0.0,0.0,-0.6,0.0,0.00024008750915527344,0.00024008750915527344,0.0033462047576904297,0,0
1.8999621868133545,0.004061279818415642,0.018091361969709396,-0.4157372713088989,0.0026126674444384482,0.6955560555360006,0.0007961915107443929,0.016142956912517548,-0.0032386069651693106,0.0,0.0,-0.6,0.0,0.00019693374633789062,0.00019693374633789062,0.0027277469635009766,0,0
1.9106342792510986,0.004212456755340099,0.018432505428791046,-0.4211496114730835,0.0024857393047732585,0.695616152739498,0.001031437306664884,0.01653340272605419,-0.0031565942335873842,0.0,0.0,-0.6,0.0,0.00032258033752441406,0.00032258033752441406,0.003779888153076172,0,0
1.9199917316436768,0.004212456755340099,0.018432505428791046,-0.4211496114730835,0.0024857393047732585,0.6956641879587141,0.001196043100208044,0.016806576400995255,-0.0030992410611361265,0.0,0.0,-0.6,0.0,0.00020360946655273438,0.00020360946655273438,0.0030608177185058594,0,0
1.9300901889801025,0.004268118180334568,0.018535742536187172,-0.4229111969470978,0.0024389488145936124,0.6957163832044682,0.0014151190407574177,0.017020896077156067,-0.0030420958064496517,0.0,0.0,-0.6,0.0,0.00022602081298828125,0.00022602081298828125,0.003107786178588867,0,0
1.9401428699493408,0.00440138578414917,0.018728673458099365,-0.4263623356819153,0.0023800394885171725,0.6957757221730253,0.00157640571705997,0.01730257086455822,-0.0029792124405503273,0.0,0.0,-0.6,0.0,0.00029587745666503906,0.00029587745666503906,0.0034449100494384766,0,0
1.9498214721679688,0.004537772387266159,0.01891062781214714,-0.4297216534614563,0.0023239705382425233,0.6958428707979987,0.0017310804687440395,0.017415495589375496,-0.0029152652714401484,0.0,0.0,-0.6,0.0,0.0001900196075439453,0.0001900196075439453,0.002833127975463867,0,0
1.9601619243621826,0.004537772387266159,0.01891062781214714,-0.4297216534614563,0.0023239705382425233,0.6958965463551152,0.0018392979400232434,0.017494497820734978,-0.0028705126605927944,0.0,0.0,-0.6,0.0,0.0002703666687011719,0.0002703666687011719,0.0032203197479248047,0,0
1.9699714183807373,0.004607098642736673,0.018997307866811752,-0.4313657283782959,0.0023068351839483792,0.695958423851397,0.001911659725010395,0.01747630536556244,-0.0028334520757198334,0.0,0.0,-0.6,0.0,0.00018858909606933594,0.00018858909606933594,0.003047943115234375,0,0
1.980062484741211,0.004742284771054983,0.019165152683854103,-0.4345974922180176,0.0022521076913128274,0.6960409066122167,0.0018255034228786826,0.017130419611930847,-0.0027889246121048927,0.0,0.0,-0.6,0.0,0.00023365020751953125,0.00023365020751953125,0.0030362606048583984,0,0
1.9902005195617676,0.004876416642218828,0.01932789385318756,-0.43772923946380615,0.002193279011096244,0.696148619919673,0.0017272206023335457,0.01666155643761158,-0.002737365895882249,0.0,0.0,-0.6,0.0,0.00023031234741210938,0.00023031234741210938,0.0031321048736572266,0,0
2.0000410079956055,0.004876416642218828,0.01932789385318756,-0.43772923946380615,0.002193279011096244,0.6962347722248758,0.001658473163843155,0.01633363403379917,-0.002701299963518977,0.0,0.0,-0.6,0.0,0.0003294944763183594,0.0003294944763183594,0.0046539306640625,0,0
2.0100324153900146,0.00500783696770668,0.019480928778648376,-0.4407604932785034,0.002126836917076278,0.6963381426881423,0.0015943117905408144,0.015742840245366096,-0.002654019510373473,0.0,0.0,-0.6,0.0,0.00027108192443847656,0.00027108192443847656,0.0031723976135253906,0,0
2.0200982093811035,0.00500783696770668,0.019480928778648376,-0.4407604932785034,0.002126836917076278,0.696420860789068,0.001549424952827394,0.015329623594880104,-0.00262094265781343,0.0,0.0,-0.6,0.0,0.00028324127197265625,0.00028324127197265625,0.0035600662231445312,0,0
2.0297865867614746,0.0052027651108801365,0.019690414890646935,-0.44517388939857483,0.001993646593776522,0.6965407240059983,0.001532484428025782,0.01470181718468666,-0.0025510110426694155,0.0,0.0,-0.6,0.0,0.0001957416534423828,0.0001957416534423828,0.002916097640991211,0,0
2.0401647090911865,0.0052027651108801365,0.019690414890646935,-0.44517388939857483,0.001993646593776522,0.6966366408218994,0.0015206200769171119,0.014262769371271133,-0.0025020611938089132,0.0,0.0,-0.6,0.0,0.0002582073211669922,0.0002582073211669922,0.0034050941467285156,0,0
2.0500621795654297,0.00511656841263175,0.020139962434768677,-0.44677111506462097,0.0019681952833162275,0.6967243485045502,0.0012096641585230827,0.013628117740154266,-0.0024592983536422253,0.0,0.0,-0.6,0.0,0.00024437904357910156,0.00024437904357910156,0.003502368927001953,0,0
2.059990882873535,0.005032270681113005,0.020579934120178223,-0.4483415484428406,0.0019540577258062458,0.6968062421316741,0.0006993774441070855,0.012942622415721416,-0.0024247898254543543,0.0,0.0,-0.6,0.0,0.0002181529998779297,0.0002181529998779297,0.003023386001586914,0,0
2.069847345352173,0.00478973425924778,0.021840931847691536,-0.4529045820236206,0.001842306706608718,0.6968936958591152,-0.00033462318242527544,0.011496750637888908,-0.002363829407840967,0.0,0.0,-0.6,0.0,0.0002307891845703125,0.0002307891845703125,0.0030486583709716797,0,0
2.079983711242676,0.00478973425924778,0.021840931847691536,-0.4529045820236206,0.001842306706608718,0.6969636911428274,-0.00105795927811414,0.010485364124178886,-0.0023220404982566833,0.0,0.0,-0.6,0.0,0.0002694129943847656,0.0002694129943847656,0.004173755645751953,0,0
2.0903680324554443,0.004711329471319914,0.02224137634038925,-0.4543763995170593,0.0018063133559368578,0.6970328569136908,-0.0017805015668272972,0.00955643318593502,-0.0022809188812971115,0.0,0.0,-0.6,0.0,0.0003249645233154297,0.0003249645233154297,0.00434422492980957,0,0
2.1002283096313477,0.004635778721421957,0.022632259875535965,-0.45582735538482666,0.0017619581981329448,0.6970929211829697,-0.0024703561794012785,0.008761304430663586,-0.0022366070188581944,0.0,0.0,-0.6,0.0,0.00033855438232421875,0.00033855438232421875,0.003482341766357422,0,0
2.1097917556762695,0.004422744270414114,0.0237503070384264,-0.4600425660610199,0.0017006015066206475,0.6971721504794307,-0.0035913074389100075,0.007454095873981714,-0.002187875099480152,0.0,0.0,-0.6,0.0,0.00019359588623046875,0.00019359588623046875,0.0027937889099121094,0,0
2.1201865673065186,0.004422744270414114,0.0237503070384264,-0.4600425660610199,0.0017006015066206475,0.6972355752849969,-0.004375508986413479,0.006539642345160246,-0.0021546287462115288,0.0,0.0,-0.6,0.0,0.0002732276916503906,0.0002732276916503906,0.003288745880126953,0,0
2.1300089359283447,0.004354352597147226,0.024106750264763832,-0.46140074729919434,0.001683150538533549,0.6972972312757646,-0.005116194020956755,0.005657563917338848,-0.002127203857526183,0.0,0.0,-0.6,0.0,0.00023102760314941406,0.00023102760314941406,0.003259897232055664,0,0
2.1400856971740723,0.004286783281713724,0.02445516362786293,-0.4627370536327362,0.0016507786160005838,0.6973551984529855,-0.005859869532287121,0.0047482578083872795,-0.0020987666212022305,0.0,0.0,-0.6,0.0,0.0002353191375732422,0.0002353191375732422,0.003025531768798828,0,0
2.149876117706299,0.004100842867046595,0.02546272613108158,-0.4666512906551361,0.001553182669371192,0.6974431406062755,-0.00737061258405447,0.003594693262130022,-0.0020463629625737667,0.0,0.0,-0.6,0.0,0.00022935867309570312,0.00022935867309570312,0.003072500228881836,0,0
2.1602046489715576,0.004100842867046595,0.02546272613108158,-0.4666512906551361,0.001553182669371192,0.6975135578784852,-0.008427426218986511,0.0027877860702574253,-0.0020107110030949116,0.0,0.0,-0.6,0.0,0.0002770423889160156,0.0002770423889160156,0.0033981800079345703,0,0
2.170088768005371,0.004041535779833794,0.02578721195459366,-0.4679165184497833,0.0015189972774273125,0.6975837730295169,-0.009338274598121643,0.0018709567375481129,-0.001977164065465331,0.0,0.0,-0.6,0.0,0.00023126602172851562,0.00023126602172851562,0.0032148361206054688,0,0
2.1802127361297607,0.003923211712390184,0.0264155101031065,-0.4703790545463562,0.0014460953642957315,0.6976676939678578,-0.010247012600302696,0.0008863279363140464,-0.0019305626628920436,0.0,0.0,-0.6,0.0,0.00027632713317871094,0.00027632713317871094,0.0034792423248291016,0,0
2.189918041229248,0.00380773120559752,0.0270135086029768,-0.47275272011756897,0.0013874869456609045,0.6977656297434729,-0.010972532443702221,-0.0002480584371369332,-0.00188171723857522,0.0,0.0,-0.6,0.0,0.0002601146697998047,0.0002601146697998047,0.0031414031982421875,0,0
2.2001798152923584,0.00380773120559752,0.0270135086029768,-0.47275272011756897,0.0013874869456609045,0.6978440088764218,-0.011480025015771389,-0.0010415043216198683,-0.0018480065045878291,0.0,0.0,-0.6,0.0,0.0002453327178955078,0.0002453327178955078,0.003171682357788086,0,0
2.2101199626922607,0.0037501489277929068,0.027302047237753868,-0.47390684485435486,0.0013444639424545174,0.697924847651707,-0.011898370459675789,-0.0017673649126663804,-0.001810643938370049,0.0,0.0,-0.6,0.0,0.00022983551025390625,0.00022983551025390625,0.003229856491088867,0,0
2.220001220703125,0.003636050270870328,0.027859307825565338,-0.47614938020706177,0.0013066168268032175,0.6980236133724365,-0.012501650489866734,-0.0027213655412197113,-0.0017762185307219625,0.0,0.0,-0.6,0.0,0.0002276897430419922,0.0002276897430419922,0.002973794937133789,0,0
2.229834794998169,0.0035249264910817146,0.028395507484674454,-0.47830748558044434,0.0012639012025916316,0.6981356009476084,-0.01326905656605959,-0.003750195261090994,-0.0017413703026250005,0.0,0.0,-0.6,0.0,0.0002315044403076172,0.0002315044403076172,0.003062725067138672,0,0
2.2399652004241943,0.0035249264910817146,0.028395507484674454,-0.47830748558044434,0.0012639012025916316,0.6982252188449072,-0.013805781491100788,-0.004469733685255051,-0.0017174368258565664,0.0,0.0,-0.6,0.0,0.0002224445343017578,0.0002224445343017578,0.0031104087829589844,0,0
2.2501583099365234,0.003468896960839629,0.028656642884016037,-0.4793547987937927,0.0012581181047151713,0.6983157661602332,-0.014314936473965645,-0.005155558697879314,-0.0017014271579682827,0.0,0.0,-0.6,0.0,0.000225067138671875,0.000225067138671875,0.003113269805908203,0,0
2.2601943016052246,0.003357755020260811,0.02916697785258293,-0.4813891053199768,0.0012282744381100026,0.6984197282757986,-0.014877473935484886,-0.005852172616869211,-0.0016827055951580405,0.0,0.0,-0.6,0.0,0.00027561187744140625,0.00027561187744140625,0.003278493881225586,0,0
2.269777536392212,0.003249252215027809,0.02965383790433407,-0.48334231972694397,0.0011584532314252826,0.6985417177580643,-0.015103735961019993,-0.006646044086664915,-0.0016478984616696835,0.0,0.0,-0.6,0.0,0.00018262863159179688,0.00018262863159179688,0.0028722286224365234,0,0
2.280031204223633,0.003249252215027809,0.02965383790433407,-0.48334231972694397,0.0011584532314252826,0.6986393115793887,-0.015261977910995483,-0.0072012185119092464,-0.001623632269911468,0.0,0.0,-0.6,0.0,0.0002589225769042969,0.0002589225769042969,0.003325939178466797,0,0
2.2900023460388184,0.0031924289651215076,0.029887553304433823,-0.4842890202999115,0.0011355860664845788,0.6987359936174155,-0.015249316580593586,-0.007757464423775673,-0.0016004412900656462,0.0,0.0,-0.6,0.0,0.00020933151245117188,0.00020933151245117188,0.003151416778564453,0,0
2.3000922203063965,0.00307480595074594,0.030335552990436554,-0.48612406849861145,0.0010810390904173275,0.6988511673021452,-0.01504951249808073,-0.00830912496894598,-0.001565956394188106,0.0,0.0,-0.6,0.0,0.00027179718017578125,0.00027179718017578125,0.003171205520629883,0,0
2.3097825050354004,0.0029565528966486454,0.030759183689951897,-0.4878828525543213,0.0010532250910865414,0.6989759461335491,-0.014715906232595444,-0.008791575208306313,-0.0015326505526900291,0.0,0.0,-0.6,0.0,0.0002474784851074219,0.0002474784851074219,0.003044605255126953,0,0
2.3200013637542725,0.0029565528966486454,0.030759183689951897,-0.4878828525543213,0.0010532250910865414,0.6990757942773639,-0.014482620172202587,-0.009128962643444538,-0.0015092368703335524,0.0,0.0,-0.6,0.0,0.000209808349609375,0.000209808349609375,0.0031027793884277344,0,0
2.330007791519165,0.0028985640965402126,0.030961360782384872,-0.4887349307537079,0.0010337143706814346,0.6991787972662938,-0.014167139306664467,-0.009386634454131126,-0.00148559280205518,0.0,0.0,-0.6,0.0,0.0002269744873046875,0.0002269744873046875,0.003066539764404297,0,0
2.3402318954467773,0.0027858358807861805,0.03134788200259209,-0.4904087483882904,0.0010291625895211692,0.6993046196538588,-0.013691850006580353,-0.009440856985747814,-0.001465250039473176,0.0,0.0,-0.6,0.0,0.0002601146697998047,0.0002601146697998047,0.003518819808959961,0,0
2.3498482704162598,0.002674040151759982,0.0317063070833683,-0.4920049011707306,0.0009832866000222176,0.6994445728128998,-0.012940328568220139,-0.009616776369512081,-0.0014350246638059616,0.0,0.0,-0.6,0.0,0.00018668174743652344,0.00018668174743652344,0.00267791748046875,0,0
2.360267162322998,0.002674040151759982,0.0317063070833683,-0.4920049011707306,0.0009832866000222176,0.6995565177021572,-0.012414845637977123,-0.009739791974425316,-0.0014137887628749013,0.0,0.0,-0.6,0.0,0.00030684471130371094,0.00030684471130371094,0.003671884536743164,0,0
2.370069980621338,0.002617132617160678,0.03187483549118042,-0.49277639389038086,0.0009682392089663226,0.6996652033820154,-0.011893798597157001,-0.009776107035577297,-0.001392314676195383,0.0,0.0,-0.6,0.0,0.00022792816162109375,0.00022792816162109375,0.003276348114013672,0,0
2.3801138401031494,0.0025032032281160355,0.032194819301366806,-0.49426543712615967,0.0009302998824240341,0.6997936452610761,-0.011191880330443382,-0.009810416959226131,-0.0013626522850245237,0.0,0.0,-0.6,0.0,0.00029468536376953125,0.00029468536376953125,0.003646373748779297,0,0
2.390359878540039,0.0023912203032523394,0.032491929829120636,-0.49570992588996887,0.0009126024796466835,0.6999240979618004,-0.010213502682745457,-0.00976328644901514,-0.0013332462403923273,0.0,0.0,-0.6,0.0,0.0002455711364746094,0.0002455711364746094,0.003048419952392578,0,0
2.399977922439575,0.0023912203032523394,0.032491929829120636,-0.49570992588996887,0.0009126024796466835,0.7000284760556964,-0.009529340080916882,-0.009730339981615543,-0.0013126928824931383,0.0,0.0,-0.6,0.0,0.00022029876708984375,0.00022029876708984375,0.003203153610229492,0,0
2.4103705883026123,0.0023359209299087524,0.032630641013383865,-0.49640780687332153,0.0008731314064333768,0.7001295598214079,-0.008802253752946854,-0.009726976975798607,-0.0012832647189497948,0.0,0.0,-0.6,0.0,0.00033473968505859375,0.00033473968505859375,0.004082202911376953,0,0
2.420196056365967,0.002280586399137974,0.03276293724775314,-0.49708935618400574,0.0008646915136851924,0.7002284048945027,-0.008019767701625824,-0.009630158543586731,-0.0012576610315591097,0.0,0.0,-0.6,0.0,0.00034332275390625,0.00034332275390625,0.003470897674560547,0,0
2.4298293590545654,0.002116573741659522,0.033121105283498764,-0.49904361367225647,0.0007793747375184455,0.7003534765964348,-0.006737391464412212,-0.009493750520050526,-0.0012052954407408834,0.0,0.0,-0.6,0.0,0.00018644332885742188,0.00018644332885742188,0.0027811527252197266,0,0
2.4401724338531494,0.002116573741659522,0.033121105283498764,-0.49904361367225647,0.0007793747375184455,0.7004535433115403,-0.005840606987476349,-0.00939838495105505,-0.0011687488295137882,0.0,0.0,-0.6,0.0,0.0002689361572265625,0.0002689361572265625,0.003161907196044922,0,0
2.4499669075012207,0.0018572390545159578,0.03316788375377655,-0.5000073313713074,0.0007534776983881364,0.7005380612438111,-0.004933332558721304,-0.009378017857670784,-0.0011335094459354877,0.0,0.0,-0.6,0.0,0.0002110004425048828,0.0002110004425048828,0.0031440258026123047,0,0
2.460137367248535,0.001351080252788961,0.03324798122048378,-0.501875638961792,0.0007059672204827759,0.7006171838025962,-0.0037261119578033686,-0.00957148615270853,-0.0010922831716015935,0.0,0.0,-0.6,0.0,0.00025010108947753906,0.00025010108947753906,0.003247499465942383,0,0
2.4699251651763916,0.0008590337820351124,0.03330894932150841,-0.5036559104919434,0.0006679173764723818,0.7006888050297694,-0.0024191057309508324,-0.009882966056466103,-0.0010500611970201135,0.0,0.0,-0.6,0.0,0.00025916099548339844,0.00025916099548339844,0.0031807422637939453,0,0
2.4800331592559814,0.0008590337820351124,0.03330894932150841,-0.5036559104919434,0.0006679173764723818,0.7007461364252718,-0.0015047213528305292,-0.010100899264216423,-0.0010202648118138313,0.0,0.0,-0.6,0.0,0.00022292137145996094,0.00022292137145996094,0.002975940704345703,0,0
2.490227699279785,0.0006199136259965599,0.033333390951156616,-0.5045152902603149,0.0006393945019914853,0.7007929273538822,-0.0006492249085567892,-0.010254056192934513,-0.0009880600264295936,0.0,0.0,-0.6,0.0,0.0002224445343017578,0.0002224445343017578,0.0030841827392578125,0,0
2.5001189708709717,0.00015062902821227908,0.033364374190568924,-0.5061804056167603,0.0005342643947462777,0.7008306234778987,0.0006393492803908885,-0.010490701533854008,-0.0009254633914679289,0.0,0.0,-0.6,0.0,0.0002598762512207031,0.0002598762512207031,0.0035295486450195312,0,0
2.5098378658294678,-0.0003025224432349205,0.03336826711893082,-0.5077811479568481,0.0004680034346095079,0.7008805310406789,0.00225802487693727,-0.010571455582976341,-0.0008535984088666737,0.0,0.0,-0.6,0.0,0.00020933151245117188,0.00020933151245117188,0.002846240997314453,0,0
2.520143747329712,-0.0003025224432349205,0.03336826711893082,-0.5077811479568481,0.0004680034346095079,0.7009205250834817,0.0033906518947333097,-0.010628005489706993,-0.0008032180485315621,0.0,0.0,-0.6,0.0,0.0002682209014892578,0.0002682209014892578,0.003221273422241211,0,0
2.5300536155700684,-0.000521587673574686,0.033362939953804016,-0.5085521936416626,0.00044538165387467073,0.7009540405041976,0.004446370992809534,-0.010534347034990788,-0.0007573303300887346,0.0,0.0,-0.6,0.0,0.00022172927856445312,0.00022172927856445312,0.003095865249633789,0,0
2.5401151180267334,-0.000945702544413507,0.03333825245499611,-0.5100394487380981,0.0003922699604039466,0.7009952012964872,0.005742830224335194,-0.010329646058380604,-0.0007021859637461603,0.0,0.0,-0.6,0.0,0.0002543926239013672,0.0002543926239013672,0.0030939579010009766,0,0
2.550168037414551,-0.0013511942233890295,0.033291202038526535,-0.5114559531211853,0.0003306055784572818,0.7010373352722081,0.007169890217483044,-0.010130653157830238,-0.0006383234867826104,0.0,0.0,-0.6,0.0,0.00022101402282714844,0.00022101402282714844,0.003072500228881836,0,0
2.559985637664795,-0.0013511942233890295,0.033291202038526535,-0.5114559531211853,0.0003306055784572818,0.7010710798674484,0.008168507367372513,-0.009991439059376717,-0.000593791191931814,0.0,0.0,-0.6,0.0,0.00025010108947753906,0.00025010108947753906,0.003161907196044922,0,0
2.5701193809509277,-0.0015480071306228638,0.03326129540801048,-0.5121378302574158,0.00029687174396448473,0.7011086068692559,0.009002159349620342,-0.009883626364171505,-0.0005495301447808743,0.0,0.0,-0.6,0.0,0.000240325927734375,0.000240325927734375,0.0031080245971679688,0,0
2.580190896987915,-0.0019301304128021002,0.03318919613957405,-0.5134933590888977,0.0002664890385702467,0.701146990258342,0.010043589398264885,-0.009657603688538074,-0.0005044452263973653,0.0,0.0,-0.6,0.0,0.00026154518127441406,0.00026154518127441406,0.003210783004760742,0,0
2.5897579193115234,-0.0022943688090890646,0.033100198954343796,-0.5147838592529297,0.00023454176415821165,0.7011925486423348,0.01109436247497797,-0.009375807829201221,-0.0004589286691043526,0.0,0.0,-0.6,0.0,0.0002040863037109375,0.0002040863037109375,0.0027866363525390625,0,0
2.6001412868499756,-0.0022943688090890646,0.033100198954343796,-0.5147838592529297,0.00023454176415821165,0.7012289778833514,0.011829644441604614,-0.009178639389574528,-0.00042724498780444264,0.0,0.0,-0.6,0.0,0.00025391578674316406,0.00025391578674316406,0.0031507015228271484,0,0
2.6099634170532227,-0.0024705720134079456,0.033049892634153366,-0.5154033303260803,0.00019908890113793263,0.7012689935346307,0.012471099384129047,-0.008946559391915798,-0.0003907461650669575,0.0,0.0,-0.6,0.0,0.00023937225341796875,0.00023937225341796875,0.003232240676879883,0,0
2.6200380325317383,-0.0026423826348036528,0.032996587455272675,-0.5160053372383118,0.00016816266085056383,0.7013121270765843,0.013036873191595078,-0.008716112934052944,-0.00035277800634503365,0.0,0.0,-0.6,0.0,0.00024962425231933594,0.00024962425231933594,0.0031180381774902344,0,0
2.630185127258301,-0.0028106735553592443,0.032939355820417404,-0.5165916681289673,0.0001622237199606952,0.7013499547638348,0.013598484918475151,-0.008484438993036747,-0.00032295467099174857,0.0,0.0,-0.6,0.0,0.000263214111328125,0.000263214111328125,0.003605365753173828,0,0
2.6399693489074707,-0.003137844381853938,0.03281041607260704,-0.5177196264266968,0.00011475082184922459,0.701396437476484,0.014281151816248894,-0.008219581097364426,-0.00028250980540178716,0.0,0.0,-0.6,0.0,0.0002167224884033203,0.0002167224884033203,0.003154277801513672,0,0
2.6502201557159424,-0.0032945231068879366,0.032741766422986984,-0.5182605981826782,0.00010540461061000075,0.701442215633791,0.014818659983575344,-0.007859102450311184,-0.00024930411018431187,0.0,0.0,-0.6,0.0,0.00027632713317871094,0.00027632713317871094,0.003537893295288086,0,0
2.660147190093994,-0.003446705872192979,0.03266988694667816,-0.5187854766845703,8.639634121201607e-05,0.7014911103686678,0.015224676579236984,-0.007456563413143158,-0.0002178774302592501,0.0,0.0,-0.6,0.0,0.00033545494079589844,0.00033545494079589844,0.004033327102661133,0,0
2.669862985610962,-0.0038766851648688316,0.03243480995297432,-0.5202668309211731,6.274819879712331e-05,0.7015640570160316,0.015716316178441048,-0.006755779962986708,-0.00018370035104453564,0.0,0.0,-0.6,0.0,0.00024080276489257812,0.00024080276489257812,0.003242969512939453,0,0
2.6801300048828125,-0.0038766851648688316,0.03243480995297432,-0.5202668309211731,6.274819879712331e-05,0.7016224173512116,0.016060275956988335,-0.0062655177898705006,-0.00015998337767086923,0.0,0.0,-0.6,0.0,0.0005252361297607422,0.0005252361297607422,0.003554821014404297,0,0
2.690054416656494,-0.004010299686342478,0.03234836831688881,-0.5207300782203674,5.880969688020041e-05,0.7016849833319818,0.016440626233816147,-0.005720615386962891,-0.00014049567107576877,0.0,0.0,-0.6,0.0,0.0003337860107421875,0.0003337860107421875,0.0045013427734375,0,0
