time,x,y,z,yaw,throttle,roll_rate,pitch_rate,yaw_rate,x_ref,y_ref,z_ref,yaw_ref,pred_time,nr_time,ctrl_callback_time,v_norm,metadata
7.152557373046875e-07,0.008750678971409798,0.0029631839133799076,0.0025707767345011234,0.018261037961533725,0.7167155257493272,0.037162818014621735,0.08008814603090286,-0.000567978248000145,0.0,0.0,-0.6,0.0,0.22001981735229492,0.22001981735229492,0.2856292724609375,0,Sim
0.2859971523284912,0.008750678971409798,0.0029631839133799076,0.0025707767345011234,0.018261037961533725,0.7325715434723914,0.02423282153904438,0.05983128771185875,-0.00043203707900829613,0.0,0.0,-0.6,0.0,0.0007064342498779297,0.0007064342498779297,0.0033566951751708984,0,flat wardi with jax
0.28992486000061035,0.008486799895763397,0.0025882606860250235,0.006329845637083054,0.018042299577746116,0.743603468757686,0.013251988217234612,0.037816740572452545,-0.0002640705497469753,0.0,0.0,-0.6,0.0,0.00017833709716796875,0.00017833709716796875,0.0027878284454345703,0,1x Speed
0.29994654655456543,0.008472554385662079,0.0025776622351258993,0.006561797112226486,0.01804776530997467,0.7512450440384367,0.007579705212265253,0.03024470806121826,-0.0002065038279397413,0.0,0.0,-0.6,0.0,0.0002396106719970703,0.0002396106719970703,0.004030704498291016,0,circle_horz_ref_func
0.3101489543914795,0.00846826285123825,0.0025663990527391434,0.00667972955852747,0.01803890713175708,0.7565599439035192,0.005822923965752125,0.024410439655184746,-0.00016764350584708154,0.0,0.0,-0.6,0.0,0.0005617141723632812,0.0005617141723632812,0.0062847137451171875,0,0
0.3200075626373291,0.008464809507131577,0.002553575439378619,0.006799918599426746,0.018044869868702584,0.7602677272221712,0.004362031817436218,0.018677907064557076,-0.00012912922829855233,0.0,0.0,-0.6,0.0,0.00026702880859375,0.00026702880859375,0.0033066272735595703,0,0
0.329984188079834,0.008462280966341496,0.0025388607755303383,0.006922347005456686,0.018056270206390314,0.762859309215587,0.0036582129541784525,0.015074998140335083,-0.00010534661123529077,0.0,0.0,-0.6,0.0,0.00024580955505371094,0.00024580955505371094,0.0032258033752441406,0,0
0.33990478515625,0.008455495350062847,0.0025060814805328846,0.007173120975494385,0.018088050547550055,0.764681733356268,0.0038306734059005976,0.011480314657092094,-8.298031752929091e-05,0.0,0.0,-0.6,0.0,0.00018358230590820312,0.00018358230590820312,0.002824544906616211,0,0
0.34996604919433594,0.008453314192593098,0.0024864068254828453,0.0073005263693630695,0.018101875957973114,0.7659522937206182,0.0030162751208990812,0.008823473937809467,-6.420347199309617e-05,0.0,0.0,-0.6,0.0,0.0002410411834716797,0.0002410411834716797,0.0031778812408447266,0,0
0.36008477210998535,0.008451754227280617,0.002464872784912586,0.007421580608934164,0.018100755484461797,0.7667868826880111,0.0029037264175713062,0.006969705689698458,-5.204871922614984e-05,0.0,0.0,-0.6,0.0,0.00023102760314941406,0.00023102760314941406,0.0033426284790039062,0,0
0.3698136806488037,0.00845271721482277,0.002441561548039317,0.00751179875805974,0.018090037513777617,0.7672078398515548,0.0027376969810575247,0.006867468822747469,-5.111752398079261e-05,0.0,0.0,-0.6,0.0,0.0001919269561767578,0.0001919269561767578,0.003167390823364258,0,0
0.3799471855163574,0.008457371033728123,0.0023901103995740414,0.007502359803766012,0.018100740850006663,0.7669942329681322,0.0029438536148518324,0.004726811312139034,-3.777821984840557e-05,0.0,0.0,-0.6,0.0,0.00022649765014648438,0.00022649765014648438,0.0031385421752929688,0,0
0.3897871971130371,0.008461149409413338,0.002361712511628866,0.007381170056760311,0.018134820047457572,0.7665441419800839,0.002813521772623062,0.004428260028362274,-3.5589200706453994e-05,0.0,0.0,-0.6,0.0,0.0001952648162841797,0.0001952648162841797,0.003037691116333008,0,0
0.3999595642089844,0.008466528728604317,0.002331883879378438,0.007173906080424786,0.01814459203299188,0.7659117304898925,0.0024989659432321787,0.003778815269470215,-3.06297697534319e-05,0.0,0.0,-0.6,0.0,0.00024890899658203125,0.00024890899658203125,0.0031681060791015625,0,0
0.4100203514099121,0.00847582332789898,0.002300590043887496,0.0068774111568927765,0.018152290321348668,0.765138789443636,0.002754617016762495,0.0034688119776546955,-2.9247379643493332e-05,0.0,0.0,-0.6,0.0,0.00024509429931640625,0.00024509429931640625,0.003360748291015625,0,0
0.41992664337158203,0.00850171409547329,0.0022364479955285788,0.006008523516356945,0.01814763792477138,0.7639147816769892,0.001857647905126214,0.00553470803424716,-4.0190840081777424e-05,0.0,0.0,-0.6,0.0,0.0001862049102783203,0.0001862049102783203,0.002959728240966797,0,0
0.4300503730773926,0.008518467657268047,0.0022019362077116966,0.005448421463370323,0.0181459419217895,0.7627139589690201,0.002527957083657384,0.004599633626639843,-3.575320079107769e-05,0.0,0.0,-0.6,0.0,0.0003600120544433594,0.0003600120544433594,0.0056629180908203125,0,0
0.4403073787689209,0.008534499444067478,0.0021653915755450726,0.004797200206667185,0.018145437484140197,0.7615307597526626,0.002987929154187441,0.002472967142239213,-2.3037877326714806e-05,0.0,0.0,-0.6,0.0,0.0004661083221435547,0.0004661083221435547,0.005928993225097656,0,0
0.4498934745788574,0.008549856022000313,0.002126879058778286,0.004055204801261425,0.018146111603713683,0.7603535247210881,0.0030062238220125437,0.0019292335491627455,-1.9441713448031805e-05,0.0,0.0,-0.6,0.0,0.0003368854522705078,0.0003368854522705078,0.00542140007019043,0,0
0.4598839282989502,0.008584653958678246,0.002044053515419364,0.002300434513017535,0.01816667312366874,0.7588357308007161,0.0049958862364292145,0.0031072560232132673,-3.124574141111225e-05,0.0,0.0,-0.6,0.0,0.0003590583801269531,0.0003590583801269531,0.003741025924682617,0,0
0.46999335289001465,0.008604575879871845,0.0019992056768387556,0.0012894578976556659,0.018153542979943177,0.7574209511669283,0.004989377688616514,0.002821833360940218,-2.9236567570478655e-05,0.0,0.0,-0.6,0.0,0.00026297569274902344,0.00026297569274902344,0.003563404083251953,0,0
0.48002099990844727,0.008630146272480488,0.001950846635736525,0.00018910394283011556,0.01814902281231478,0.7560733029361446,0.004919158294796944,0.002290319185703993,-2.5426752472412772e-05,0.0,0.0,-0.6,0.0,0.00023508071899414062,0.00023508071899414062,0.003288745880126953,0,0
0.4899890422821045,0.008656380698084831,0.0019008279778063297,-0.0009987307712435722,0.018141155901070724,0.7547847682311613,0.004137482028454542,0.002354394644498825,-2.4127679353114218e-05,0.0,0.0,-0.6,0.0,0.0002465248107910156,0.0002465248107910156,0.0035064220428466797,0,0
0.5000641345977783,0.008683052845299244,0.0018501949962228537,-0.002271322999149561,0.018133338929789036,0.7535351852735773,0.0033442263957113028,0.0016338579589501023,-1.7576767277205363e-05,0.0,0.0,-0.6,0.0,0.0003566741943359375,0.0003566741943359375,0.004781246185302734,0,0
0.5099985599517822,0.008710342459380627,0.0017978150863200426,-0.0036275822203606367,0.018148883697284075,0.7523201423174275,0.004076281096786261,0.0020010098814964294,-2.1355253920773976e-05,0.0,0.0,-0.6,0.0,0.0002474784851074219,0.0002474784851074219,0.0031380653381347656,0,0
0.5200884342193604,0.008766301907598972,0.0016869648825377226,-0.006579762790352106,0.018136334418169593,0.7508019746098383,0.006291007623076439,0.0017599426209926605,-2.3407357730320655e-05,0.0,0.0,-0.6,0.0,0.0002658367156982422,0.0002658367156982422,0.003398895263671875,0,0
0.5300052165985107,0.008796034380793571,0.001627909834496677,-0.008173144422471523,0.018107050789142366,0.7494084338526431,0.006433090660721064,0.0028544932138174772,-3.0795908969594166e-05,0.0,0.0,-0.6,0.0,0.00035500526428222656,0.00035500526428222656,0.006521940231323242,0,0
0.5400385856628418,0.008709591813385487,0.0014864717377349734,-0.01176669541746378,0.01811266748724866,0.7477806320033502,0.006302424240857363,0.001858714153058827,-2.2773860109737143e-05,0.0,0.0,-0.6,0.0,0.0002338886260986328,0.0002338886260986328,0.003198385238647461,0,0
0.5500609874725342,0.008594737388193607,0.0014050174504518509,-0.013759602792561054,0.018116196980459888,0.7463198272520856,0.006583367474377155,0.0008912036428228021,-1.6077025065897033e-05,0.0,0.0,-0.6,0.0,0.0004837512969970703,0.0004837512969970703,0.007272958755493164,0,0
0.5599818229675293,0.008483932353556156,0.0013217321829870343,-0.015815643593668938,0.01809517146802715,0.7449795115859319,0.006519839633256197,0.00019290515047032386,-1.0706890861911234e-05,0.0,0.0,-0.6,0.0,0.0004363059997558594,0.0004363059997558594,0.004873752593994141,0,0
0.5701460838317871,0.008377408608794212,0.0012370600597932935,-0.017936348915100098,0.018087922736803756,0.7437128139953784,0.006528040394186974,-0.00018148556409869343,-7.665368684683926e-06,0.0,0.0,-0.6,0.0,0.00030493736267089844,0.00030493736267089844,0.004921674728393555,0,0
0.5799696445465088,0.008177079260349274,0.0010650288313627243,-0.022365540266036987,0.018098837737883938,0.7422021357726422,0.005800884682685137,0.00029189238557592034,-9.002618753584102e-06,0.0,0.0,-0.6,0.0,0.00026917457580566406,0.00026917457580566406,0.003442049026489258,0,0
0.5901532173156738,0.008084443397819996,0.000979314441792667,-0.024668442085385323,0.01809777975225597,0.7408375288960407,0.005275270435959101,3.3743570384103805e-05,-6.164849764900282e-06,0.0,0.0,-0.6,0.0,0.000247955322265625,0.000247955322265625,0.004113435745239258,0,0
0.6001882553100586,0.007994335144758224,0.0008925354923121631,-0.02702813409268856,0.01809133418744678,0.7395809222463312,0.005391477607190609,-0.0014685008209198713,4.5727938413619995e-06,0.0,0.0,-0.6,0.0,0.0003693103790283203,0.0003693103790283203,0.004422187805175781,0,0
0.6098253726959229,0.00790670420974493,0.0008044141577556729,-0.029441677033901215,0.018096495025291755,0.7384116307041547,0.005522462073713541,-0.0014188042841851711,4.510052804107545e-06,0.0,0.0,-0.6,0.0,0.00024318695068359375,0.00024318695068359375,0.003082752227783203,0,0
0.6197733879089355,0.007744615897536278,0.0006272249156609178,-0.03444407507777214,0.018109755619607305,0.7370315107569129,0.007353418972343206,0.0008131312788464129,-1.1934105714317411e-05,0.0,0.0,-0.6,0.0,0.00021767616271972656,0.00021767616271972656,0.0029845237731933594,0,0
0.6300842761993408,0.007671329192817211,0.0005375113687478006,-0.037015289068222046,0.018127527463078334,0.7357931113618967,0.005402563139796257,0.0012114946730434895,-1.2726048225886188e-05,0.0,0.0,-0.6,0.0,0.0004100799560546875,0.0004100799560546875,0.0057680606842041016,0,0
0.6401388645172119,0.00760302972048521,0.0004481878422666341,-0.03963129594922066,0.018117578435231117,0.7346578640377146,0.004177096299827099,0.0017319897888228297,-1.5010222341516055e-05,0.0,0.0,-0.6,0.0,0.0004353523254394531,0.0004353523254394531,0.0038673877716064453,0,0
0.6501531600952148,0.007538770791143179,0.0003591026761569083,-0.042290445417165756,0.018122560848206723,0.7335971748992436,0.004047605209052563,0.0014599792193621397,-1.2707696441793814e-05,0.0,0.0,-0.6,0.0,0.000225067138671875,0.000225067138671875,0.0032351016998291016,0,0
0.6597943305969238,0.007424833253026009,0.0001753261312842369,-0.04773302003741264,0.018140840435405255,0.7323386480273519,0.007591622415930033,0.004429403692483902,-3.4024760680040345e-05,0.0,0.0,-0.6,0.0,0.0002334117889404297,0.0002334117889404297,0.0030510425567626953,0,0
0.6699285507202148,0.007376996800303459,8.284609793918207e-05,-0.050518982112407684,0.0181287099041445,0.7312032693631564,0.005010385997593403,0.004866171162575483,-3.5031145671382546e-05,0.0,0.0,-0.6,0.0,0.0002155303955078125,0.0002155303955078125,0.003007650375366211,0,0
0.680232048034668,0.0073340293020009995,-9.941988537320867e-06,-0.053341809660196304,0.01813662884192802,0.7301638768941949,0.005699735600501299,0.004687891341745853,-3.3753902243915945e-05,0.0,0.0,-0.6,0.0,0.00024247169494628906,0.00024247169494628906,0.0035359859466552734,0,0
0.6898937225341797,0.007294240407645702,-0.0001042257936205715,-0.056198667734861374,0.01814133794385501,0.7291975413012269,0.005574681330472231,0.0037994137965142727,-2.7386806323193014e-05,0.0,0.0,-0.6,0.0,0.0002143383026123047,0.0002143383026123047,0.002905130386352539,0,0
0.69997239112854,0.00722510227933526,-0.0002911396150011569,-0.06200934946537018,0.018125111065668085,0.7280540818690527,0.004185020923614502,0.004164389334619045,-2.8624042897718027e-05,0.0,0.0,-0.6,0.0,0.00021529197692871094,0.00021529197692871094,0.002973318099975586,0,0
0.7099065780639648,0.007195459213107824,-0.0003839499258901924,-0.06496162712574005,0.018126418749030922,0.7270206315443406,0.0031925488729029894,0.0038894733879715204,-2.639066042320337e-05,0.0,0.0,-0.6,0.0,0.00023102760314941406,0.00023102760314941406,0.0032300949096679688,0,0
0.7199633121490479,0.007169661112129688,-0.0004773583495989442,-0.06794415414333344,0.018131951633983248,0.7260678694877316,0.004528252873569727,0.0042073423974215984,-2.8439981178962626e-05,0.0,0.0,-0.6,0.0,0.00021338462829589844,0.00021338462829589844,0.0029447078704833984,0,0
0.7302529811859131,0.007148283533751965,-0.0005718903266824782,-0.07095570117235184,0.0181438912544948,0.7251751329263383,0.004373726900666952,0.0045823282562196255,-3.069953163503669e-05,0.0,0.0,-0.6,0.0,0.00028324127197265625,0.00028324127197265625,0.0033464431762695312,0,0
0.7397842407226562,0.007130933925509453,-0.0006668404093943536,-0.07401825487613678,0.018169568361116727,0.7243278701463393,0.004464745055884123,0.004535512067377567,-3.0276802135631442e-05,0.0,0.0,-0.6,0.0,0.0001876354217529297,0.0001876354217529297,0.0029180049896240234,0,0
0.7500383853912354,0.007116975262761116,-0.0007630845648236573,-0.07710542529821396,0.018174848017664818,0.7235248174766806,0.005544173065572977,0.004140008706599474,-2.7534404580364935e-05,0.0,0.0,-0.6,0.0,0.00022649765014648438,0.00022649765014648438,0.0031485557556152344,0,0
0.7601315975189209,0.007100676652044058,-0.0009587820386514068,-0.0833454355597496,0.018170643556055754,0.7225471491045362,0.006311917677521706,0.004885390866547823,-3.177717007929459e-05,0.0,0.0,-0.6,0.0,0.0002567768096923828,0.0002567768096923828,0.0035524368286132812,0,0
0.7699127197265625,0.007097404915839434,-0.0010573670733720064,-0.08649752289056778,0.018172860665459662,0.7216642790702296,0.006596538238227367,0.00525384908542037,-3.3862343116197735e-05,0.0,0.0,-0.6,0.0,0.000278472900390625,0.000278472900390625,0.003841876983642578,0,0
0.7799036502838135,0.007099280599504709,-0.0011576099786907434,-0.08966715633869171,0.0181802809483226,0.720856374465107,0.006769821513444185,0.006106917280703783,-3.948593439417891e-05,0.0,0.0,-0.6,0.0,0.00025343894958496094,0.00025343894958496094,0.0031585693359375,0,0
0.7899847030639648,0.007105262018740177,-0.0012584850192070007,-0.09285362809896469,0.018185450779044113,0.7200987745387747,0.00561808655038476,0.006075946614146233,-3.9498965634265915e-05,0.0,0.0,-0.6,0.0,0.00022339820861816406,0.00022339820861816406,0.0031757354736328125,0,0
0.8000249862670898,0.007127016317099333,-0.0014609176432713866,-0.09931334853172302,0.018213555592310842,0.7191993423459274,0.007407159078866243,0.006383584346622229,-4.05514583690092e-05,0.0,0.0,-0.6,0.0,0.00026726722717285156,0.00026726722717285156,0.0037255287170410156,0,0
0.8101065158843994,0.007143046706914902,-0.001564447651617229,-0.10256359726190567,0.018221592538830548,0.7183869805904785,0.008031263016164303,0.007003409788012505,-4.4507160055218264e-05,0.0,0.0,-0.6,0.0,0.0003039836883544922,0.0003039836883544922,0.0046918392181396484,0,0
0.8198511600494385,0.007190222851932049,-0.0017760867485776544,-0.10910405963659286,0.018228916381956648,0.7174591732924648,0.00753355585038662,0.008949716575443745,-5.694926585420035e-05,0.0,0.0,-0.6,0.0,0.00028896331787109375,0.00028896331787109375,0.003611326217651367,0,0
0.8300819396972656,0.0072210500948131084,-0.0018815685762092471,-0.11239111423492432,0.018225475758966027,0.7166403737264034,0.007075579836964607,0.009221603162586689,-5.8905417972709984e-05,0.0,0.0,-0.6,0.0,0.00021409988403320312,0.00021409988403320312,0.003262758255004883,0,0
0.8401997089385986,0.0072561041451990604,-0.0019876223523169756,-0.11568709462881088,0.01821225626719996,0.7159036018427668,0.0061859567649662495,0.008627790957689285,-5.551914728130214e-05,0.0,0.0,-0.6,0.0,0.0003933906555175781,0.0003933906555175781,0.006055116653442383,0,0
0.8499894142150879,0.007294164504855871,-0.002093788469210267,-0.11899172514677048,0.01820534477944122,0.7152178389853844,0.00550860958173871,0.008263273164629936,-5.330240310286172e-05,0.0,0.0,-0.6,0.0,0.0003235340118408203,0.0003235340118408203,0.004105567932128906,0,0
0.8599405288696289,0.007381817791610956,-0.0023075840435922146,-0.1256301999092102,0.01820622073680224,0.71440891141981,0.0057252077385783195,0.010802066884934902,-6.992427370278165e-05,0.0,0.0,-0.6,0.0,0.0002224445343017578,0.0002224445343017578,0.0030820369720458984,0,0
0.8698933124542236,0.007432251237332821,-0.002413211390376091,-0.12895908951759338,0.0181989943258858,0.7136875168023656,0.004460823256522417,0.010309475474059582,-6.714142364216968e-05,0.0,0.0,-0.6,0.0,0.00023317337036132812,0.00023317337036132812,0.0032110214233398438,0,0
0.8800907135009766,0.007486873306334019,-0.002518187975510955,-0.13229358196258545,0.018189545423242335,0.7130305191073704,0.0031393738463521004,0.01079090777784586,-7.085072866175324e-05,0.0,0.0,-0.6,0.0,0.0002665519714355469,0.0002665519714355469,0.0041544437408447266,0,0
0.8900535106658936,0.007546063978224993,-0.0026215994730591774,-0.13563238084316254,0.018172557193321535,0.7124199191304951,0.0014780949568375945,0.010569077916443348,-6.994955765549093e-05,0.0,0.0,-0.6,0.0,0.0002834796905517578,0.0002834796905517578,0.0033636093139648438,0,0
0.8999185562133789,0.007676552515476942,-0.002823638031259179,-0.14231888949871063,0.01816170005033071,0.7117130034685905,0.0006561392801813781,0.01201079972088337,-7.919381459942088e-05,0.0,0.0,-0.6,0.0,0.00020194053649902344,0.00020194053649902344,0.0032837390899658203,0,0
0.9099826812744141,0.0077473316341638565,-0.0029238159768283367,-0.14568792283535004,0.018158150920481963,0.7110859233151565,0.0015893570380285382,0.010994192212820053,-7.186068978626281e-05,0.0,0.0,-0.6,0.0,0.0002434253692626953,0.0002434253692626953,0.0030732154846191406,0,0
0.9201416969299316,0.007820766419172287,-0.0030235187150537968,-0.14905504882335663,0.01815777463618772,0.7105199719932878,0.0007688456098549068,0.010281584225594997,-6.725549610564485e-05,0.0,0.0,-0.6,0.0,0.00022935867309570312,0.00022935867309570312,0.003248453140258789,0,0
0.9298624992370605,0.007896541617810726,-0.003121562534943223,-0.1524188369512558,0.018166891949081217,0.7100001157407324,5.064902507001534e-05,0.008890018798410892,-5.8107441873289645e-05,0.0,0.0,-0.6,0.0,0.00018215179443359375,0.00018215179443359375,0.002775430679321289,0,0
0.9399333000183105,0.007890661247074604,-0.003080726834014058,-0.15559370815753937,0.018183337989295813,0.7095229690997038,-0.002459439914673567,0.007839173078536987,-5.183197572478093e-05,0.0,0.0,-0.6,0.0,0.00021457672119140625,0.00021457672119140625,0.0030775070190429688,0,0
0.9498989582061768,0.007889320142567158,-0.0030407283920794725,-0.15876853466033936,0.018191643075121267,0.7090805738614665,-0.004448584280908108,0.007151217665523291,-4.7671863285358995e-05,0.0,0.0,-0.6,0.0,0.00019621849060058594,0.00019621849060058594,0.0030629634857177734,0,0
0.9599707126617432,0.007898070849478245,-0.0029644700698554516,-0.16511376202106476,0.01817481450856459,0.7085565456416761,-0.0071961721405386925,0.006274575833231211,-4.215159424347803e-05,0.0,0.0,-0.6,0.0,0.00020933151245117188,0.00020933151245117188,0.0031490325927734375,0,0
0.970172643661499,0.00790562853217125,-0.002928465837612748,-0.1682853400707245,0.018185992008757118,0.7080819884145421,-0.00635909428820014,0.0052384063601493835,-3.4619424695847556e-05,0.0,0.0,-0.6,0.0,0.0002396106719970703,0.0002396106719970703,0.0033113956451416016,0,0
0.9803895950317383,0.007929369807243347,-0.0028615572955459356,-0.17461998760700226,0.018177295212919494,0.7075489149271392,-0.008118155412375927,0.0052684275433421135,-3.44559557561297e-05,0.0,0.0,-0.6,0.0,0.00031495094299316406,0.00031495094299316406,0.003657817840576172,0,0
0.9899418354034424,0.00794805958867073,-0.0028298126999288797,-0.1777820587158203,0.018154730870265538,0.7070815092046157,-0.006632792763411999,0.00609441427513957,-3.809665940934792e-05,0.0,0.0,-0.6,0.0,0.00024700164794921875,0.00024700164794921875,0.0031805038452148438,0,0
1.0001263618469238,0.007970824837684631,-0.0028001070022583008,-0.1809385120868683,0.018147003072939493,0.7066648157692264,-0.005735710263252258,0.005076835863292217,-3.113062848569825e-05,0.0,0.0,-0.6,0.0,0.0002453327178955078,0.0002453327178955078,0.0033702850341796875,0,0
1.0099213123321533,0.007996326312422752,-0.0027718974743038416,-0.18408814072608948,0.018149845659793933,0.706286820864635,-0.005417520180344582,0.004767230246216059,-2.8613947506528348e-05,0.0,0.0,-0.6,0.0,0.00020551681518554688,0.00020551681518554688,0.0029485225677490234,0,0
1.0198695659637451,0.008057587780058384,-0.002720046555623412,-0.1903686225414276,0.01815227653746586,0.7058447818904086,-0.0060448492877185345,0.005358525551855564,-3.134481448796578e-05,0.0,0.0,-0.6,0.0,0.000270843505859375,0.000270843505859375,0.003545045852661133,0,0
1.0300827026367188,0.008093203417956829,-0.0026960468385368586,-0.19350376725196838,0.018171012172793523,0.7054532497296165,-0.005415321793407202,0.00542279751971364,-3.1211548048304394e-05,0.0,0.0,-0.6,0.0,0.0004856586456298828,0.0004856586456298828,0.0059850215911865234,0,0
1.0399658679962158,0.008130059577524662,-0.0026736243162304163,-0.19663098454475403,0.018184391860138482,0.7050943267717144,-0.006306550465524197,0.004934307187795639,-2.810912519635167e-05,0.0,0.0,-0.6,0.0,0.000225067138671875,0.000225067138671875,0.002965211868286133,0,0
1.0501940250396729,0.008170428685843945,-0.0026511093601584435,-0.19974975287914276,0.018197590877719765,0.7047650278186796,-0.006236154120415449,0.005602145101875067,-3.177527105435729e-05,0.0,0.0,-0.6,0.0,0.00025534629821777344,0.00025534629821777344,0.004230022430419922,0,0
1.0600025653839111,0.008259454742074013,-0.0026107141748070717,-0.2059575468301773,0.018211043255171352,0.7043860236229866,-0.004845283925533295,0.005326760467141867,-3.0069220883888192e-05,0.0,0.0,-0.6,0.0,0.0002734661102294922,0.0002734661102294922,0.0035724639892578125,0,0
1.069916009902954,0.008309208787977695,-0.0025920234620571136,-0.20904645323753357,0.01821664143729158,0.7040445805426463,-0.006373868323862553,0.006508267484605312,-3.651908627944067e-05,0.0,0.0,-0.6,0.0,0.00026607513427734375,0.00026607513427734375,0.0031392574310302734,0,0
1.0802428722381592,0.008363444358110428,-0.00257336487993598,-0.2121250331401825,0.018204101908832808,0.7037335923675208,-0.005231113638728857,0.006631465163081884,-3.702236426761374e-05,0.0,0.0,-0.6,0.0,0.0002396106719970703,0.0002396106719970703,0.003263711929321289,0,0
1.08990478515625,0.008421218022704124,-0.0025565852411091328,-0.21519270539283752,0.01819262240187925,0.7034472213530892,-0.00349386571906507,0.0065612224861979485,-3.661673690658063e-05,0.0,0.0,-0.6,0.0,0.0002067089080810547,0.0002067089080810547,0.002904653549194336,0,0
1.0998508930206299,0.008544888347387314,-0.0025253037456423044,-0.22128988802433014,0.018194023444169507,0.7031255350192771,-0.006096489727497101,0.006693644914776087,-3.696768544614315e-05,0.0,0.0,-0.6,0.0,0.0002117156982421875,0.0002117156982421875,0.0030608177185058594,0,0
1.1098783016204834,0.008611489087343216,-0.0025111576542258263,-0.2243174910545349,0.018196324258609984,0.7028439683400506,-0.004175936337560415,0.006923524662852287,-3.8362148188753054e-05,0.0,0.0,-0.6,0.0,0.0002193450927734375,0.0002193450927734375,0.003083944320678711,0,0
1.1200029850006104,0.008681096136569977,-0.0024994532577693462,-0.22733113169670105,0.018198789010073674,0.7025864050057166,-0.001821762416511774,0.0063714380376040936,-3.584475052775815e-05,0.0,0.0,-0.6,0.0,0.00021195411682128906,0.00021195411682128906,0.0030171871185302734,0,0
1.1301243305206299,0.00875420868396759,-0.0024917449336498976,-0.23033110797405243,0.01817786247995671,0.702352400756675,0.001205345382913947,0.007446900010108948,-4.289130447432399e-05,0.0,0.0,-0.6,0.0,0.00022721290588378906,0.00022721290588378906,0.003354310989379883,0,0
1.1399025917053223,0.008914653211832047,-0.0024829083122313023,-0.23628616333007812,0.018174380696558825,0.7020820173149377,-0.0008252349216490984,0.009939772076904774,-5.781563959317282e-05,0.0,0.0,-0.6,0.0,0.00017714500427246094,0.00017714500427246094,0.0027663707733154297,0,0
1.1498892307281494,0.009000491350889206,-0.0024798999074846506,-0.23924116790294647,0.0181737752263402,0.7018431891585786,6.347730231937021e-05,0.009947442449629307,-5.8570323744788766e-05,0.0,0.0,-0.6,0.0,0.00022149085998535156,0.00022149085998535156,0.0030395984649658203,0,0
1.1601336002349854,0.009089034050703049,-0.002478710375726223,-0.24218004941940308,0.01816887385032302,0.7016292394243114,-0.0007974147447384894,0.008285564370453358,-4.886311216978356e-05,0.0,0.0,-0.6,0.0,0.0002410411834716797,0.0002410411834716797,0.003328084945678711,0,0
1.1699004173278809,0.00917940866202116,-0.0024769806768745184,-0.24510321021080017,0.018160783129658385,0.7014298160163496,-0.002793851774185896,0.008297697640955448,-4.840602196054533e-05,0.0,0.0,-0.6,0.0,0.00019550323486328125,0.00019550323486328125,0.002830028533935547,0,0
1.1798598766326904,0.009386229328811169,-0.0024750889278948307,-0.2509053647518158,0.018159298496874116,0.7011897403237264,-0.0005932304193265736,0.008979616686701775,-5.3561416279990226e-05,0.0,0.0,-0.6,0.0,0.00022912025451660156,0.00022912025451660156,0.0030176639556884766,0,0
1.189816951751709,0.009493274614214897,-0.0024764409754425287,-0.25378334522247314,0.018154158722949103,0.7009738213574773,-0.0010475650196895003,0.009544262662529945,-5.7101380662061274e-05,0.0,0.0,-0.6,0.0,0.00022983551025390625,0.00022983551025390625,0.0028238296508789062,0,0
1.2000248432159424,0.009603873826563358,-0.002478326205164194,-0.2566463053226471,0.01814367980461257,0.7007737664284464,-0.0013638876844197512,0.009224116802215576,-5.51971243112348e-05,0.0,0.0,-0.6,0.0,0.0002567768096923828,0.0002567768096923828,0.0031998157501220703,0,0
1.2100639343261719,0.009716625325381756,-0.0024813690688461065,-0.25949379801750183,0.018148221808398972,0.7005893141929886,-0.001265251194126904,0.008487774059176445,-5.0888669647974893e-05,0.0,0.0,-0.6,0.0,0.0003116130828857422,0.0003116130828857422,0.003904104232788086,0,0
1.219944953918457,0.009948714636266232,-0.002490444341674447,-0.26513800024986267,0.018172412496811258,0.7003854930594382,-0.001646344200707972,0.010105597786605358,-6.079954982851632e-05,0.0,0.0,-0.6,0.0,0.000270843505859375,0.000270843505859375,0.0037848949432373047,0,0
1.2300515174865723,0.010069942101836205,-0.002495737047865987,-0.2679329514503479,0.01818883464917074,0.7002095819221362,-0.002243798691779375,0.01084973756223917,-6.492564716609195e-05,0.0,0.0,-0.6,0.0,0.0002751350402832031,0.0002751350402832031,0.0038323402404785156,0,0
1.2401258945465088,0.0101958392187953,-0.0025016115978360176,-0.2707093060016632,0.018203138758747003,0.7000539825536775,-0.0013718805275857449,0.011216945014894009,-6.762325938325375e-05,0.0,0.0,-0.6,0.0,0.00023627281188964844,0.00023627281188964844,0.0031681060791015625,0,0
1.2498705387115479,0.010326874442398548,-0.002509236568585038,-0.27346765995025635,0.0182004899662198,0.6999096042678823,-0.0015974564012140036,0.009643180295825005,-5.792868250864558e-05,0.0,0.0,-0.6,0.0,0.00020575523376464844,0.00020575523376464844,0.0028426647186279297,0,0
1.2598304748535156,0.010593325830996037,-0.0025268164463341236,-0.27895376086235046,0.01819583924518221,0.6997487496082754,1.0708147783589084e-05,0.010514589957892895,-6.44404353806749e-05,0.0,0.0,-0.6,0.0,0.000213623046875,0.000213623046875,0.0030794143676757812,0,0
1.2698333263397217,0.01072961650788784,-0.0025390363298356533,-0.2816806435585022,0.018198965810200148,0.6996048633543945,0.0007838007295504212,0.009625677019357681,-5.9687103203032166e-05,0.0,0.0,-0.6,0.0,0.00020599365234375,0.00020599365234375,0.0030431747436523438,0,0
1.280064582824707,0.010867522098124027,-0.0025526995304971933,-0.2843872606754303,0.018213903545567296,0.6994821370737435,0.0009798830142244697,0.009041783399879932,-5.6585820857435465e-05,0.0,0.0,-0.6,0.0,0.00028324127197265625,0.00028324127197265625,0.0036377906799316406,0,0
1.2901532649993896,0.011007300578057766,-0.002568766474723816,-0.2870732843875885,0.018211856894495965,0.6993697517419583,0.002535860752686858,0.008356243371963501,-5.3936550102662295e-05,0.0,0.0,-0.6,0.0,0.0004513263702392578,0.0004513263702392578,0.004921913146972656,0,0
1.2999238967895508,0.011147628538310528,-0.002586980815976858,-0.2897392511367798,0.018191823335164625,0.6992656395091684,0.002450952772051096,0.006840795744210482,-4.49611216026824e-05,0.0,0.0,-0.6,0.0,0.00035452842712402344,0.00035452842712402344,0.004298210144042969,0,0
1.3100812435150146,0.011288403533399105,-0.0026065234560519457,-0.29238569736480713,0.018183619479532235,0.6991655022584495,0.001426912727765739,0.0065434835851192474,-4.2361578380223364e-05,0.0,0.0,-0.6,0.0,0.0002713203430175781,0.0002713203430175781,0.004203081130981445,0,0
1.3201446533203125,0.011576312594115734,-0.0026413656305521727,-0.29763561487197876,0.018193086262631337,0.6990431386977802,-0.0005121808499097824,0.008321013301610947,-5.2195984608260915e-05,0.0,0.0,-0.6,0.0,0.00030517578125,0.00030517578125,0.004574298858642578,0,0
1.3299193382263184,0.011724908836185932,-0.0026572218630462885,-0.30023980140686035,0.018183315886271832,0.6989276015384623,-0.0009347553132101893,0.009001518599689007,-5.6006927479756996e-05,0.0,0.0,-0.6,0.0,0.0002777576446533203,0.0002777576446533203,0.003621339797973633,0,0
1.3397903442382812,0.011774248443543911,-0.0023481901735067368,-0.3057798445224762,0.018204890883665795,0.6987888096987839,-0.0055509465746581554,0.007808029185980558,-4.314722173148766e-05,0.0,0.0,-0.6,0.0,0.00022721290588378906,0.00022721290588378906,0.003147602081298828,0,0
1.3498716354370117,0.011806132271885872,-0.002200088230893016,-0.3085111975669861,0.018212738751644506,0.6986613800604108,-0.005746473092585802,0.007712879218161106,-4.168753366684541e-05,0.0,0.0,-0.6,0.0,0.0001811981201171875,0.0001811981201171875,0.0032842159271240234,0,0
1.3601572513580322,0.011843389831483364,-0.002055872930213809,-0.3112190067768097,0.01825043862127499,0.6985404654743553,-0.007262845057994127,0.0072868275456130505,-3.638883208623156e-05,0.0,0.0,-0.6,0.0,0.0003402233123779297,0.0003402233123779297,0.0043947696685791016,0,0
1.3701603412628174,0.01188579760491848,-0.0019149986328557134,-0.3139021694660187,0.01825309390923098,0.698431313576816,-0.006763411685824394,0.007142095826566219,-3.5442579246591777e-05,0.0,0.0,-0.6,0.0,0.0002765655517578125,0.0002765655517578125,0.004530191421508789,0,0
1.3801305294036865,0.011981942690908909,-0.001647566445171833,-0.3192172050476074,0.018247687496794875,0.6983105207248618,-0.006760517600923777,0.0055519831366837025,-2.4747492716414854e-05,0.0,0.0,-0.6,0.0,0.0003676414489746094,0.0003676414489746094,0.004964113235473633,0,0
1.389920711517334,0.012034587562084198,-0.0015214659506455064,-0.32184886932373047,0.018243873424350545,0.6982027076501307,-0.005551436450332403,0.004969579633325338,-2.2229200112633407e-05,0.0,0.0,-0.6,0.0,0.0002739429473876953,0.0002739429473876953,0.003303050994873047,0,0
1.4001476764678955,0.012091057375073433,-0.0014002417447045445,-0.32445481419563293,0.01823266216756138,0.6981072922859433,-0.004353229887783527,0.004745617974549532,-2.1936639313935302e-05,0.0,0.0,-0.6,0.0,0.0002627372741699219,0.0002627372741699219,0.003316640853881836,0,0
1.4098725318908691,0.012150869704782963,-0.0012842315481975675,-0.3270363509654999,0.018235411189549904,0.6980152724102465,-0.0031718797981739044,0.003791053080931306,-1.7732856576913036e-05,0.0,0.0,-0.6,0.0,0.00020360946655273438,0.00020360946655273438,0.0030450820922851562,0,0
1.4198284149169922,0.012274442240595818,-0.001064222538843751,-0.3321229815483093,0.018212278887008763,0.697914194948304,-0.005556640215218067,0.0016288516344502568,-1.0849445288840798e-06,0.0,0.0,-0.6,0.0,0.0002307891845703125,0.0002307891845703125,0.003088712692260742,0,0
1.429868221282959,0.012338921427726746,-0.0009586192318238318,-0.33462971448898315,0.018219335245866712,0.6978254430011617,-0.005772752687335014,0.0011271542171016335,2.4967721401480958e-06,0.0,0.0,-0.6,0.0,0.000225067138671875,0.000225067138671875,0.00319671630859375,0,0
1.439992904663086,0.012405246496200562,-0.0008561986032873392,-0.3371291756629944,0.018229636638520823,0.69775,-0.0052462369203567505,0.00047562658437527716,5.662094736180734e-06,0.0,0.0,-0.6,0.0,0.00020956993103027344,0.00020956993103027344,0.002985715866088867,0,0
1.4500970840454102,0.012472591362893581,-0.0007573619368486106,-0.3396024703979492,0.01823458796594078,0.6976846181292453,-0.004809003788977861,-0.0001926858094520867,9.060418051376473e-06,0.0,0.0,-0.6,0.0,0.0003845691680908203,0.0003845691680908203,0.0054931640625,0,0
1.4601130485534668,0.01261480338871479,-0.000570139498449862,-0.3444700837135315,0.01824338087699984,0.6976218558941323,-0.005312113091349602,-0.0021269666031003,2.179666444135364e-05,0.0,0.0,-0.6,0.0,0.0003566741943359375,0.0003566741943359375,0.004204988479614258,0,0
1.4699923992156982,0.012688526883721352,-0.0004814686253666878,-0.34686508774757385,0.01822925534153006,0.6975632811883957,-0.005071896594017744,-0.001899433322250843,2.025193680310622e-05,0.0,0.0,-0.6,0.0,0.0002617835998535156,0.0002617835998535156,0.0037941932678222656,0,0
1.4802327156066895,0.012763811275362968,-0.0003970798570662737,-0.3492352068424225,0.018219442189786772,0.6975155170904199,-0.002035456942394376,-0.0015763230621814728,1.298982351727318e-05,0.0,0.0,-0.6,0.0,0.00024318695068359375,0.00024318695068359375,0.0035660266876220703,0,0
1.4898924827575684,0.012840606272220612,-0.0003176614991389215,-0.3515791594982147,0.018192443452373988,0.6974753522836928,-0.0018864237936213613,-0.0015855777310207486,1.2860979950346518e-05,0.0,0.0,-0.6,0.0,0.00039958953857421875,0.00039958953857421875,0.0033731460571289062,0,0
1.4998259544372559,0.012996215373277664,-0.00016692746430635452,-0.3562299609184265,0.018170124702333548,0.6974361259687198,-0.0040858094580471516,-0.0017744676442816854,1.821598743845243e-05,0.0,0.0,-0.6,0.0,0.0002129077911376953,0.0002129077911376953,0.0030794143676757812,0,0
1.509819507598877,0.013076753355562687,-9.479184518568218e-05,-0.35853463411331177,0.01817802172669505,0.697403128912848,-0.0040182690136134624,-0.0008301052148453891,1.2514027730503585e-05,0.0,0.0,-0.6,0.0,0.0002086162567138672,0.0002086162567138672,0.002954721450805664,0,0
1.5199875831604004,0.013159466907382011,-2.507951285224408e-05,-0.36081334948539734,0.018168788462059642,0.6973748334378255,-0.0042753396555781364,-0.0002675212745089084,9.640200005378574e-06,0.0,0.0,-0.6,0.0,0.00023794174194335938,0.00023794174194335938,0.003175973892211914,0,0
1.5300443172454834,0.013243692927062511,4.30867075920105e-05,-0.3630658686161041,0.018164680738698306,0.6973511616596542,-0.004980332218110561,-4.323842586018145e-05,9.670008694229182e-06,0.0,0.0,-0.6,0.0,0.00028204917907714844,0.00028204917907714844,0.05189800262451172,0,0
1.5822679996490479,0.013243692927062511,4.30867075920105e-05,-0.3630658686161041,0.018164680738698306,0.6973345047719934,-0.0034868645016103983,-4.9056510761147365e-05,6.878513431729516e-06,0.0,0.0,-0.6,0.0,0.00021266937255859375,0.00021266937255859375,0.003111124038696289,0,0
1.589918613433838,0.013960151001811028,0.0005011315806768835,-0.38023871183395386,0.01824223454572797,0.6973107142137248,-0.005720589775592089,0.0021472349762916565,-3.292243945907103e-06,0.0,0.0,-0.6,0.0,0.00021600723266601562,0.00021600723266601562,0.0030455589294433594,0,0
1.5999975204467773,0.01405792310833931,0.0005460638785734773,-0.38227444887161255,0.018242277041586756,0.6972959378424048,-0.005558112170547247,0.002457936992868781,-5.4923802963458e-06,0.0,0.0,-0.6,0.0,0.00022363662719726562,0.00022363662719726562,0.003014802932739258,0,0
1.610032320022583,0.014158150181174278,0.0005870523164048791,-0.3842846155166626,0.018236818644525487,0.6972950363573074,-0.004316667094826698,0.003410021308809519,-1.3268067050375976e-05,0.0,0.0,-0.6,0.0,0.0002429485321044922,0.0002429485321044922,0.003354787826538086,0,0
1.6200242042541504,0.014368841424584389,0.0006631008582189679,-0.3882318437099457,0.018215220644157953,0.6973037376056882,-0.003991956822574139,0.00604401296004653,-3.001163167937193e-05,0.0,0.0,-0.6,0.0,0.00031375885009765625,0.00031375885009765625,0.004551887512207031,0,0
1.630042314529419,0.014478699304163456,0.0006969695095904171,-0.3901712894439697,0.01822892509221766,0.6973047174700523,-0.001789259840734303,0.006060766521841288,-3.391726204426959e-05,0.0,0.0,-0.6,0.0,0.00025343894958496094,0.00025343894958496094,0.004073381423950195,0,0
1.6402506828308105,0.014589956030249596,0.0007281560683622956,-0.39208874106407166,0.018233867145362806,0.6973038551894754,-0.001857826835475862,0.0049856482073664665,-2.735982161539141e-05,0.0,0.0,-0.6,0.0,0.0003414154052734375,0.0003414154052734375,0.004063844680786133,0,0
1.6499276161193848,0.01470169797539711,0.000759007059969008,-0.39398428797721863,0.018240832526138374,0.6973011115632537,-0.0043424079194664955,0.004174727480858564,-1.846337181632407e-05,0.0,0.0,-0.6,0.0,0.0002880096435546875,0.0002880096435546875,0.0031964778900146484,0,0
1.659947395324707,0.014931738376617432,0.0008190330700017512,-0.3977036774158478,0.01823097765983524,0.6973233346641751,-0.004604276269674301,0.006161996629089117,-3.0102490200079046e-05,0.0,0.0,-0.6,0.0,0.00021219253540039062,0.00021219253540039062,0.0031473636627197266,0,0
1.6705162525177002,0.01504986360669136,0.0008463016711175442,-0.39952605962753296,0.0182333717417248,0.6973493588133122,-0.0030606298241764307,0.005983483511954546,-3.145554364891723e-05,0.0,0.0,-0.6,0.0,0.0006842613220214844,0.0006842613220214844,0.008067607879638672,0,0
1.6799511909484863,0.015171374194324017,0.0008712626295164227,-0.40132397413253784,0.01825693871594967,0.6973800066467681,-0.0010039868066087365,0.006486533209681511,-3.786602246691473e-05,0.0,0.0,-0.6,0.0,0.0002703666687011719,0.0002703666687011719,0.0034797191619873047,0,0
1.690056324005127,0.015294921584427357,0.000892708427272737,-0.40309828519821167,0.018264049684289487,0.6974107316809827,0.0005893413326703012,0.005725428927689791,-3.6135741538600996e-05,0.0,0.0,-0.6,0.0,0.00024247169494628906,0.00024247169494628906,0.003194093704223633,0,0
1.699953317642212,0.015545686706900597,0.0009282248211093247,-0.40657365322113037,0.01826943820118476,0.6974641449620165,0.0007220027036964893,0.006377693265676498,-4.1063518438022584e-05,0.0,0.0,-0.6,0.0,0.00020122528076171875,0.00020122528076171875,0.0030825138092041016,0,0
1.7099416255950928,0.01567409560084343,0.0009426251635886729,-0.4082755744457245,0.01825388326167105,0.6975148117746779,0.0011258887825533748,0.006989720743149519,-4.600121974362992e-05,0.0,0.0,-0.6,0.0,0.0002231597900390625,0.0002231597900390625,0.0030531883239746094,0,0
1.7201333045959473,0.015804702416062355,0.0009537842706777155,-0.4099544584751129,0.01823078541785965,0.6975624191873636,0.002430341672152281,0.006125790067017078,-4.322140375734307e-05,0.0,0.0,-0.6,0.0,0.00023674964904785156,0.00023674964904785156,0.0031659603118896484,0,0
1.7299692630767822,0.015936128795146942,0.0009615155286155641,-0.4116104543209076,0.018206606880748495,0.6976092793467237,0.003433401696383953,0.006178734358400106,-4.5801527448929846e-05,0.0,0.0,-0.6,0.0,0.00025773048400878906,0.00025773048400878906,0.0036802291870117188,0,0
1.739936351776123,0.016198070719838142,0.0013283139560371637,-0.41523709893226624,0.01818387361738055,0.6976500642512354,-0.001324951066635549,0.008089686743915081,-5.013439294998534e-05,0.0,0.0,-0.6,0.0,0.0002307891845703125,0.0002307891845703125,0.003305196762084961,0,0
1.7498440742492676,0.016332468017935753,0.001506673637777567,-0.4170103669166565,0.018182216516830274,0.697685793404897,-0.0036973184905946255,0.006966493092477322,-3.836059840978123e-05,0.0,0.0,-0.6,0.0,0.00021648406982421875,0.00021648406982421875,0.0029554367065429688,0,0
1.7600066661834717,0.016467614099383354,0.0016805415507405996,-0.4187566041946411,0.018171606096126405,0.6977201498646001,-0.005579046439379454,0.006656713783740997,-3.248122811783105e-05,0.0,0.0,-0.6,0.0,0.00022220611572265625,0.00022220611572265625,0.003117799758911133,0,0
1.7701053619384766,0.016604483127593994,0.0018502984894439578,-0.42047661542892456,0.018167457631234445,0.6977492165461524,-0.006926903501152992,0.006252251099795103,-2.6894951588474214e-05,0.0,0.0,-0.6,0.0,0.0002391338348388672,0.0002391338348388672,0.0032761096954345703,0,0
1.7798728942871094,0.01687965728342533,0.002176443114876747,-0.4238411784172058,0.018191263833297288,0.6977870564881333,-0.009439249522984028,0.006333099212497473,-2.1752415705122985e-05,0.0,0.0,-0.6,0.0,0.0002009868621826172,0.0002009868621826172,0.0029137134552001953,0,0
1.7900278568267822,0.01701883226633072,0.0023318452294915915,-0.42548418045043945,0.018191610800370885,0.6978248162974126,-0.006992479786276817,0.005760225001722574,-2.239432251371909e-05,0.0,0.0,-0.6,0.0,0.00022268295288085938,0.00022268295288085938,0.003017425537109375,0,0
1.800039529800415,0.017158877104520798,0.0024818165693432093,-0.4271162748336792,0.018194030434592962,0.6978608509633745,-0.006689382251352072,0.005286718253046274,-1.9327648260514252e-05,0.0,0.0,-0.6,0.0,0.00022792816162109375,0.00022792816162109375,0.0033893585205078125,0,0
1.8098993301391602,0.017298702150583267,0.0026274488773196936,-0.42872288823127747,0.018194384238675424,0.6978975106490808,-0.006458440329879522,0.003918481525033712,-1.0737846423580777e-05,0.0,0.0,-0.6,0.0,0.00021696090698242188,0.00021696090698242188,0.0030395984649658203,0,0
1.8198213577270508,0.017580779269337654,0.0029043236281722784,-0.4318593144416809,0.018163532616141564,0.6979506563691767,-0.007016873452812433,0.0055165826342999935,-1.8613956854096614e-05,0.0,0.0,-0.6,0.0,0.00021386146545410156,0.00021386146545410156,0.0028715133666992188,0,0
1.8298301696777344,0.01772380992770195,0.0030353637412190437,-0.4333900213241577,0.0181625967757336,0.6980014489335217,-0.005597962066531181,0.005211001727730036,-1.9294397134217434e-05,0.0,0.0,-0.6,0.0,0.00019741058349609375,0.00019741058349609375,0.0029485225677490234,0,0
1.839853048324585,0.017867831513285637,0.0031614440958946943,-0.4348966181278229,0.01816392788217219,0.6980457771957697,-0.004435590468347073,0.005312564317137003,-2.2313181034405716e-05,0.0,0.0,-0.6,0.0,0.00022101402282714844,0.00022101402282714844,0.002927064895629883,0,0
1.8500752449035645,0.018013939261436462,0.003282638033851981,-0.4363808333873749,0.018162099801839197,0.698084307889837,-0.004223132040351629,0.006512369494885206,-2.981405850732699e-05,0.0,0.0,-0.6,0.0,0.00023436546325683594,0.00023436546325683594,0.0031096935272216797,0,0
1.859910011291504,0.01831544190645218,0.003512792056426406,-0.43928056955337524,0.018197151464480924,0.6981341914114443,-0.004348360933363438,0.009614961221814156,-4.8890917241806164e-05,0.0,0.0,-0.6,0.0,0.00017523765563964844,0.00017523765563964844,0.002856731414794922,0,0
1.869969367980957,0.018470142036676407,0.0036203484050929546,-0.4406958222389221,0.01819555838682741,0.6981873213726211,-0.0019098338671028614,0.009598368778824806,-5.448362935567275e-05,0.0,0.0,-0.6,0.0,0.00022721290588378906,0.00022721290588378906,0.0031664371490478516,0,0
1.8801469802856445,0.018627265468239784,0.0037213265895843506,-0.44208765029907227,0.01818446429199135,0.6982381771752088,5.4438536608358845e-05,0.009647461585700512,-5.9677622630260885e-05,0.0,0.0,-0.6,0.0,0.00024318695068359375,0.00024318695068359375,0.0032291412353515625,0,0
1.8899316787719727,0.018786396831274033,0.0038175201043486595,-0.44345757365226746,0.018177781260143026,0.6982862894976964,-0.0008674239506945014,0.009223314002156258,-5.511519339052029e-05,0.0,0.0,-0.6,0.0,0.00034356117248535156,0.00034356117248535156,0.00474095344543457,0,0
1.8999202251434326,0.019120020791888237,0.004003562033176422,-0.446130633354187,0.018189216486064023,0.6983526789583662,0.0009938266593962908,0.010716785676777363,-6.946569192223251e-05,0.0,0.0,-0.6,0.0,0.00022482872009277344,0.00022482872009277344,0.003121614456176758,0,0
1.9098789691925049,0.01928894966840744,0.004088640678673983,-0.4474334716796875,0.018203031634910976,0.6984187889196998,0.0004964721738360822,0.009475432336330414,-6.0845326515845954e-05,0.0,0.0,-0.6,0.0,0.00019931793212890625,0.00019931793212890625,0.002959012985229492,0,0
1.919999361038208,0.019458528608083725,0.004169999156147242,-0.44871655106544495,0.018224290580048014,0.6984835236246268,3.321574331494048e-05,0.008915051817893982,-5.645372220897116e-05,0.0,0.0,-0.6,0.0,0.00021004676818847656,0.00021004676818847656,0.0029418468475341797,0,0
1.9302585124969482,0.019630206748843193,0.004247006494551897,-0.4499775767326355,0.018258173444602427,0.6985457876665558,0.000567848386708647,0.009430983103811741,-6.133262650109828e-05,0.0,0.0,-0.6,0.0,0.0002415180206298828,0.0002415180206298828,0.003170013427734375,0,0
1.939988613128662,0.019976958632469177,0.004385691601783037,-0.4524387717247009,0.01828711670182427,0.6986156772816321,0.0035907248966395855,0.01030174270272255,-7.546781125711277e-05,0.0,0.0,-0.6,0.0,0.00027060508728027344,0.00027060508728027344,0.0036628246307373047,0,0
1.9500439167022705,0.02015218324959278,0.004446490667760372,-0.4536386728286743,0.0182843526578006,0.6986846999911793,0.003485827473923564,0.009009545668959618,-6.744982965756208e-05,0.0,0.0,-0.6,0.0,0.00024080276489257812,0.00024080276489257812,0.003914833068847656,0,0
1.9602186679840088,0.020328650251030922,0.004502647556364536,-0.4548167884349823,0.018294290195119658,0.6987564162496599,0.0035227008629590273,0.009810035116970539,-7.334351539611816e-05,0.0,0.0,-0.6,0.0,0.0003788471221923828,0.0003788471221923828,0.004681587219238281,0,0
1.9700102806091309,0.020509155467152596,0.004552335944026709,-0.4559738337993622,0.01832529162500295,0.6988241358396727,0.0046897693537175655,0.00911715067923069,-7.302941230591387e-05,0.0,0.0,-0.6,0.0,0.0002453327178955078,0.0002453327178955078,0.0031375885009765625,0,0
1.979943037033081,0.0208688136190176,0.004637121222913265,-0.4582282304763794,0.018370016621289474,0.6989042886979642,0.00393342413008213,0.008201257325708866,-6.582460628123954e-05,0.0,0.0,-0.6,0.0,0.00024771690368652344,0.00024771690368652344,0.003200054168701172,0,0
1.9900085926055908,0.021047988906502724,0.004675249569118023,-0.4593283236026764,0.018392747271866683,0.6989691796308541,0.0017714782152324915,0.006845364347100258,-5.085024531581439e-05,0.0,0.0,-0.6,0.0,0.00019860267639160156,0.00019860267639160156,0.002965211868286133,0,0
2.000119209289551,0.02122683823108673,0.004711146932095289,-0.46040961146354675,0.018416372888999177,0.6990387193371796,0.0009693496394902468,0.006575748324394226,-4.679469202528708e-05,0.0,0.0,-0.6,0.0,0.00033593177795410156,0.00033593177795410156,0.004559755325317383,0,0
2.010054588317871,0.021406376734375954,0.004743580240756273,-0.46147048473358154,0.01843770213362178,0.6991077055065856,0.0012513999827206135,0.006581650581210852,-4.783551412401721e-05,0.0,0.0,-0.6,0.0,0.0002701282501220703,0.0002701282501220703,0.0032668113708496094,0,0
2.019899606704712,0.021586483344435692,0.004772715736180544,-0.4625125229358673,0.01845678678487019,0.6991740267300984,0.0008114230004139245,0.006258169189095497,-4.445976810529828e-05,0.0,0.0,-0.6,0.0,0.0001976490020751953,0.0001976490020751953,0.0028939247131347656,0,0
2.0300493240356445,0.021767137572169304,0.00479927146807313,-0.46353596448898315,0.01845764429095158,0.69924053794837,2.956018033728469e-05,0.006424994207918644,-4.321207961766049e-05,0.0,0.0,-0.6,0.0,0.0002276897430419922,0.0002276897430419922,0.0030829906463623047,0,0
2.0401439666748047,0.022140195593237877,0.004846783820539713,-0.46552765369415283,0.018482309538465524,0.6993287027249803,-0.002187060657888651,0.007988108322024345,-4.589598756865598e-05,0.0,0.0,-0.6,0.0,0.00022220611572265625,0.00022220611572265625,0.00319671630859375,0,0
2.0499119758605957,0.02233181521296501,0.004866943694651127,-0.46649473905563354,0.018508599272718442,0.6994144732239966,-0.001449565519578755,0.007245508022606373,-4.3100644688820466e-05,0.0,0.0,-0.6,0.0,0.00021696090698242188,0.00021696090698242188,0.0030748844146728516,0,0
2.0598199367523193,0.02271242067217827,0.004895941354334354,-0.46837320923805237,0.01853929682965112,0.6995202467730257,0.0026371523272246122,0.006969267036765814,-5.518976831808686e-05,0.0,0.0,-0.6,0.0,0.00022673606872558594,0.00022673606872558594,0.00313568115234375,0,0
2.069868326187134,0.022902261465787888,0.004903607070446014,-0.4692848324775696,0.01852545608607667,0.6996158843469782,0.0031568282283842564,0.006026856601238251,-5.091225466458127e-05,0.0,0.0,-0.6,0.0,0.00019311904907226562,0.00019311904907226562,0.002848386764526367,0,0
2.0800254344940186,0.02309051714837551,0.004908548202365637,-0.470179945230484,0.018524067732428234,0.6996999437288963,0.0025096582248806953,0.0047283777967095375,-4.023086148663424e-05,0.0,0.0,-0.6,0.0,0.00021529197692871094,0.00021529197692871094,0.003031492233276367,0,0
2.0900864601135254,0.02327817864716053,0.004910262767225504,-0.4710574746131897,0.018530917226771196,0.6997846585175287,0.0028899104800075293,0.004955128766596317,-4.3319916585460305e-05,0.0,0.0,-0.6,0.0,0.0004572868347167969,0.0004572868347167969,0.003459453582763672,0,0
2.099919557571411,0.023466628044843674,0.004908571485430002,-0.4719170331954956,0.018548121054089532,0.6998686220248923,0.0037366310134530067,0.0061555891297757626,-5.482922642841004e-05,0.0,0.0,-0.6,0.0,0.00020575523376464844,0.00020575523376464844,0.0030362606048583984,0,0
2.109987497329712,0.023656753823161125,0.004902717191725969,-0.47279006242752075,0.01856606296070431,0.6999454668913375,0.00465208338573575,0.006136948708444834,-5.8563633501762524e-05,0.0,0.0,-0.6,0.0,0.00025463104248046875,0.00025463104248046875,0.0031652450561523438,0,0
2.120151996612549,0.024035848677158356,0.004877482540905476,-0.4744851291179657,0.018585740592832203,0.7000418739041101,0.007151661440730095,0.005607920233160257,-6.55002222629264e-05,0.0,0.0,-0.6,0.0,0.0002474784851074219,0.0002474784851074219,0.003223896026611328,0,0
2.1299021244049072,0.02422451414167881,0.004859533626586199,-0.4753057360649109,0.01858335203518165,0.7001349886112967,0.006549657788127661,0.005712659098207951,-6.453603418776765e-05,0.0,0.0,-0.6,0.0,0.00020647048950195312,0.00020647048950195312,0.0029709339141845703,0,0
2.139859199523926,0.0247187502682209,0.005276144947856665,-0.477376788854599,0.01859021808463756,0.7002187591527707,-0.0007622218108735979,0.009851181879639626,-6.430372013710439e-05,0.0,0.0,-0.6,0.0,0.00025963783264160156,0.00025963783264160156,0.0039098262786865234,0,0
2.150068521499634,0.024965761229395866,0.005474822595715523,-0.47837984561920166,0.01859733600026411,0.7002837777938523,-0.002566010458394885,0.009987320750951767,-5.7603014283813536e-05,0.0,0.0,-0.6,0.0,0.0002467632293701172,0.0002467632293701172,0.004353046417236328,0,0
2.16001033782959,0.0252117607742548,0.005666280630975962,-0.4793807566165924,0.01859255614001004,0.7003420753028045,-0.0039688656106591225,0.008940421044826508,-4.395608266349882e-05,0.0,0.0,-0.6,0.0,0.00025534629821777344,0.00025534629821777344,0.0036568641662597656,0,0
2.1700825691223145,0.025455689057707787,0.005851232446730137,-0.4803595542907715,0.018593937104023062,0.7003899830707528,-0.004880882799625397,0.008512306027114391,-3.6517507396638393e-05,0.0,0.0,-0.6,0.0,0.0002677440643310547,0.0002677440643310547,0.0042591094970703125,0,0
2.18017840385437,0.025933869183063507,0.006199192255735397,-0.4822560250759125,0.018647056557286205,0.700447452991138,-0.006544221192598343,0.007754751481115818,-2.334860255359672e-05,0.0,0.0,-0.6,0.0,0.0003814697265625,0.0003814697265625,0.0060389041900634766,0,0
2.19000244140625,0.02616817131638527,0.006363001186400652,-0.483171284198761,0.018651435721916087,0.7005039428385097,-0.006979222875088453,0.007676305714994669,-2.0101811969652772e-05,0.0,0.0,-0.6,0.0,0.0003421306610107422,0.0003421306610107422,0.005147218704223633,0,0
2.2000887393951416,0.026400519534945488,0.006521211471408606,-0.4840642213821411,0.01867586930182965,0.700565932637656,-0.007107538171112537,0.006389431189745665,-1.0496166396478657e-05,0.0,0.0,-0.6,0.0,0.0003097057342529297,0.0003097057342529297,0.003762483596801758,0,0
2.209929943084717,0.026629986241459846,0.006673655938357115,-0.4849354326725006,0.0186861141450729,0.7006235070243692,-0.0061387354508042336,0.0053351582027971745,-7.2595216806803364e-06,0.0,0.0,-0.6,0.0,0.00023317337036132812,0.00023317337036132812,0.003058195114135742,0,0
2.21993088722229,0.02707992121577263,0.006959440186619759,-0.48661813139915466,0.018667558129700026,0.7006922395652403,-0.006407196633517742,0.00515174213796854,-3.821833615802461e-06,0.0,0.0,-0.6,0.0,0.00020956993103027344,0.00020956993103027344,0.0029392242431640625,0,0
2.2300286293029785,0.027302509173750877,0.007093633525073528,-0.4874298572540283,0.018670709657247656,0.7007592490880139,-0.005479562096297741,0.005123154725879431,-7.004670351307141e-06,0.0,0.0,-0.6,0.0,0.0004940032958984375,0.0004940032958984375,0.004288434982299805,0,0
2.2400457859039307,0.02752283774316311,0.00722205825150013,-0.48822057247161865,0.018660995529493844,0.7008302332579609,-0.005258801393210888,0.0041184318251907825,-1.427124743713648e-06,0.0,0.0,-0.6,0.0,0.0002849102020263672,0.0002849102020263672,0.004033088684082031,0,0
2.250013828277588,0.027740901336073875,0.007345983292907476,-0.4889912009239197,0.018652089000248704,0.7008969190850968,-0.005783322732895613,0.0043334802612662315,4.3125137239030664e-08,0.0,0.0,-0.6,0.0,0.00028777122497558594,0.00028777122497558594,0.0034487247467041016,0,0
2.2598941326141357,0.028177814558148384,0.007577387150377035,-0.4904788136482239,0.01861939200960571,0.7009710512871236,-0.005017634481191635,0.006320666987448931,-1.4851323612674605e-05,0.0,0.0,-0.6,0.0,0.0001990795135498047,0.0001990795135498047,0.0029633045196533203,0,0
2.269942045211792,0.02839438058435917,0.007685238961130381,-0.4911952614784241,0.01861369162144158,0.7010438112238306,-0.004919019527733326,0.005557502619922161,-1.0429646863485686e-05,0.0,0.0,-0.6,0.0,0.0002124309539794922,0.0002124309539794922,0.0031375885009765625,0,0
2.280349016189575,0.02860960178077221,0.007788342423737049,-0.491922527551651,0.018616379941140612,0.7011089579451724,-0.0039764707908034325,0.005936361849308014,-1.6897791283554398e-05,0.0,0.0,-0.6,0.0,0.0002989768981933594,0.0002989768981933594,0.0036954879760742188,0,0
2.2898871898651123,0.028824878856539726,0.007886058650910854,-0.4926323890686035,0.0186157334509863,0.7011669613757173,-0.002945160260424018,0.006866944022476673,-2.7230546038481407e-05,0.0,0.0,-0.6,0.0,0.00020194053649902344,0.00020194053649902344,0.0028162002563476562,0,0
2.299827814102173,0.029251964762806892,0.008065344765782356,-0.49399930238723755,0.018601211477561667,0.7012419656383457,-0.0026121765840798616,0.005799778737127781,-2.273841164424084e-05,0.0,0.0,-0.6,0.0,0.00021123886108398438,0.00021123886108398438,0.0036945343017578125,0,0
2.309889316558838,0.029461337253451347,0.00814733188599348,-0.4946560859680176,0.0186043163505225,0.7013119710824243,-0.0012866088654845953,0.005205466877669096,-2.568175841588527e-05,0.0,0.0,-0.6,0.0,0.0002911090850830078,0.0002911090850830078,0.004675865173339844,0,0
2.320132255554199,0.02966916561126709,0.008224640972912312,-0.4952952265739441,0.018615762580215894,0.7013836082052091,-0.0016837953589856625,0.004879376385360956,-2.1726493287133053e-05,0.0,0.0,-0.6,0.0,0.00029921531677246094,0.00029921531677246094,0.0037534236907958984,0,0
2.3301913738250732,0.029870353639125824,0.008297447115182877,-0.4959157705307007,0.018621783261200144,0.701454732034193,-0.001030336250551045,0.0038013726007193327,-1.823152160795871e-05,0.0,0.0,-0.6,0.0,0.00027561187744140625,0.00027561187744140625,0.004149675369262695,0,0
2.3399808406829834,0.03026888519525528,0.008429361507296562,-0.49711501598358154,0.018620843616980826,0.7015347387980136,-0.0023293495178222656,0.005592925939708948,-2.2767089831177145e-05,0.0,0.0,-0.6,0.0,0.0002605915069580078,0.0002605915069580078,0.0034329891204833984,0,0
2.34991455078125,0.030466753989458084,0.008490053936839104,-0.4976942837238312,0.018638548273553567,0.7016051864852172,-0.0018818903481587768,0.00524921203032136,-2.288381801918149e-05,0.0,0.0,-0.6,0.0,0.0002455711364746094,0.0002455711364746094,0.0030443668365478516,0,0
2.3601279258728027,0.030663905665278435,0.008545617572963238,-0.49825742840766907,0.01863280581620153,0.7016756669626439,0.00015355042705778033,0.005257339216768742,-3.3579839509911835e-05,0.0,0.0,-0.6,0.0,0.0002372264862060547,0.0002372264862060547,0.0035409927368164062,0,0
2.369921922683716,0.030860435217618942,0.008595024235546589,-0.4988047778606415,0.01863986597914591,0.7017388524326359,0.0019646906293928623,0.005768022034317255,-4.6493863919749856e-05,0.0,0.0,-0.6,0.0,0.0002357959747314453,0.0002357959747314453,0.0030517578125,0,0
2.3799240589141846,0.031057056039571762,0.008639062754809856,-0.4993378520011902,0.01862778379054998,0.7017969661953081,0.001919770846143365,0.00595430750399828,-4.776372225023806e-05,0.0,0.0,-0.6,0.0,0.00020623207092285156,0.00020623207092285156,0.002977132797241211,0,0
2.389922857284546,0.0312524139881134,0.008678507059812546,-0.49985694885253906,0.018622138163389958,0.7018508667451822,0.0019731984939426184,0.005196384619921446,-4.36017508036457e-05,0.0,0.0,-0.6,0.0,0.00025343894958496094,0.00025343894958496094,0.003339529037475586,0,0
2.4000582695007324,0.03163975849747658,0.00874643586575985,-0.5008568167686462,0.018612917949382256,0.7019247938553839,0.001083353883586824,0.005666731391102076,-4.239793270244263e-05,0.0,0.0,-0.6,0.0,0.0002315044403076172,0.0002315044403076172,0.0033941268920898438,0,0
2.4100027084350586,0.031832169741392136,0.008774801157414913,-0.5013391375541687,0.01861656480409391,0.7019907262556095,0.0011781173525378108,0.004805617034435272,-3.7510671972995624e-05,0.0,0.0,-0.6,0.0,0.0002574920654296875,0.0002574920654296875,0.003206491470336914,0,0
2.420088768005371,0.03221011906862259,0.00881866179406643,-0.5022591948509216,0.018598405955547556,0.7020782770403398,0.002344905398786068,0.0036286059767007828,-3.625180397648364e-05,0.0,0.0,-0.6,0.0,0.00020933151245117188,0.00020933151245117188,0.0032057762145996094,0,0
2.4299402236938477,0.03239447623491287,0.008833853527903557,-0.5026986598968506,0.01862043419093478,0.7021538583713227,0.0029914677143096924,0.0021006956230849028,-2.998035961354617e-05,0.0,0.0,-0.6,0.0,0.00027561187744140625,0.00027561187744140625,0.003445148468017578,0,0
2.439896821975708,0.03257623314857483,0.008844942785799503,-0.5031253099441528,0.01863723827751609,0.7022223039781429,0.0026506176218390465,0.001999578671529889,-2.7550753657124005e-05,0.0,0.0,-0.6,0.0,0.0002913475036621094,0.0002913475036621094,0.003603219985961914,0,0
2.449840545654297,0.03275584429502487,0.008852464146912098,-0.5035380125045776,0.01863376396638133,0.7022928081442585,0.00205322727560997,0.0012475575786083937,-1.947457349160686e-05,0.0,0.0,-0.6,0.0,0.00024008750915527344,0.00024008750915527344,0.0031991004943847656,0,0
2.459824562072754,0.033113863319158554,0.008854771964251995,-0.5043215155601501,0.018602645866475385,0.702383675369832,0.002776311244815588,0.0012341930996626616,-2.363845669606235e-05,0.0,0.0,-0.6,0.0,0.00022649765014648438,0.00022649765014648438,0.0029764175415039062,0,0
