time,x,y,z,yaw,throttle,roll_rate,pitch_rate,yaw_rate,x_ref,y_ref,z_ref,yaw_ref,pred_time,nr_time,ctrl_callback_time,v_norm,metadata
1.1920928955078125e-06,0.010208065621554852,0.0014781760983169079,-0.007282113190740347,-0.016726468661793344,0.7106795374869159,0.0326879546046257,0.03930544853210449,0.006947923451662064,0.0,0.0,-0.6,0.0,0.46776866912841797,0.46776866912841797,0.5326695442199707,0,Sim
0.5329492092132568,0.010208065621554852,0.0014781760983169079,-0.007282113190740347,-0.016726468661793344,0.7241919148475069,0.05264938622713089,0.06311769038438797,0.011066341772675514,0.0,0.0,-0.6,0.0,0.000194549560546875,0.000194549560546875,0.0029964447021484375,0,jax_reg_wardi
0.539618968963623,0.010558168403804302,0.0012950771488249302,-0.00575550040230155,-0.016608923275243024,0.7349944236340743,0.06652411818504333,0.07765533030033112,0.013629280030727386,0.0,0.0,-0.6,0.0,0.00024628639221191406,0.00024628639221191406,0.003270387649536133,0,1x Speed
0.5495803356170654,0.010511543601751328,0.0013604583218693733,-0.005726455245167017,-0.016593568109306046,0.7435470867118207,0.0754435732960701,0.0869237631559372,0.01532412227243185,0.0,0.0,-0.6,0.0,0.0001983642578125,0.0001983642578125,0.0029458999633789062,0,helix_spin
0.5597350597381592,0.010424473322927952,0.0014851483283564448,-0.005657366942614317,-0.016590426379602945,0.750342026775109,0.0811527818441391,0.09296541661024094,0.01648036018013954,0.0,0.0,-0.6,0.0,0.00029969215393066406,0.00029969215393066406,0.0033402442932128906,0,0
0.5698914527893066,0.010384248569607735,0.0015442481962963939,-0.005616907961666584,-0.01659653701434021,0.7557403227615256,0.08489923179149628,0.09688232839107513,0.017282897606492043,0.0,0.0,-0.6,0.0,0.00023031234741210938,0.00023031234741210938,0.003132343292236328,0,0
0.5796222686767578,0.010345334187150002,0.0016008589882403612,-0.005574299022555351,-0.016597734837687395,0.760036663462669,0.0874132439494133,0.09943583607673645,0.017842432484030724,0.0,0.0,-0.6,0.0,0.000202178955078125,0.000202178955078125,0.002980947494506836,0,0
0.5896050930023193,0.010276270098984241,0.0017064742278307676,-0.005498822312802076,-0.016584220444541643,0.7634610587629299,0.0890074223279953,0.10113032162189484,0.018232516944408417,0.0,0.0,-0.6,0.0,0.00021696090698242188,0.00021696090698242188,0.0032002925872802734,0,0
0.5999603271484375,0.010244833305478096,0.0017585105961188674,-0.005457233637571335,-0.01656898719816276,0.7661890310434554,0.08997519314289093,0.10225547105073929,0.018503736704587936,0.0,0.0,-0.6,0.0,0.00034809112548828125,0.00034809112548828125,0.003981828689575195,0,0
0.609734058380127,0.010216238908469677,0.001813880866393447,-0.0054242429323494434,-0.01658216041841666,0.7683033024237557,0.09032712876796722,0.10285654664039612,0.018710186704993248,0.0,0.0,-0.6,0.0,0.0002143383026123047,0.0002143383026123047,0.0031473636627197266,0,0
0.619758129119873,0.010187760926783085,0.0018697486957535148,-0.005425413139164448,-0.016580355258183344,0.7698646805681905,0.09023653715848923,0.10305618494749069,0.01886456459760666,0.0,0.0,-0.6,0.0,0.00023484230041503906,0.00023484230041503906,0.003217458724975586,0,0
0.6295819282531738,0.010159754194319248,0.0019246670417487621,-0.005480728577822447,-0.016557948379961957,0.7709408346724822,0.08970146626234055,0.10283482819795609,0.018978271633386612,0.0,0.0,-0.6,0.0,0.0001983642578125,0.0001983642578125,0.0030786991119384766,0,0
0.6396582126617432,0.010131433606147766,0.0019773216918110847,-0.0056036412715911865,-0.016539227466945496,0.7715989258254051,0.08877573907375336,0.10214301943778992,0.019067881628870964,0.0,0.0,-0.6,0.0,0.00028824806213378906,0.00028824806213378906,0.003064870834350586,0,0
0.6498618125915527,0.01010332815349102,0.0020286466460675,-0.005803411826491356,-0.01649453967657118,0.7719028042161581,0.08736412972211838,0.10105648636817932,0.019136525690555573,0.0,0.0,-0.6,0.0,0.0002257823944091797,0.0002257823944091797,0.0032753944396972656,0,0
0.6597392559051514,0.010049900971353054,0.0021277267951518297,-0.006473112851381302,-0.01641330617770702,0.7716505893992156,0.08450521528720856,0.09869083017110825,0.019210634753108025,0.0,0.0,-0.6,0.0,0.0002071857452392578,0.0002071857452392578,0.002979278564453125,0,0
0.6695795059204102,0.010023422539234161,0.0021766878198832273,-0.006944669410586357,-0.01638075143550637,0.7711809513528174,0.0814187154173851,0.09608190506696701,0.019280515611171722,0.0,0.0,-0.6,0.0,0.00020551681518554688,0.00020551681518554688,0.0030014514923095703,0,0
0.6798732280731201,0.00999829825013876,0.002226506592705846,-0.007511983159929514,-0.016331992914746,0.7705283596758925,0.07820470631122589,0.09328851103782654,0.019338343292474747,0.0,0.0,-0.6,0.0,0.0003380775451660156,0.0003380775451660156,0.0032949447631835938,0,0
0.6896989345550537,0.009951062500476837,0.002325907349586487,-0.00893740076571703,-0.016204264905440816,0.7694384322653329,0.07363720238208771,0.08939588069915771,0.01939474605023861,0.0,0.0,-0.6,0.0,0.0001919269561767578,0.0001919269561767578,0.0030393600463867188,0,0
0.6997027397155762,0.009928077459335327,0.0023756385780870914,-0.00979775283485651,-0.01612671426607001,0.7682776773590346,0.06926821172237396,0.08560840040445328,0.019429773092269897,0.0,0.0,-0.6,0.0,0.00023746490478515625,0.00023746490478515625,0.0032470226287841797,0,0
0.7095601558685303,0.009876994416117668,0.002476715948432684,-0.011836688965559006,-0.015975548734066453,0.7667578597855343,0.06382738053798676,0.08052433282136917,0.01946176216006279,0.0,0.0,-0.6,0.0,0.0001990795135498047,0.0001990795135498047,0.003432035446166992,0,0
0.7197282314300537,0.00984737928956747,0.0025301421992480755,-0.013003640808165073,-0.01587900995454186,0.7652428127410248,0.05872415006160736,0.07573740929365158,0.019469935446977615,0.0,0.0,-0.6,0.0,0.00027680397033691406,0.00027680397033691406,0.003215312957763672,0,0
0.729910135269165,0.009815097786486149,0.002586510730907321,-0.014268155209720135,-0.01577560996687592,0.7637322357073401,0.05386066809296608,0.07113369554281235,0.019457947462797165,0.0,0.0,-0.6,0.0,0.0002465248107910156,0.0002465248107910156,0.003294229507446289,0,0
0.7396948337554932,0.009779505431652069,0.0026448178105056286,-0.015629395842552185,-0.01567382585746712,0.7622208606267886,0.04927182197570801,0.06664470583200455,0.019429272040724754,0.0,0.0,-0.6,0.0,0.00020647048950195312,0.00020647048950195312,0.002930164337158203,0,0
0.7495648860931396,0.009748371317982674,0.00270226807333529,-0.017086874693632126,-0.015558909249091975,0.7607121324810054,0.04485305771231651,0.06230182573199272,0.019382821395993233,0.0,0.0,-0.6,0.0,0.0002052783966064453,0.0002052783966064453,0.0029892921447753906,0,0
0.7600188255310059,0.00971435196697712,0.0027635283768177032,-0.01863817684352398,-0.015440706530788493,0.7592084293115379,0.04043067619204521,0.05798012763261795,0.019325122237205505,0.0,0.0,-0.6,0.0,0.00025653839111328125,0.00025653839111328125,0.00377655029296875,0,0
0.7698006629943848,0.009630100801587105,0.0028984169475734234,-0.022019723430275917,-0.015194405048684786,0.7574274386209017,0.034925270825624466,0.05230661854147911,0.01923486217856407,0.0,0.0,-0.6,0.0,0.00029349327087402344,0.00029349327087402344,0.003838777542114258,0,0
0.7797412872314453,0.00957910530269146,0.0029706486966460943,-0.023845382034778595,-0.015075919564924807,0.7557130798345904,0.029808690771460533,0.04708094894886017,0.019133970141410828,0.0,0.0,-0.6,0.0,0.00024127960205078125,0.00024127960205078125,0.0033440589904785156,0,0
0.7896556854248047,0.009522947482764721,0.0030489489436149597,-0.02575695887207985,-0.014944392959239005,0.7540534233875538,0.024848783388733864,0.04210769757628441,0.019022777676582336,0.0,0.0,-0.6,0.0,0.00021195411682128906,0.00021195411682128906,0.0031845569610595703,0,0
0.7997567653656006,0.009390898048877716,0.0032259554136544466,-0.029831210151314735,-0.01467280634898189,0.7521626165233958,0.018836956471204758,0.035959985107183456,0.018870407715439796,0.0,0.0,-0.6,0.0,0.0002505779266357422,0.0002505779266357422,0.003301382064819336,0,0
0.8099164962768555,0.009313981048762798,0.003323010867461562,-0.03198825567960739,-0.014569022386931326,0.7503711689609426,0.01338612474501133,0.03031817078590393,0.01872049644589424,0.0,0.0,-0.6,0.0,0.00026607513427734375,0.00026607513427734375,0.0033168792724609375,0,0
0.8198192119598389,0.009233071468770504,0.0034276070073246956,-0.03422366455197334,-0.0144329450072135,0.7486608200571062,0.008296521380543709,0.025042831897735596,0.0185607448220253,0.0,0.0,-0.6,0.0,0.0002827644348144531,0.0002827644348144531,0.003425121307373047,0,0
0.8296635150909424,0.009048429317772388,0.0036595906130969524,-0.038957130163908005,-0.014139840135923062,0.7467575287530663,0.0024043149314820766,0.01896132528781891,0.01834435574710369,0.0,0.0,-0.6,0.0,0.000362396240234375,0.000362396240234375,0.004637956619262695,0,0
0.840017557144165,0.008945436216890812,0.003787681460380554,-0.04142934828996658,-0.013999957721568507,0.7449768118120166,-0.0029600171837955713,0.013518582098186016,0.01812688820064068,0.0,0.0,-0.6,0.0,0.00031757354736328125,0.00031757354736328125,0.0035691261291503906,0,0
0.8497393131256104,0.008834212087094784,0.003925072494894266,-0.04396792873740196,-0.013862145686080187,0.7432964707029195,-0.007868549786508083,0.008586352691054344,0.017909416928887367,0.0,0.0,-0.6,0.0,0.0002155303955078125,0.0002155303955078125,0.002972126007080078,0,0
0.8597688674926758,0.008639931678771973,0.004128430970013142,-0.0460948571562767,-0.01373391766397944,0.74171621553823,-0.012389189563691616,0.003943988587707281,0.017694957554340363,0.0,0.0,-0.6,0.0,0.0003063678741455078,0.0003063678741455078,0.0031974315643310547,0,0
0.8697199821472168,0.008229534141719341,0.004551898222416639,-0.050565727055072784,-0.013422265344580811,0.7400017485100849,-0.01741555519402027,-0.0016010053222998977,0.017410505563020706,0.0,0.0,-0.6,0.0,0.0002193450927734375,0.0002193450927734375,0.0030057430267333984,0,0
0.8796679973602295,0.00801162701100111,0.004772821441292763,-0.05290192365646362,-0.01326972577989467,0.738412711616421,-0.021888982504606247,-0.006666285917162895,0.01713164709508419,0.0,0.0,-0.6,0.0,0.00023484230041503906,0.00023484230041503906,0.003042936325073242,0,0
0.8899238109588623,0.007785660680383444,0.0050020981580019,-0.055324118584394455,-0.01310342454535465,0.7369304406580036,-0.025896523147821426,-0.011346317827701569,0.016851861029863358,0.0,0.0,-0.6,0.0,0.0002772808074951172,0.0002772808074951172,0.003324270248413086,0,0
0.8997330665588379,0.007550806738436222,0.005238747224211693,-0.057805951684713364,-0.012944560887212764,0.7355355318596571,-0.029616091400384903,-0.015731539577245712,0.016573773697018623,0.0,0.0,-0.6,0.0,0.00023174285888671875,0.00023174285888671875,0.003103494644165039,0,0
0.9095911979675293,0.007052994333207607,0.005737115629017353,-0.06294098496437073,-0.012630461200972777,0.734018734801563,-0.03393184021115303,-0.020700037479400635,0.016226638108491898,0.0,0.0,-0.6,0.0,0.00022912025451660156,0.00022912025451660156,0.003253936767578125,0,0
0.9199576377868652,0.006791580002754927,0.0059990971349179745,-0.06558827310800552,-0.012480475168046847,0.7326143690208571,-0.037714142352342606,-0.02498791180551052,0.01590106263756752,0.0,0.0,-0.6,0.0,0.0002541542053222656,0.0002541542053222656,0.003324270248413086,0,0
0.9296884536743164,0.006522818468511105,0.006269026547670364,-0.06828432530164719,-0.012325259420124635,0.7313022539967037,-0.04109758883714676,-0.02876211889088154,0.015589664690196514,0.0,0.0,-0.6,0.0,0.0002040863037109375,0.0002040863037109375,0.003185272216796875,0,0
0.9399182796478271,0.00624578632414341,0.006548271980136633,-0.07102828472852707,-0.012147754803188743,0.7300673918423732,-0.04417983070015907,-0.03219159319996834,0.015279818326234818,0.0,0.0,-0.6,0.0,0.0002391338348388672,0.0002391338348388672,0.003202676773071289,0,0
0.9496009349822998,0.005666358862072229,0.007132442202419043,-0.07673009485006332,-0.011864405321654826,0.7287148936757442,-0.047560472041368484,-0.03603344038128853,0.01491414662450552,0.0,0.0,-0.6,0.0,0.0001983642578125,0.0001983642578125,0.002995729446411133,0,0
0.9599180221557617,0.005363994278013706,0.007437546271830797,-0.0796433761715889,-0.011710621080756238,0.7274578916778787,-0.050391785800457,-0.03928881883621216,0.014575912617146969,0.0,0.0,-0.6,0.0,0.0006189346313476562,0.0006189346313476562,0.005014657974243164,0,0
0.9699563980102539,0.005054248031228781,0.007749748416244984,-0.08259545266628265,-0.011560641877756026,0.7262793111291121,-0.052810147404670715,-0.042132262140512466,0.014259872026741505,0.0,0.0,-0.6,0.0,0.0002872943878173828,0.0002872943878173828,0.003450632095336914,0,0
0.9796288013458252,0.004735931754112244,0.008069472387433052,-0.08558402210474014,-0.011407524062651166,0.7251714973264649,-0.054958563297986984,-0.04467740282416344,0.013957870192825794,0.0,0.0,-0.6,0.0,0.0002636909484863281,0.0002636909484863281,0.003014802932739258,0,0
0.9895846843719482,0.0040746210142970085,0.008733032271265984,-0.09165890514850616,-0.011079082260619575,0.7239701147493154,-0.057264294475317,-0.04731306806206703,0.013584889471530914,0.0,0.0,-0.6,0.0,0.00023174285888671875,0.00023174285888671875,0.0032694339752197266,0,0
1.0000238418579102,0.0037326894234865904,0.009077929891645908,-0.0947432667016983,-0.01092289611266951,0.7228472291379489,-0.0592089481651783,-0.049542807042598724,0.01324358582496643,0.0,0.0,-0.6,0.0,0.00023937225341796875,0.00023937225341796875,0.0032033920288085938,0,0
1.009685754776001,0.0033824241254478693,0.009431498125195503,-0.09786675125360489,-0.010779486757920386,0.7217938458031917,-0.06087206304073334,-0.051437858492136,0.01293101068586111,0.0,0.0,-0.6,0.0,0.00020694732666015625,0.00020694732666015625,0.002955198287963867,0,0
1.0198478698730469,0.003023246768862009,0.00979345291852951,-0.10101728141307831,-0.010640307836665393,0.720803074738393,-0.06226388365030289,-0.053196027874946594,0.012638969346880913,0.0,0.0,-0.6,0.0,0.0002231597900390625,0.0002231597900390625,0.003390073776245117,0,0
1.0297486782073975,0.002275796141475439,0.010540571995079517,-0.10739383101463318,-0.010367080264655833,0.7197200360488939,-0.06339973956346512,-0.05499381944537163,0.012302163057029247,0.0,0.0,-0.6,0.0,0.0003609657287597656,0.0003609657287597656,0.004452943801879883,0,0
1.0397553443908691,0.0018875959794968367,0.010922462679445744,-0.11061645299196243,-0.010209828989557258,0.718717480270209,-0.0642215684056282,-0.056532781571149826,0.01199191715568304,0.0,0.0,-0.6,0.0,0.00023031234741210938,0.00023031234741210938,0.003782510757446289,0,0
1.0500187873840332,0.0014906527940183878,0.011310672387480736,-0.11385800689458847,-0.010059834314632315,0.71778829014605,-0.06483525782823563,-0.05781087279319763,0.011704431846737862,0.0,0.0,-0.6,0.0,0.00034618377685546875,0.00034618377685546875,0.004090785980224609,0,0
1.0597872734069824,0.0010859027970582247,0.011705383658409119,-0.11711613833904266,-0.00992249404657045,0.7169165349042704,-0.06525404751300812,-0.058754466474056244,0.011442211456596851,0.0,0.0,-0.6,0.0,0.0002522468566894531,0.0002522468566894531,0.0036427974700927734,0,0
1.0696063041687012,0.0002551572979427874,0.012512821704149246,-0.12368591129779816,-0.0096645199340184,0.715961434444055,-0.06536013633012772,-0.059480708092451096,0.011146270669996738,0.0,0.0,-0.6,0.0,0.00027060508728027344,0.00027060508728027344,0.003984928131103516,0,0
1.0799510478973389,-0.00017111825582105666,0.0129238935187459,-0.12699423730373383,-0.009530000469621946,0.7150742297484323,-0.06529179960489273,-0.06004496291279793,0.010881240479648113,0.0,0.0,-0.6,0.0,0.0003101825714111328,0.0003101825714111328,0.0036787986755371094,0,0
1.0896925926208496,-0.000604454951826483,0.01333962194621563,-0.1303151398897171,-0.009421961911028032,0.7142512665019318,-0.06503254175186157,-0.060414113104343414,0.010651183314621449,0.0,0.0,-0.6,0.0,0.0002079010009765625,0.0002079010009765625,0.002993345260620117,0,0
1.0997679233551025,-0.0010452000424265862,0.013758618384599686,-0.133646160364151,-0.009304112009412027,0.7134821755883776,-0.06458887457847595,-0.06069263815879822,0.010441395454108715,0.0,0.0,-0.6,0.0,0.0002505779266357422,0.0002505779266357422,0.003208637237548828,0,0
1.1095836162567139,-0.001492900773882866,0.014181016944348812,-0.13698607683181763,-0.00916692912666293,0.7127591125296596,-0.06399840861558914,-0.06083863228559494,0.010240812785923481,0.0,0.0,-0.6,0.0,0.00020599365234375,0.00020599365234375,0.003003835678100586,0,0
1.119638204574585,-0.0024035999085754156,0.015033791773021221,-0.14369282126426697,-0.008934418261039679,0.7119623990678386,-0.06295477598905563,-0.06050354242324829,0.01002001017332077,0.0,0.0,-0.6,0.0,0.00025916099548339844,0.00025916099548339844,0.002975940704345703,0,0
1.1298916339874268,-0.0028656439390033484,0.015465241856873035,-0.14705631136894226,-0.008799397486543547,0.711227811715057,-0.06193628907203674,-0.06005677953362465,0.009817075915634632,0.0,0.0,-0.6,0.0,0.00024080276489257812,0.00024080276489257812,0.003304004669189453,0,0
1.1396479606628418,-0.0033319159410893917,0.01589968614280224,-0.1504240483045578,-0.008663874830689915,0.7105412929024653,-0.06087937578558922,-0.05944322422146797,0.009630451910197735,0.0,0.0,-0.6,0.0,0.0002694129943847656,0.0002694129943847656,0.0033218860626220703,0,0
1.1495819091796875,-0.004273421596735716,0.01677640713751316,-0.15716879069805145,-0.00846235195166571,0.7098086579556926,-0.05933118984103203,-0.05829606577754021,0.009443037211894989,0.0,0.0,-0.6,0.0,0.00031828880310058594,0.00031828880310058594,0.0037610530853271484,0,0
1.1599225997924805,-0.004748606123030186,0.017216116189956665,-0.16054333746433258,-0.008346410810622684,0.7091317491607902,-0.05776861310005188,-0.057075731456279755,0.009280301630496979,0.0,0.0,-0.6,0.0,0.00026679039001464844,0.00026679039001464844,0.003582000732421875,0,0
1.169731616973877,-0.005226587411016226,0.017657941207289696,-0.16391891241073608,-0.008217264063202443,0.7084999226963475,-0.05632277578115463,-0.055869922041893005,0.0091250566765666,0.0,0.0,-0.6,0.0,0.0001976490020751953,0.0001976490020751953,0.0029172897338867188,0,0
1.1798326969146729,-0.005711961537599564,0.01810270920395851,-0.16729582846164703,-0.00809967446578432,0.7079039624237524,-0.05498143285512924,-0.054671771824359894,0.0089793149381876,0.0,0.0,-0.6,0.0,0.0002467632293701172,0.0002467632293701172,0.0032215118408203125,0,0
1.1896915435791016,-0.006200999952852726,0.01855047047138214,-0.17067289352416992,-0.007979557229958838,0.7073430575040576,-0.05366887152194977,-0.05353640764951706,0.008838756941258907,0.0,0.0,-0.6,0.0,0.0002040863037109375,0.0002040863037109375,0.003010272979736328,0,0
1.1998450756072998,-0.007191244047135115,0.01945103146135807,-0.17741996049880981,-0.0077429813964296525,0.7067346992661218,-0.051813725382089615,-0.05209525674581528,0.00867115706205368,0.0,0.0,-0.6,0.0,0.0002231597900390625,0.0002231597900390625,0.002980470657348633,0,0
1.2098841667175293,-0.007691238075494766,0.019902318716049194,-0.18078920245170593,-0.00763298409703302,0.7061699572670764,-0.050032876431941986,-0.05066189542412758,0.008524908684194088,0.0,0.0,-0.6,0.0,0.0002391338348388672,0.0002391338348388672,0.003192901611328125,0,0
1.219630479812622,-0.008193086832761765,0.02035375125706196,-0.18415382504463196,-0.007523945390948885,0.7056451995140293,-0.04828161746263504,-0.049236662685871124,0.008394249714910984,0.0,0.0,-0.6,0.0,0.0001983642578125,0.0001983642578125,0.002895355224609375,0,0
1.2297418117523193,-0.008697365410625935,0.020804306492209435,-0.18751280009746552,-0.007440743979716153,0.7051542165945602,-0.04647492617368698,-0.04784237965941429,0.0082847336307168,0.0,0.0,-0.6,0.0,0.00023794174194335938,0.00023794174194335938,0.0030510425567626953,0,0
1.2398200035095215,-0.009707871824502945,0.021701853722333908,-0.19421200454235077,-0.007247434041919813,0.7046265438077469,-0.04418307542800903,-0.0458655059337616,0.008169003762304783,0.0,0.0,-0.6,0.0,0.00022840499877929688,0.00022840499877929688,0.0031528472900390625,0,0
1.2496581077575684,-0.010209890082478523,0.02214708924293518,-0.19754867255687714,-0.007149943238388705,0.7041428666598989,-0.04198908805847168,-0.04388349503278732,0.008070306852459908,0.0,0.0,-0.6,0.0,0.0002319812774658203,0.0002319812774658203,0.003129243850708008,0,0
1.2597424983978271,-0.010690056718885899,0.022507043555378914,-0.2007243037223816,-0.007064616474735901,0.7036986375501703,-0.03972403705120087,-0.04189188778400421,0.007990448735654354,0.0,0.0,-0.6,0.0,0.00024008750915527344,0.00024008750915527344,0.003156423568725586,0,0
1.2695817947387695,-0.01117000076919794,0.02286500670015812,-0.20389431715011597,-0.006967887402776257,0.7032885533853946,-0.03746652975678444,-0.040055327117443085,0.007913383655250072,0.0,0.0,-0.6,0.0,0.00021767616271972656,0.00021767616271972656,0.0033273696899414062,0,0
1.279792308807373,-0.012133580632507801,0.02357528917491436,-0.21021613478660583,-0.006809845252901032,0.702847471503772,-0.03466299548745155,-0.03784685581922531,0.00783297885209322,0.0,0.0,-0.6,0.0,0.00022220611572265625,0.00022220611572265625,0.0033054351806640625,0,0
1.2899608612060547,-0.012615025043487549,0.023929186165332794,-0.2133668214082718,-0.006741242586106837,0.7024473892411889,-0.03212206810712814,-0.03567375987768173,0.007769492920488119,0.0,0.0,-0.6,0.0,0.0002346038818359375,0.0002346038818359375,0.0032575130462646484,0,0
1.2996387481689453,-0.013094577006995678,0.024281160905957222,-0.21653331816196442,-0.006660970753798533,0.7020801861410118,-0.029709573835134506,-0.03353186696767807,0.007713804952800274,0.0,0.0,-0.6,0.0,0.00020766258239746094,0.00020766258239746094,0.002852201461791992,0,0
1.3096809387207031,-0.01404839102178812,0.024977419525384903,-0.22283390164375305,-0.006457429044804562,0.7016983924768716,-0.026706362143158913,-0.030788840726017952,0.007639943156391382,0.0,0.0,-0.6,0.0,0.00022029876708984375,0.00022029876708984375,0.003125429153442383,0,0
1.319796085357666,-0.014519703574478626,0.025320272892713547,-0.22596630454063416,-0.006382325420418209,0.7013523335587163,-0.02401198074221611,-0.02833942323923111,0.0075739226303994656,0.0,0.0,-0.6,0.0,0.00023436546325683594,0.00023436546325683594,0.0031690597534179688,0,0
1.3296914100646973,-0.014989801682531834,0.02566053904592991,-0.22908559441566467,-0.00631107715263581,0.7010370231768317,-0.021544646471738815,-0.02614801563322544,0.007513730321079493,0.0,0.0,-0.6,0.0,0.0001766681671142578,0.0001766681671142578,0.00274658203125,0,0
1.3397159576416016,-0.015458992682397366,0.025996774435043335,-0.23219159245491028,-0.0062285528979396845,0.7007457851902813,-0.019068926572799683,-0.024156756699085236,0.007454459555447102,0.0,0.0,-0.6,0.0,0.0002086162567138672,0.0002086162567138672,0.002927541732788086,0,0
1.3499305248260498,-0.016393639147281647,0.02665852941572666,-0.2383657544851303,-0.006059832548406191,0.7004396057792243,-0.016300911083817482,-0.021804997697472572,0.007377916015684605,0.0,0.0,-0.6,0.0,0.000400543212890625,0.000400543212890625,0.006821632385253906,0,0
1.3598217964172363,-0.016857748851180077,0.026985585689544678,-0.24143368005752563,-0.005999246165609696,0.7001556489208834,-0.013812761753797531,-0.01966952532529831,0.007313557900488377,0.0,0.0,-0.6,0.0,0.0005066394805908203,0.0005066394805908203,0.0034165382385253906,0,0
1.3700354099273682,-0.017318742349743843,0.02730889618396759,-0.24448734521865845,-0.005957360016930387,0.6998958525958239,-0.01152913086116314,-0.017691297456622124,0.007264787796884775,0.0,0.0,-0.6,0.0,0.00034999847412109375,0.00034999847412109375,0.005031585693359375,0,0
1.3797869682312012,-0.01777579076588154,0.027629291638731956,-0.24752551317214966,-0.0058860210137313285,0.699655042815338,-0.009488364681601524,-0.015819575637578964,0.007215447723865509,0.0,0.0,-0.6,0.0,0.0002465248107910156,0.0002465248107910156,0.003321409225463867,0,0
1.389716625213623,-0.01822909153997898,0.027946624904870987,-0.2505490779876709,-0.005811944888475289,0.6994279986340233,-0.007525213528424501,-0.014082523062825203,0.007163768634200096,0.0,0.0,-0.6,0.0,0.00021076202392578125,0.00021076202392578125,0.003052234649658203,0,0
1.3998610973358154,-0.01867813989520073,0.028259839862585068,-0.25355613231658936,-0.005724957111391148,0.6992210661012384,-0.005663460120558739,-0.012335243634879589,0.007107942830771208,0.0,0.0,-0.6,0.0,0.00039005279541015625,0.00039005279541015625,0.003937482833862305,0,0
1.409675121307373,-0.019564209505915642,0.028871627524495125,-0.25952133536338806,-0.005547552630048126,0.6989956195123975,-0.0034008293878287077,-0.010309848934412003,0.00702347606420517,0.0,0.0,-0.6,0.0,0.00020051002502441406,0.00020051002502441406,0.0028684139251708984,0,0
1.419726848602295,-0.020002257078886032,0.029172878712415695,-0.26250210404396057,-0.005469065846395029,0.6987918220663004,-0.0015655562747269869,-0.00851941853761673,0.006941923871636391,0.0,0.0,-0.6,0.0,0.00022029876708984375,0.00022029876708984375,0.003134489059448242,0,0
1.4296021461486816,-0.020867086946964264,0.029765328392386436,-0.2684042751789093,-0.005344672118492914,0.6985854681873445,0.0004984991392120719,-0.006486175581812859,0.006857017520815134,0.0,0.0,-0.6,0.0,0.00021958351135253906,0.00021958351135253906,0.003310680389404297,0,0
1.439622163772583,-0.021293744444847107,0.03005414828658104,-0.27132707834243774,-0.005266598366248695,0.6983974965516864,0.0022502236533910036,-0.004688705317676067,0.006775289308279753,0.0,0.0,-0.6,0.0,0.00022029876708984375,0.00022029876708984375,0.003378629684448242,0,0
1.4499781131744385,-0.021717123687267303,0.030339164659380913,-0.2742301821708679,-0.005188054318016788,0.6982293686654232,0.0038374504074454308,-0.0030948009807616472,0.0066951182670891285,0.0,0.0,-0.6,0.0,0.00031757354736328125,0.00031757354736328125,0.00371551513671875,0,0
1.4596366882324219,-0.022136708721518517,0.03061964549124241,-0.2771131098270416,-0.0051008560656677585,0.6980762025019916,0.005247270222753286,-0.0016227151500061154,0.006613282952457666,0.0,0.0,-0.6,0.0,0.00019073486328125,0.00019073486328125,0.003495454788208008,0,0
1.4696662425994873,-0.02295905165374279,0.031166505068540573,-0.28282418847084045,-0.004997096985737727,0.6979010746953535,0.006610228214412928,0.00021910897339694202,0.006534457206726074,0.0,0.0,-0.6,0.0,0.0003249645233154297,0.0003249645233154297,0.0038619041442871094,0,0
1.4801111221313477,-0.02335946075618267,0.03143466264009476,-0.28565269708633423,-0.004929784242468468,0.6977450642279149,0.0077287727035582066,0.001894805463962257,0.006461140234023333,0.0,0.0,-0.6,0.0,0.0002865791320800781,0.0002865791320800781,0.004366159439086914,0,0
1.489835500717163,-0.02375435084104538,0.0316983126103878,-0.288459450006485,-0.004864925987427178,0.69760884837118,0.008746804669499397,0.003369928104802966,0.006390888709574938,0.0,0.0,-0.6,0.0,0.00031280517578125,0.00031280517578125,0.0038754940032958984,0,0
1.499720811843872,-0.024143468588590622,0.03195757791399956,-0.29124560952186584,-0.0047803580996922425,0.6974822098329216,0.00959755014628172,0.004741618875414133,0.006316285114735365,0.0,0.0,-0.6,0.0,0.0002391338348388672,0.0002391338348388672,0.003122091293334961,0,0
1.5097837448120117,-0.024902136996388435,0.03246253356337547,-0.2967553436756134,-0.004658568777707656,0.697358882498966,0.010572986677289009,0.0063335467129945755,0.006230540573596954,0.0,0.0,-0.6,0.0,0.0002608299255371094,0.0002608299255371094,0.0038869380950927734,0,0
1.5197060108184814,-0.025272972881793976,0.03270804509520531,-0.29947730898857117,-0.004612201203722614,0.6972491376602423,0.011380712501704693,0.0077043622732162476,0.006157314404845238,0.0,0.0,-0.6,0.0,0.0003001689910888672,0.0003001689910888672,0.0037529468536376953,0,0
1.530003309249878,-0.0256371907889843,0.032949380576610565,-0.3021779954433441,-0.004571971055834628,0.6971506288023613,0.01207296084612608,0.008996325545012951,0.00609680637717247,0.0,0.0,-0.6,0.0,0.00028705596923828125,0.00028705596923828125,0.0036106109619140625,0,0
1.539602518081665,-0.02599402889609337,0.03318756818771362,-0.3048706352710724,-0.004515329292672163,0.6970610077026727,0.012611537240445614,0.010171976871788502,0.006037942133843899,0.0,0.0,-0.6,0.0,0.0001957416534423828,0.0001957416534423828,0.002912282943725586,0,0
1.5496973991394043,-0.026689011603593826,0.03364911302924156,-0.3101915717124939,-0.004430954818266099,0.6969727489067615,0.013257268816232681,0.011385291814804077,0.005971211474388838,0.0,0.0,-0.6,0.0,0.0002357959747314453,0.0002357959747314453,0.003094196319580078,0,0
1.559814453125,-0.027027856558561325,0.03387252613902092,-0.3128170371055603,-0.004382757253534558,0.6968974996823618,0.013712686486542225,0.012378301471471786,0.005908549763262272,0.0,0.0,-0.6,0.0,0.0002636909484863281,0.0002636909484863281,0.003352642059326172,0,0
1.5697004795074463,-0.027361076325178146,0.03409259021282196,-0.3154199421405792,-0.004337772105381054,0.6968298516621977,0.01407095231115818,0.013268060982227325,0.0058509777300059795,0.0,0.0,-0.6,0.0,0.00019168853759765625,0.00019168853759765625,0.002902984619140625,0,0
1.579756736755371,-0.027688367292284966,0.03430873900651932,-0.3180006146430969,-0.004279389695710218,0.6967695714571435,0.014340698719024658,0.014094637706875801,0.005792129319161177,0.0,0.0,-0.6,0.0,0.00021958351135253906,0.00021958351135253906,0.0030019283294677734,0,0
1.5896949768066406,-0.028008466586470604,0.03452024236321449,-0.320559024810791,-0.00423055600591532,0.6967136013022497,0.014619245193898678,0.014904475770890713,0.005736174993216991,0.0,0.0,-0.6,0.0,0.0002143383026123047,0.0002143383026123047,0.003206491470336914,0,0
1.5996606349945068,-0.028632666915655136,0.034927912056446075,-0.32572731375694275,-0.004126151491678341,0.6966456238504044,0.014971958473324776,0.015663564205169678,0.005659802351146936,0.0,0.0,-0.6,0.0,0.0002295970916748047,0.0002295970916748047,0.0031087398529052734,0,0
1.6098637580871582,-0.028935320675373077,0.03512366861104965,-0.3282780945301056,-0.004066187278984745,0.6965804651759921,0.015281716361641884,0.016345757991075516,0.005585705861449242,0.0,0.0,-0.6,0.0,0.00024199485778808594,0.00024199485778808594,0.003358125686645508,0,0
1.6196084022521973,-0.029232867062091827,0.03531404212117195,-0.3308066725730896,-0.004010010844057623,0.6965207153615026,0.015567272901535034,0.016813846305012703,0.005511590279638767,0.0,0.0,-0.6,0.0,0.0002086162567138672,0.0002086162567138672,0.003537893295288086,0,0
1.6296968460083008,-0.029818085953593254,0.035680510103702545,-0.3357924222946167,-0.0039468169572186036,0.6964632367535868,0.015776362270116806,0.017151154577732086,0.005434754770249128,0.0,0.0,-0.6,0.0,0.0003590583801269531,0.0003590583801269531,0.004288196563720703,0,0
1.639796495437622,-0.03010229952633381,0.03585639223456383,-0.33825036883354187,-0.003905817007447693,0.6964133270482106,0.01594446785748005,0.017491379752755165,0.005366796627640724,0.0,0.0,-0.6,0.0,0.0002655982971191406,0.0002655982971191406,0.003369569778442383,0,0
1.6496965885162354,-0.03038203902542591,0.03602916747331619,-0.34068599343299866,-0.003864077689993184,0.6963642775137519,0.015929419547319412,0.017681635916233063,0.005302876234054565,0.0,0.0,-0.6,0.0,0.00028252601623535156,0.00028252601623535156,0.0031294822692871094,0,0
1.6596829891204834,-0.030914800241589546,0.036359578371047974,-0.34329405426979065,-0.0038275657561561293,0.6963095346660118,0.015762172639369965,0.01765863411128521,0.005242045968770981,0.0,0.0,-0.6,0.0,0.00022339820861816406,0.00022339820861816406,0.0031104087829589844,0,0
1.6698555946350098,-0.031436920166015625,0.03668344393372536,-0.34587523341178894,-0.003787924359193012,0.6962584771919229,0.01541048288345337,0.017501164227724075,0.005182942841202021,0.0,0.0,-0.6,0.0,0.0002586841583251953,0.0002586841583251953,0.0033571720123291016,0,0
1.6796705722808838,-0.03194752708077431,0.0370013602077961,-0.3484271466732025,-0.0037674068579433397,0.6962158940890342,0.014967648312449455,0.0173689853399992,0.0051339175552129745,0.0,0.0,-0.6,0.0,0.00020313262939453125,0.00020313262939453125,0.003290891647338867,0,0
1.6899518966674805,-0.0329320915043354,0.03761456534266472,-0.3534468412399292,-0.003685040062687755,0.6961642811003267,0.0144211919978261,0.017003696411848068,0.005063969176262617,0.0,0.0,-0.6,0.0,0.00023412704467773438,0.00023412704467773438,0.0033407211303710938,0,0
1.6995844841003418,-0.03340987488627434,0.037910111248493195,-0.35591670870780945,-0.0036175359135283062,0.696119416293812,0.013870669528841972,0.016449423506855965,0.004984664265066385,0.0,0.0,-0.6,0.0,0.0001850128173828125,0.0001850128173828125,0.002871990203857422,0,0
1.7097322940826416,-0.03433883562684059,0.03848259523510933,-0.36077219247817993,-0.00351491664452882,0.6960768257523893,0.013118275441229343,0.015542135573923588,0.004882243927568197,0.0,0.0,-0.6,0.0,0.00020694732666015625,0.00020694732666015625,0.0030770301818847656,0,0
1.7198574542999268,-0.03478967398405075,0.03875894844532013,-0.36316046118736267,-0.003453112626780342,0.6960373734944861,0.012506318278610706,0.01467445120215416,0.004782774019986391,0.0,0.0,-0.6,0.0,0.00023293495178222656,0.00023293495178222656,0.003314971923828125,0,0
1.7297134399414062,-0.03523204103112221,0.03902725130319595,-0.36552202701568604,-0.0034071423587960083,0.6960045540070735,0.011966967023909092,0.013759268447756767,0.004690125584602356,0.0,0.0,-0.6,0.0,0.00017547607421875,0.00017547607421875,0.002921581268310547,0,0
1.7397570610046387,-0.035666242241859436,0.03928946331143379,-0.36785566806793213,-0.0033319809187244294,0.6959828044625085,0.011367297731339931,0.012888263911008835,0.004593291785567999,0.0,0.0,-0.6,0.0,0.0002295970916748047,0.0002295970916748047,0.0031151771545410156,0,0
1.7496509552001953,-0.03650026023387909,0.03979998826980591,-0.372439444065094,-0.00325629930683449,0.6959674930548357,0.010457069613039494,0.012059187516570091,0.004494295921176672,0.0,0.0,-0.6,0.0,0.0002071857452392578,0.0002071857452392578,0.003167867660522461,0,0
1.759678602218628,-0.03689943253993988,0.04004799574613571,-0.3746916651725769,-0.003208635996220853,0.6959566963723591,0.009615504182875156,0.011260484345257282,0.004403268452733755,0.0,0.0,-0.6,0.0,0.0002079010009765625,0.0002079010009765625,0.002942323684692383,0,0
1.7699925899505615,-0.03729148581624031,0.040292009711265564,-0.37691691517829895,-0.0031439766723267803,0.6959539481025269,0.008752254769206047,0.010430186055600643,0.004310695454478264,0.0,0.0,-0.6,0.0,0.0002655982971191406,0.0002655982971191406,0.0037300586700439453,0,0
1.7797555923461914,-0.037676289677619934,0.04053211957216263,-0.37911489605903625,-0.003087870567207484,0.6959547333234473,0.007981800474226475,0.009643478319048882,0.004220976494252682,0.0,0.0,-0.6,0.0,0.000278472900390625,0.000278472900390625,0.0045855045318603516,0,0
1.7896296977996826,-0.038053445518016815,0.04076758399605751,-0.38128700852394104,-0.003053874595397043,0.6959592483287068,0.007245655171573162,0.0088953310623765,0.0041418178007006645,0.0,0.0,-0.6,0.0,0.0002853870391845703,0.0002853870391845703,0.0034809112548828125,0,0
1.799790620803833,-0.038423601537942886,0.040998026728630066,-0.3834325969219208,-0.003002713945669324,0.6959685138245105,0.006684776395559311,0.008128583431243896,0.004062308929860592,0.0,0.0,-0.6,0.0,0.000263214111328125,0.000263214111328125,0.003161191940307617,0,0
1.809720516204834,-0.03914673998951912,0.04144302383065224,-0.38764333724975586,-0.0029179218090228504,0.695990852648446,0.005937707144767046,0.007101783528923988,0.003966087009757757,0.0,0.0,-0.6,0.0,0.00019598007202148438,0.00019598007202148438,0.002842426300048828,0,0
1.8197035789489746,-0.039497844874858856,0.04166127368807793,-0.38971027731895447,-0.0028581737583975243,0.6960118953256917,0.0051207575015723705,0.006247438956052065,0.0038738988805562258,0.0,0.0,-0.6,0.0,0.00023436546325683594,0.00023436546325683594,0.003087759017944336,0,0
1.829712152481079,-0.04017769545316696,0.042086679488420486,-0.39377546310424805,-0.002777713697999127,0.6960451070762259,0.004342124797403812,0.005413990002125502,0.0037745621521025896,0.0,0.0,-0.6,0.0,0.000209808349609375,0.000209808349609375,0.0031862258911132812,0,0
1.839709997177124,-0.04050762951374054,0.04229248687624931,-0.39577239751815796,-0.0027258397650934646,0.6960822429246868,0.003698397194966674,0.004555683583021164,0.003680074354633689,0.0,0.0,-0.6,0.0,0.000244140625,0.000244140625,0.002989530563354492,0,0
1.8498055934906006,-0.04083135724067688,0.04249366372823715,-0.39774298667907715,-0.0026682431517202508,0.6961219284757832,0.0031912813428789377,0.0037992552388459444,0.003589067840948701,0.0,0.0,-0.6,0.0,0.00024437904357910156,0.00024437904357910156,0.0031087398529052734,0,0
1.8597354888916016,-0.041148874908685684,0.04269033670425415,-0.39968767762184143,-0.0026026916403544056,0.6961648698605083,0.002705601043999195,0.0031031882390379906,0.0034974764566868544,0.0,0.0,-0.6,0.0,0.00024509429931640625,0.00024509429931640625,0.0035829544067382812,0,0
1.869600534439087,-0.04146040230989456,0.042882803827524185,-0.4016062021255493,-0.0025360770131121666,0.6962107525649224,0.002352820709347725,0.002491125836968422,0.0034057563170790672,0.0,0.0,-0.6,0.0,0.0002193450927734375,0.0002193450927734375,0.0029909610748291016,0,0
1.8800508975982666,-0.04176604375243187,0.04307045415043831,-0.40350010991096497,-0.002475947350015054,0.6962530219722873,0.001999467611312866,0.0019087542314082384,0.0033159684389829636,0.0,0.0,-0.6,0.0,0.00023555755615234375,0.00023555755615234375,0.0033884048461914062,0,0
1.889695167541504,-0.04235763102769852,0.04343312978744507,-0.4072154462337494,-0.0023971945968701627,0.6963042760151423,0.0016118470812216401,0.0014572781510651112,0.003222687868401408,0.0,0.0,-0.6,0.0,0.00018668174743652344,0.00018668174743652344,0.002736330032348633,0,0
1.8998661041259766,-0.04263788089156151,0.043609149754047394,-0.4090460538864136,-0.0023527124889223816,0.6963503076536105,0.0012472567614167929,0.0010203595738857985,0.0031383077148348093,0.0,0.0,-0.6,0.0,0.0002415180206298828,0.0002415180206298828,0.0030269622802734375,0,0
1.909712791442871,-0.04291284829378128,0.04378167912364006,-0.410852313041687,-0.002297135178562507,0.6964012022843763,0.0009446326293982565,0.0006561017362400889,0.0030571885872632265,0.0,0.0,-0.6,0.0,0.00028634071350097656,0.00028634071350097656,0.0047643184661865234,0,0
1.919787883758545,-0.04344318062067032,0.044115517288446426,-0.41438934206962585,-0.002159601643252555,0.6964690436545541,0.0005633909604512155,0.0003675139450933784,0.002948164474219084,0.0,0.0,-0.6,0.0,0.0002582073211669922,0.0002582073211669922,0.0038869380950927734,0,0
1.9301514625549316,-0.04369884729385376,0.04427695646882057,-0.4161205589771271,-0.0021040001037256283,0.6965367223173079,0.00025954368175007403,0.00017717671289574355,0.002851170254871249,0.0,0.0,-0.6,0.0,0.00044083595275878906,0.00044083595275878906,0.005426883697509766,0,0
1.9398558139801025,-0.04394767805933952,0.04443611577153206,-0.41782787442207336,-0.0020706571170838644,0.6966034537334118,-0.0001424939837306738,0.00015336449723690748,0.0027728937566280365,0.0,0.0,-0.6,0.0,0.0002410411834716797,0.0002410411834716797,0.0031883716583251953,0,0
1.949617862701416,-0.044422294944524765,0.0447457954287529,-0.4211699366569519,-0.0019844154668896435,0.6966879486348466,-0.00042250941623933613,0.0002530099300201982,0.002688033739104867,0.0,0.0,-0.6,0.0,0.0002243518829345703,0.0002243518829345703,0.0030100345611572266,0,0
1.960012435913086,-0.044652309268713,0.044894952327013016,-0.4228033721446991,-0.0019492319682993568,0.6967767096244719,-0.0005851481691934168,0.00020462747488636523,0.0026131223421543837,0.0,0.0,-0.6,0.0,0.00022935867309570312,0.00022935867309570312,0.003233671188354492,0,0
1.9697117805480957,-0.04487569257616997,0.045040737837553024,-0.42441150546073914,-0.0019097986468262092,0.6968653430787413,-0.0006848560879006982,0.0001840548648033291,0.0025461530312895775,0.0,0.0,-0.6,0.0,0.00019025802612304688,0.00019025802612304688,0.002765178680419922,0,0
1.9797322750091553,-0.04509345069527626,0.04518308490514755,-0.42599523067474365,-0.0018545028650335407,0.6969556527812573,-0.000725777295883745,0.00022811013332102448,0.002479689195752144,0.0,0.0,-0.6,0.0,0.00031185150146484375,0.00031185150146484375,0.0031347274780273438,0,0
1.9897491931915283,-0.045304954051971436,0.045321520417928696,-0.42755430936813354,-0.0018001788481326263,0.6970468148107739,-0.0007070812280289829,0.0003509063390083611,0.0024146020878106356,0.0,0.0,-0.6,0.0,0.00022673606872558594,0.00022673606872558594,0.003383159637451172,0,0
1.9995872974395752,-0.045510437339544296,0.045455943793058395,-0.42908981442451477,-0.0017759544538355654,0.6971352222176612,-0.0006436819094233215,0.00048068075557239354,0.002360809361562133,0.0,0.0,-0.6,0.0,0.0002384185791015625,0.0002384185791015625,0.003028392791748047,0,0
2.0098750591278076,-0.04590608924627304,0.04571392387151718,-0.43210089206695557,-0.0016989119789653916,0.6972356928788375,-0.0005016613285988569,0.0006631764117628336,0.002296049613505602,0.0,0.0,-0.6,0.0,0.0003066062927246094,0.0003066062927246094,0.004050016403198242,0,0
2.019594669342041,-0.04609661549329758,0.04583904892206192,-0.43357229232788086,-0.0016643655687674887,0.6973318004444574,-0.0004125984269194305,0.0007819687598384917,0.0022375716362148523,0.0,0.0,-0.6,0.0,0.0003018379211425781,0.0003018379211425781,0.003867626190185547,0,0
2.0296666622161865,-0.04646313935518265,0.04607861489057541,-0.4364470839500427,-0.0015564414776132129,0.6974475296218554,-0.00018762632680591196,0.000940983125474304,0.0021575980354100466,0.0,0.0,-0.6,0.0,0.0003883838653564453,0.0003883838653564453,0.0046536922454833984,0,0
2.040048599243164,-0.0466451495885849,0.04619254544377327,-0.43785008788108826,-0.001542158666593248,0.697557482254414,0.00010387847578385845,0.0011252291733399034,0.0020976148080080748,0.0,0.0,-0.6,0.0,0.0003008842468261719,0.0003008842468261719,0.0035681724548339844,0,0
2.0496938228607178,-0.04682134464383125,0.046301983296871185,-0.43923166394233704,-0.0015350552348367397,0.6976637762867259,0.0004260718997102231,0.001415963633917272,0.0020560200791805983,0.0,0.0,-0.6,0.0,0.00020623207092285156,0.00020623207092285156,0.002957582473754883,0,0
2.059797525405884,-0.0473102331161499,0.046502333134412766,-0.44108328223228455,-0.0015059091945156067,0.6977531729802144,0.0006296331994235516,0.0015115449205040932,0.0020138544496148825,0.0,0.0,-0.6,0.0,0.00034809112548828125,0.00034809112548828125,0.004964590072631836,0,0
2.0696988105773926,-0.04825564846396446,0.04688799008727074,-0.44468748569488525,-0.00142251356808181,0.6978301432635896,0.0008399913203902543,0.0012670386349782348,0.0019470304250717163,0.0,0.0,-0.6,0.0,0.0003600120544433594,0.0003600120544433594,0.004446506500244141,0,0
2.079629898071289,-0.048711977899074554,0.047072045505046844,-0.44643962383270264,-0.0014106440858037644,0.6978967665055423,0.0010222701821476221,0.0009653384331613779,0.0018933132523670793,0.0,0.0,-0.6,0.0,0.000270843505859375,0.000270843505859375,0.0029630661010742188,0,0
2.0899744033813477,-0.04915726184844971,0.04725055396556854,-0.4481618106365204,-0.00139059548716881,0.6979439986615602,0.0011958761606365442,0.0006285990821197629,0.0018458092818036675,0.0,0.0,-0.6,0.0,0.0002636909484863281,0.0002636909484863281,0.0032062530517578125,0,0
2.099691867828369,-0.04959208890795708,0.04742339625954628,-0.44985559582710266,-0.00135568214326456,0.6979820251734998,0.0013236405793577433,0.000290462194243446,0.0017975454684346914,0.0,0.0,-0.6,0.0,0.0002448558807373047,0.0002448558807373047,0.0028848648071289062,0,0
2.1095712184906006,-0.0504269041121006,0.04775827378034592,-0.4531535804271698,-0.0012951741974553822,0.6980162122413304,0.0013600126840174198,-6.67124695610255e-05,0.0017388109117746353,0.0,0.0,-0.6,0.0,0.0002269744873046875,0.0002269744873046875,0.0029120445251464844,0,0
2.1199424266815186,-0.05082963407039642,0.04791918396949768,-0.4547744393348694,-0.0012756776700666962,0.6980450331904835,0.0014225100167095661,-0.0005311277345754206,0.0016863198252394795,0.0,0.0,-0.6,0.0,0.00023317337036132812,0.00023317337036132812,0.003111124038696289,0,0
2.129699230194092,-0.05122405290603638,0.048074837774038315,-0.4563659727573395,-0.0012394607015386743,0.6980756151518476,0.0014921961119398475,-0.0009534346172586083,0.001634180429391563,0.0,0.0,-0.6,0.0,0.00018930435180664062,0.00018930435180664062,0.002768278121948242,0,0
2.1398439407348633,-0.05160798504948616,0.048225484788417816,-0.4579274356365204,-0.0012093478669375005,0.6981072531308057,0.0015825465088710189,-0.0012776299845427275,0.001585881458595395,0.0,0.0,-0.6,0.0,0.0002224445343017578,0.0002224445343017578,0.003174304962158203,0,0
2.1501455307006836,-0.052343275398015976,0.04851190000772476,-0.4609610140323639,-0.0011202025938473173,0.6981547860534321,0.0016419842140749097,-0.0015891077928245068,0.0015170883852988482,0.0,0.0,-0.6,0.0,0.00030040740966796875,0.00030040740966796875,0.004235506057739258,0,0
2.1596574783325195,-0.052695415914058685,0.04864931106567383,-0.46243366599082947,-0.001104651887544283,0.6982039213133446,0.0016291957581415772,-0.001830514520406723,0.0014626624761149287,0.0,0.0,-0.6,0.0,0.000278472900390625,0.000278472900390625,0.0031518936157226562,0,0
2.169740676879883,-0.05303831398487091,0.04878309369087219,-0.4638778269290924,-0.0010741823620433555,0.6982522705886905,0.0016252046916633844,-0.002069535432383418,0.0014118377584964037,0.0,0.0,-0.6,0.0,0.0002620220184326172,0.0002620220184326172,0.004137516021728516,0,0
2.179785966873169,-0.05337190628051758,0.04891139268875122,-0.4652947783470154,-0.0010387898913326362,0.6982998340222801,0.0017308891983702779,-0.0022118589840829372,0.0013635574141517282,0.0,0.0,-0.6,0.0,0.000274658203125,0.000274658203125,0.003748655319213867,0,0
2.189697504043579,-0.05399704352021217,0.04915464296936989,-0.4680703282356262,-0.0009899207201587489,0.6983553015418635,0.0017526325536891818,-0.002105145948007703,0.001315308385528624,0.0,0.0,-0.6,0.0,0.00024318695068359375,0.00024318695068359375,0.00311279296875,0,0
2.199908494949341,-0.054294560104608536,0.04927050322294235,-0.46941834688186646,-0.0009527122726929903,0.6984120959755056,0.0018474218668416142,-0.0020400159992277622,0.0012674740282818675,0.0,0.0,-0.6,0.0,0.0002391338348388672,0.0002391338348388672,0.0031409263610839844,0,0
2.209700107574463,-0.05458410456776619,0.04938105121254921,-0.4707390367984772,-0.0009208186471739679,0.6984712346102394,0.001988230040296912,-0.002049296163022518,0.001221062266267836,0.0,0.0,-0.6,0.0,0.00018644332885742188,0.00018644332885742188,0.0028247833251953125,0,0
2.2197742462158203,-0.05486556142568588,0.04948817938566208,-0.4720330238342285,-0.0009047659302056379,0.6985329517308599,0.00202124728821218,-0.002013187622651458,0.0011833064490929246,0.0,0.0,-0.6,0.0,0.00023674964904785156,0.00023674964904785156,0.003051280975341797,0,0
2.229696035385132,-0.05513918399810791,0.04959236830472946,-0.47330066561698914,-0.0008885043903734418,0.6985932162246309,0.0020573183428496122,-0.00206349091604352,0.0011494047939777374,0.0,0.0,-0.6,0.0,0.0001995563507080078,0.0001995563507080078,0.003065347671508789,0,0
2.2397348880767822,-0.0554053857922554,0.04969292879104614,-0.47454410791397095,-0.0008585684072137678,0.6986493285541534,0.002066252054646611,-0.002132684923708439,0.0011138240806758404,0.0,0.0,-0.6,0.0,0.00022649765014648438,0.00022649765014648438,0.0029473304748535156,0,0
2.2498347759246826,-0.05591273680329323,0.04988018423318863,-0.4770156741142273,-0.0007888732890367462,0.6987077453612178,0.0022610952146351337,-0.0020420739892870188,0.00106550264172256,0.0,0.0,-0.6,0.0,0.00024890899658203125,0.00024890899658203125,0.003220796585083008,0,0
2.2596311569213867,-0.05615420639514923,0.04996715858578682,-0.4782163202762604,-0.0007312776215917976,0.6987618152490765,0.0025046702940016985,-0.0019222236005589366,0.0010111762676388025,0.0,0.0,-0.6,0.0,0.000270843505859375,0.000270843505859375,0.003870248794555664,0,0
2.269768714904785,-0.056388095021247864,0.05004926770925522,-0.4793928861618042,-0.000698991000152975,0.6988190893437637,0.0028387182392179966,-0.001837230520322919,0.0009611470741219819,0.0,0.0,-0.6,0.0,0.00027060508728027344,0.00027060508728027344,0.0032508373260498047,0,0
2.279812812805176,-0.05683395639061928,0.050199925899505615,-0.48167240619659424,-0.0006557897900352787,0.6988862951008735,0.003145955502986908,-0.0017023920081555843,0.0009113533305935562,0.0,0.0,-0.6,0.0,0.00033473968505859375,0.00033473968505859375,0.003847837448120117,0,0
2.2897751331329346,-0.057046130299568176,0.05026911944150925,-0.4827779531478882,-0.000632292160878197,0.6989540036823145,0.0034310289192944765,-0.0014935220824554563,0.0008697826997376978,0.0,0.0,-0.6,0.0,0.0002696514129638672,0.0002696514129638672,0.0035233497619628906,0,0
2.2997753620147705,-0.05724938213825226,0.05033312365412712,-0.4838588535785675,-0.0006039872840385689,0.6990261259808718,0.003721492365002632,-0.0012054834514856339,0.0008326235110871494,0.0,0.0,-0.6,0.0,0.0002834796905517578,0.0002834796905517578,0.003152608871459961,0,0
2.30975604057312,-0.05763314291834831,0.0504491925239563,-0.48599639534950256,-0.0005428283419382597,0.6991115770028614,0.003988983575254679,-0.000894154713023454,0.0007856063893996179,0.0,0.0,-0.6,0.0,0.00021767616271972656,0.00021767616271972656,0.0030515193939208984,0,0
2.319735527038574,-0.057815469801425934,0.05050082132220268,-0.4870295524597168,-0.0005101214835919984,0.6991970970918251,0.0043062022887170315,-0.0006663161912001669,0.0007405959768220782,0.0,0.0,-0.6,0.0,0.0002269744873046875,0.0002269744873046875,0.0029795169830322266,0,0
2.329862594604492,-0.05798490345478058,0.050547532737255096,-0.4880392551422119,-0.0004817206099174366,0.6992787764603787,0.004676253069192171,-0.0003593300061766058,0.0007009985856711864,0.0,0.0,-0.6,0.0,0.00023174285888671875,0.00023174285888671875,0.003200531005859375,0,0
2.339705228805542,-0.058146409690380096,0.0505884513258934,-0.48902735114097595,-0.00045058736634599896,0.6993543097400551,0.0050878096371889114,1.203261490445584e-07,0.0006640487117692828,0.0,0.0,-0.6,0.0,0.00028443336486816406,0.00028443336486816406,0.0029633045196533203,0,0
2.3495371341705322,-0.05844704061746597,0.05066019296646118,-0.4909394383430481,-0.0004026953049783081,0.6994439082887555,0.005392502062022686,0.0005972902872599661,0.000625994463916868,0.0,0.0,-0.6,0.0,0.000225067138671875,0.000225067138671875,0.0030760765075683594,0,0
2.3599538803100586,-0.058586087077856064,0.050690438598394394,-0.49186211824417114,-0.00039204625033130577,0.6995337703937214,0.005690034478902817,0.0010980302467942238,0.0005966230528429151,0.0,0.0,-0.6,0.0,0.0003097057342529297,0.0003097057342529297,0.0033915042877197266,0,0
2.369718551635742,-0.05871888995170593,0.05071711167693138,-0.4927635192871094,-0.00037426792151162337,0.6996160406720215,0.005945087410509586,0.0015437231631949544,0.0005708542303182185,0.0,0.0,-0.6,0.0,0.00020074844360351562,0.00020074844360351562,0.0028972625732421875,0,0
2.3797571659088135,-0.05884482339024544,0.05073942616581917,-0.4936467111110687,-0.00035112603398542076,0.6996875170965219,0.00625809608027339,0.0020012608729302883,0.0005464021814987063,0.0,0.0,-0.6,0.0,0.00027823448181152344,0.00027823448181152344,0.0032227039337158203,0,0
2.3897197246551514,-0.0589633509516716,0.05075826868414879,-0.494511216878891,-0.0003317553482180229,0.6997595341726162,0.006482322234660387,0.002531840931624174,0.0005253758863545954,0.0,0.0,-0.6,0.0,0.0002155303955078125,0.0002155303955078125,0.003023386001586914,0,0
2.399737596511841,-0.05907430127263069,0.05077467858791351,-0.495355486869812,-0.0003130332372632039,0.6998300600752637,0.006662141997367144,0.003016833448782563,0.0005053549539297819,0.0,0.0,-0.6,0.0,0.00023984909057617188,0.00023984909057617188,0.0030486583709716797,0,0
2.4098877906799316,-0.05927301570773125,0.05079931765794754,-0.496987521648407,-0.00029049480837925923,0.6999114404107495,0.0067491005174815655,0.003713751444593072,0.0004885881207883358,0.0,0.0,-0.6,0.0,0.00023055076599121094,0.00023055076599121094,0.003155231475830078,0,0
2.4197018146514893,-0.05936259776353836,0.05080927908420563,-0.497775673866272,-0.00026534232063918643,0.6999918749587398,0.0067674326710402966,0.0042872196063399315,0.00046876195119693875,0.0,0.0,-0.6,0.0,0.00022912025451660156,0.00022912025451660156,0.0028777122497558594,0,0
2.4295928478240967,-0.05952248349785805,0.05082153528928757,-0.4993240535259247,-0.00023257259852793217,0.7000919087829848,0.006918778643012047,0.004981835838407278,0.0004469995037652552,0.0,0.0,-0.6,0.0,0.0002243518829345703,0.0002243518829345703,0.003034830093383789,0,0
2.4399242401123047,-0.059593524783849716,0.050822991877794266,-0.5000680088996887,-0.00021164791460885263,0.7001923987392032,0.00701514445245266,0.005604980513453484,0.00042598057189024985,0.0,0.0,-0.6,0.0,0.0002589225769042969,0.0002589225769042969,0.0031173229217529297,0,0
2.4496281147003174,-0.05965926870703697,0.05082271620631218,-0.5007913112640381,-0.0001782694070051699,0.7002940084743856,0.007057510316371918,0.006106631830334663,0.00039971302612684667,0.0,0.0,-0.6,0.0,0.00019431114196777344,0.00019431114196777344,0.002702474594116211,0,0
2.4597952365875244,-0.059904661029577255,0.05107162147760391,-0.5017679929733276,-0.00014012261186050086,0.7003850635787752,0.006818446796387434,0.00642816536128521,0.00036695285234600306,0.0,0.0,-0.6,0.0,0.00029087066650390625,0.00029087066650390625,0.0031430721282958984,0,0
2.4696836471557617,-0.06036548316478729,0.051548488438129425,-0.5036442875862122,-8.676807226954531e-05,0.700481417648155,0.006192007102072239,0.006622614338994026,0.00032434065360575914,0.0,0.0,-0.6,0.0,0.0002048015594482422,0.0002048015594482422,0.002958059310913086,0,0
2.4796345233917236,-0.060582466423511505,0.05177655816078186,-0.504545271396637,-8.284464296486467e-05,0.7005638637860193,0.005500628147274256,0.0066127656027674675,0.000291218253551051,0.0,0.0,-0.6,0.0,0.0002856254577636719,0.0002856254577636719,0.0029337406158447266,0,0
2.489853620529175,-0.06079201027750969,0.05199767276644707,-0.505424439907074,-5.3419143743535315e-05,0.7006352555939565,0.004836340434849262,0.006521786563098431,0.00025591618032194674,0.0,0.0,-0.6,0.0,0.0002307891845703125,0.0002307891845703125,0.003162384033203125,0,0
2.4997010231018066,-0.06099424511194229,0.052211347967386246,-0.5062806010246277,-2.5630733109898397e-05,0.7007028553090091,0.004261545836925507,0.006338751409202814,0.00021899762214161456,0.0,0.0,-0.6,0.0,0.0002014636993408203,0.0002014636993408203,0.0028679370880126953,0,0
2.50974440574646,-0.061373546719551086,0.05261954665184021,-0.5079265832901001,-2.7388528755393466e-05,0.7007737274036905,0.0035307849757373333,0.006217110902070999,0.00019440794130787253,0.0,0.0,-0.6,0.0,0.00021982192993164062,0.00021982192993164062,0.003031492233276367,0,0
2.519869804382324,-0.061550091952085495,0.05281336233019829,-0.508716344833374,-2.1699630996856094e-05,0.7008427202016636,0.002877545077353716,0.006001187488436699,0.00017304031644016504,0.0,0.0,-0.6,0.0,0.00023174285888671875,0.00023174285888671875,0.003242015838623047,0,0
2.529726982116699,-0.06171977519989014,0.05300074815750122,-0.5094835758209229,-3.932547810170399e-06,0.700911082767619,0.002272159792482853,0.005741648841649294,0.00014973702491261065,0.0,0.0,-0.6,0.0,0.0003135204315185547,0.0003135204315185547,0.004267454147338867,0,0
2.539839029312134,-0.06188172101974487,0.053181812167167664,-0.5102299451828003,1.7684015575998274e-05,0.7009742115074618,0.001737516955472529,0.005461309105157852,0.00012370209151413292,0.0,0.0,-0.6,0.0,0.0003247261047363281,0.0003247261047363281,0.005143880844116211,0,0
2.549621343612671,-0.0620381161570549,0.05335637554526329,-0.5109632015228271,2.9668656714044474e-05,0.7010343313491626,0.0012135558063164353,0.0051963673904538155,9.991978004109114e-05,0.0,0.0,-0.6,0.0,0.00030493736267089844,0.00030493736267089844,0.003990888595581055,0,0
2.5600171089172363,-0.062328651547431946,0.05368888005614281,-0.5123691558837891,9.051440094527956e-05,0.70110275558133,0.0004936944460496306,0.004889010917395353,5.877733929082751e-05,0.0,0.0,-0.6,0.0,0.0003674030303955078,0.0003674030303955078,0.0037453174591064453,0,0
2.5697214603424072,-0.06246278062462807,0.0538482628762722,-0.5130427479743958,0.00011643349791057876,0.7011697307687055,-0.00013686204329133034,0.004710037261247635,2.0936047803843394e-05,0.0,0.0,-0.6,0.0,0.00021910667419433594,0.00021910667419433594,0.003101348876953125,0,0
2.5796337127685547,-0.06259007751941681,0.05400216206908226,-0.513696551322937,0.0001397971124580986,0.7012364663443621,-0.0006828447803854942,0.004473699256777763,-1.6245534425252117e-05,0.0,0.0,-0.6,0.0,0.0002238750457763672,0.0002238750457763672,0.0031120777130126953,0,0
2.589578151702881,-0.06271164119243622,0.05414927750825882,-0.5143305659294128,0.00014751401355465014,0.7013025723782497,-0.0011023732367902994,0.00425360444933176,-4.619504397851415e-05,0.0,0.0,-0.6,0.0,0.0002129077911376953,0.0002129077911376953,0.003078937530517578,0,0
2.5998342037200928,-0.06293114274740219,0.054430440068244934,-0.5155542492866516,0.00016212334532552983,0.701376199110006,-0.0016829936066642404,0.004169148858636618,-7.111404556781054e-05,0.0,0.0,-0.6,0.0,0.00033926963806152344,0.00033926963806152344,0.004048824310302734,0,0
2.60981822013855,-0.06302816420793533,0.05456388369202614,-0.5161439180374146,0.00015927750622808152,0.7014477525079224,-0.0021310539450496435,0.004096296150237322,-8.776449249126017e-05,0.0,0.0,-0.6,0.0,0.0003142356872558594,0.0003142356872558594,0.0038843154907226562,0,0
2.6198220252990723,-0.06311891973018646,0.054692067205905914,-0.5167146921157837,0.0001778275510793343,0.7015207031012985,-0.0026001741643995047,0.003982652444392443,-0.00010735624528024346,0.0,0.0,-0.6,0.0,0.0003268718719482422,0.0003268718719482422,0.0034716129302978516,0,0
2.629577159881592,-0.06328337639570236,0.054936733096838,-0.5177987813949585,0.00017984251036826844,0.7016141918030144,-0.0030624119099229574,0.0038323611952364445,-0.00012301962124183774,0.0,0.0,-0.6,0.0,0.00022101402282714844,0.00022101402282714844,0.0031120777130126953,0,0
2.6396989822387695,-0.06335638463497162,0.05505047366023064,-0.5183131694793701,0.000186899907466673,0.7017016277892917,-0.0033074375241994858,0.0036851430777460337,-0.000137551425723359,0.0,0.0,-0.6,0.0,0.00022339820861816406,0.00022339820861816406,0.002975940704345703,0,0
2.6498684883117676,-0.06342282891273499,0.0551566556096077,-0.5188103318214417,0.0001715416418576038,0.701788703462452,-0.0033484718296676874,0.003689442528411746,-0.00014020672824699432,0.0,0.0,-0.6,0.0,0.0002257823944091797,0.0002257823944091797,0.0030968189239501953,0,0
2.6596839427948,-0.06348109245300293,0.05525634437799454,-0.5192893743515015,0.00016755911538923163,0.7018737821502833,-0.003369412152096629,0.0038040103390812874,-0.00013854344433639199,0.0,0.0,-0.6,0.0,0.0002570152282714844,0.0002570152282714844,0.002946138381958008,0,0
2.669518232345581,-0.06357724219560623,0.055443231016397476,-0.5201969146728516,0.00018586644536600192,0.7019734643365702,-0.0034008424263447523,0.004018544685095549,-0.00014177114644553512,0.0,0.0,-0.6,0.0,0.00020456314086914062,0.00020456314086914062,0.0029146671295166016,0,0
2.6799018383026123,-0.06361491978168488,0.05552981048822403,-0.5206253528594971,0.00018659876324347832,0.7020697444736337,-0.0034628736320883036,0.004107187036424875,-0.00014539003313984722,0.0,0.0,-0.6,0.0,0.000331878662109375,0.000331878662109375,0.003330230712890625,0,0
2.689732551574707,-0.06364800035953522,0.0556136891245842,-0.5210379958152771,0.00018726477552986613,0.7021603642663978,-0.003638757159933448,0.004213143605738878,-0.000147202517837286,0.0,0.0,-0.6,0.0,0.00020003318786621094,0.00020003318786621094,0.0029914379119873047,0,0
