time,x,y,z,yaw,throttle,roll_rate,pitch_rate,yaw_rate,x_ref,y_ref,z_ref,yaw_ref,pred_time,nr_time,ctrl_callback_time,v_norm,metadata
1.430511474609375e-06,-0.013357670977711678,-0.015442118048667908,0.4161311686038971,0.01767200243331883,0.7163209305764893,0.35692447806495714,-0.24880352781022444,0.001242817730315267,0.0,0.0,-0.6,0.0,0.00424957275390625,0.00424957275390625,0.00525975227355957,51.39759364090962,Sim
0.00943899154663086,-0.013746166601777077,-0.01589520089328289,0.41752058267593384,0.017660482096892766,0.7203505994206978,0.22663198907991938,-0.18037973919937705,0.0014525845678485133,0.0,0.0,-0.6,0.0,0.002007007598876953,0.002007007598876953,0.002583026885986328,81.28673174887749,flat wardi normal
0.019493579864501953,-0.013947655446827412,-0.016127150505781174,0.4182493984699249,0.0176486195127085,0.7227707304633362,0.14234837136287024,-0.13000484757518424,0.0013158714098384947,0.0,0.0,-0.6,0.0,0.0020694732666015625,0.0020694732666015625,0.0025076866149902344,82.36061431049777,1x Speed
0.029495954513549805,-0.014154981821775436,-0.016361182555556297,0.4190009832382202,0.017652791439867983,0.7243241765678906,0.08880062596920289,-0.0951801285906697,0.0011069653334527993,0.0,0.0,-0.6,0.0,0.001998424530029297,0.001998424530029297,0.0025348663330078125,82.77960008057671,hover
0.039429426193237305,-0.014368104748427868,-0.01659630611538887,0.41977426409721375,0.01763873451352659,0.7253546611461209,0.05687766350161866,-0.06992650948429364,0.0008849756499083878,0.0,0.0,-0.6,0.0,0.0020661354064941406,0.0020661354064941406,0.0024950504302978516,82.99304639187565,0
0.04947996139526367,-0.014256960712373257,-0.016692494973540306,0.4197526276111603,0.0176410110744439,0.7260512360913205,0.03871674358363152,-0.04817680307709224,0.0006318033562848204,0.0,0.0,-0.6,0.0,0.001986980438232422,0.001986980438232422,0.002507925033569336,83.03817851551587,0
0.05955076217651367,-0.013943090103566647,-0.01656162738800049,0.4189974069595337,0.017656250233694156,0.7265276061915928,0.023692900400473494,-0.03171503989668151,0.00042967998712991126,0.0,0.0,-0.6,0.0,0.002000570297241211,0.002000570297241211,0.0025281906127929688,82.95939175571458,0
0.0694584846496582,-0.01364511251449585,-0.01644282229244709,0.41830167174339294,0.017638142298287703,0.7268558439895846,0.014567397751419226,-0.021039589711347232,0.0002923637041837201,0.0,0.0,-0.6,0.0,0.0017654895782470703,0.0017654895782470703,0.0021371841430664062,82.8848134207547,0
0.07955718040466309,-0.013362754136323929,-0.016334228217601776,0.41766443848609924,0.017645532442385307,0.7270831408093065,0.007643706231699391,-0.012819537051540314,0.00018325909905814297,0.0,0.0,-0.6,0.0,0.001994609832763672,0.001994609832763672,0.002471446990966797,82.80300873447379,0
0.08930540084838867,-0.012844335287809372,-0.016146516427397728,0.41655343770980835,0.017672349258832924,0.7272410677752812,0.002227031073036084,-0.005134013076003905,7.600907782240118e-05,0.0,0.0,-0.6,0.0,0.00191497802734375,0.00191497802734375,0.002437114715576172,82.5595979690382,0
0.09949922561645508,-0.012604577466845512,-0.016064010560512543,0.4160618185997009,0.017671739954807676,0.7273510492078609,-0.0017885760357637553,-0.0006688032324840503,1.6308223932473432e-05,0.0,0.0,-0.6,0.0,0.0018439292907714844,0.0018439292907714844,0.002279996871948242,82.30348869712631,0
0.10955500602722168,-0.012376945465803146,-0.0159881841391325,0.41554906964302063,0.01767349268206045,0.727427761872314,-0.0028853120146651143,0.001763634955409556,-1.9714094812775684e-05,0.0,0.0,-0.6,0.0,0.0020787715911865234,0.0020787715911865234,0.002665281295776367,81.99393463741478,0
0.11939167976379395,-0.012162511236965656,-0.015919696539640427,0.4150616228580475,0.01769681430346894,0.7274813274027532,-0.003238369382312409,0.0023303290682679828,-2.7935557029842597e-05,0.0,0.0,-0.6,0.0,0.001966714859008789,0.001966714859008789,0.0023221969604492188,81.6682076252496,0
0.12945175170898438,-0.011782041750848293,-0.015805166214704514,0.41415226459503174,0.017717391819907453,0.7275187583602089,-0.004244442088618856,0.0015526611199948386,-1.4390275749188846e-05,0.0,0.0,-0.6,0.0,0.002047300338745117,0.002047300338745117,0.0025413036346435547,80.99015654605888,0
0.13967609405517578,-0.011613105423748493,-0.01575968787074089,0.4137221872806549,0.017731656418492496,0.7275449281234243,-0.002811146700153322,0.0023488950657010906,-3.0144293608062133e-05,0.0,0.0,-0.6,0.0,0.002161741256713867,0.002161741256713867,0.002716064453125,80.60036443854538,0
0.14932823181152344,-0.011455601081252098,-0.01572199910879135,0.4133046865463257,0.017724543726977557,0.7275632314838971,-0.0017581614153586401,0.003431955031899529,-4.840627262656032e-05,0.0,0.0,-0.6,0.0,0.0020351409912109375,0.0020351409912109375,0.0024394989013671875,80.24451046234896,0
0.15964031219482422,-0.011308213695883751,-0.015692682936787605,0.4129021167755127,0.017753594335700503,0.7275760364474471,-0.0003880004205594307,0.004778433728640054,-7.005972168183228e-05,0.0,0.0,-0.6,0.0,0.0021877288818359375,0.0021877288818359375,0.0027132034301757812,79.9124858198762,0
0.16949963569641113,-0.01117042824625969,-0.0156707800924778,0.4125136435031891,0.017773005839552762,0.7275849962381596,-0.0010334877718327638,0.004804477734900784,-6.909508405911855e-05,0.0,0.0,-0.6,0.0,0.0021338462829589844,0.0021338462829589844,0.0026502609252929688,79.57168421767209,0
0.17952752113342285,-0.010929370298981667,-0.0156446173787117,0.4117119312286377,0.01786043804974169,0.7275912665404587,-0.0034168581430813767,0.0048502515087824995,-6.74254036988969e-05,0.0,0.0,-0.6,0.0,0.002019643783569336,0.002019643783569336,0.002498626708984375,78.87749002774332,0
0.18947172164916992,-0.010824712924659252,-0.015638379380106926,0.4113282561302185,0.017884954287279847,0.7275956548013902,-0.003993055511823736,0.004092785504085129,-5.647282469261536e-05,0.0,0.0,-0.6,0.0,0.0019998550415039062,0.0019998550415039062,0.0025153160095214844,78.55050526464456,0
0.19944190979003906,-0.01073194108903408,-0.015636824071407318,0.4109543561935425,0.017899808329768684,0.7275987258744603,-0.003917402394288775,0.0024507231613806694,-3.360486590734404e-05,0.0,0.0,-0.6,0.0,0.002064943313598633,0.002064943313598633,0.002485990524291992,78.21281355331736,0
0.20974993705749512,-0.010514691472053528,-0.01566169783473015,0.4098767042160034,0.01793195789645241,0.7276008758617495,-0.003870954534192259,0.005010814767828034,-7.08963603772959e-05,0.0,0.0,-0.6,0.0,0.00191497802734375,0.00191497802734375,0.0022864341735839844,77.19422428665798,0
0.21966075897216797,-0.010514691472053528,-0.01566169783473015,0.4098767042160034,0.01793195789645241,0.7276023802434863,-0.002420655914770051,0.003638433864042271,-5.1240092313855105e-05,0.0,0.0,-0.6,0.0,0.0020253658294677734,0.0020253658294677734,0.0025649070739746094,77.19417929794274,0
0.22935080528259277,-0.010413769632577896,-0.01570490188896656,0.40910446643829346,0.017965848344598113,0.7276034331847395,-0.0013178340586279809,0.0037780289528918146,-5.271079932679042e-05,0.0,0.0,-0.6,0.0,0.002283334732055664,0.002283334732055664,0.002714395523071289,76.51943748263784,0
0.23981022834777832,-0.010413769632577896,-0.01570490188896656,0.40910446643829346,0.017965848344598113,0.7276041700317112,-0.0008212033580005074,0.0027486673448210326,-3.8225432158549297e-05,0.0,0.0,-0.6,0.0,0.004229545593261719,0.004229545593261719,0.00507354736328125,76.51940206145473,0
0.24955344200134277,-0.010321897454559803,-0.015806354582309723,0.40798354148864746,0.01801314922545513,0.7276046862447583,-0.0025429558067998634,0.004452529111743764,-6.327603623066633e-05,0.0,0.0,-0.6,0.0,0.0032057762145996094,0.0032057762145996094,0.00377655029296875,75.53697727293698,0
0.2596745491027832,-0.010321897454559803,-0.015806354582309723,0.40798354148864746,0.01801314922545513,0.7276050472704072,-0.0015920498338197276,0.0032418520113639917,-4.5705770827583306e-05,0.0,0.0,-0.6,0.0,0.003253936767578125,0.003253936767578125,0.0039386749267578125,75.53693680839169,0
0.2698514461517334,-0.010302932932972908,-0.015894388779997826,0.40725022554397583,0.0180490169261001,0.7276052999335878,-0.0019340924971504518,0.002674928755543854,-3.866539269753614e-05,0.0,0.0,-0.6,0.0,0.002173900604248047,0.002173900604248047,0.002606630325317383,74.88026118871794,0
0.2794339656829834,-0.010302932932972908,-0.015894388779997826,0.40725022554397583,0.0180490169261001,0.7276054766617023,-0.0012133268792698247,0.0019485163989257641,-2.7857897115069068e-05,0.0,0.0,-0.6,0.0,0.0021414756774902344,0.0021414756774902344,0.0026183128356933594,74.88023665839506,0
0.28932714462280273,-0.010328344069421291,-0.01605127938091755,0.40607622265815735,0.01808434719854136,0.7276056007354653,-0.002295351056257654,0.003909310901490733,-5.5814936186147205e-05,0.0,0.0,-0.6,0.0,0.0019240379333496094,0.0019240379333496094,0.002297639846801758,73.91520022612632,0
0.29956722259521484,-0.010328344069421291,-0.01605127938091755,0.40607622265815735,0.01808434719854136,0.7276056873397596,-0.0014406950743913105,0.0028522212576488236,-4.027003725341763e-05,0.0,0.0,-0.6,0.0,0.0026674270629882812,0.0026674270629882812,0.003233194351196289,73.91516504949242,0
0.309206485748291,-0.010382129810750484,-0.01618018187582493,0.40526798367500305,0.01812493026980095,0.7276057477733114,0.0012346213461143542,0.0008745458597984332,-9.137785988230485e-06,0.0,0.0,-0.6,0.0,0.0018413066864013672,0.0018413066864013672,0.0021698474884033203,73.27965235026983,0
0.3196253776550293,-0.010382129810750484,-0.01618018187582493,0.40526798367500305,0.01812493026980095,0.7276057900464845,0.0007810415963840681,0.0006417464177535282,-6.951536787991205e-06,0.0,0.0,-0.6,0.0,0.0021169185638427734,0.0021169185638427734,0.0026221275329589844,73.27964399125415,0
0.329282283782959,-0.010508744977414608,-0.016404682770371437,0.40404942631721497,0.01814763061956517,0.7276058198320104,-9.450085059308084e-05,0.0030294487420407653,-3.9873403996738565e-05,0.0,0.0,-0.6,0.0,0.0018639564514160156,0.0018639564514160156,0.002244234085083008,72.31740866693654,0
0.33960533142089844,-0.010508744977414608,-0.016404682770371437,0.40404942631721497,0.01814763061956517,0.7276058405803226,-5.425080767903446e-05,0.0022178717219620125,-2.915688497514924e-05,0.0,0.0,-0.6,0.0,0.002143383026123047,0.002143383026123047,0.0026578903198242188,72.31738075580182,0
0.3492913246154785,-0.01061328686773777,-0.016568494960665703,0.4031241834163666,0.0181381036296817,0.7276058552616064,0.000245875546727851,0.0033897355258399506,-4.366394601633293e-05,0.0,0.0,-0.6,0.0,0.0019032955169677734,0.0019032955169677734,0.002359151840209961,71.67996133966253,0
0.35947275161743164,-0.01061328686773777,-0.016568494960665703,0.4031241834163666,0.0181381036296817,0.7276058654112177,0.00016174452014374862,0.0024843066606317745,-3.2050501357460776e-05,0.0,0.0,-0.6,0.0,0.0020897388458251953,0.0020897388458251953,0.0025446414947509766,71.67993042843746,0
0.36940741539001465,-0.01080650556832552,-0.016833173111081123,0.4017210304737091,0.018167693247057082,0.7276058726893172,-0.0024108778796448445,0.0027753049915172426,-4.271736853359739e-05,0.0,0.0,-0.6,0.0,0.0017821788787841797,0.0017821788787841797,0.0021331310272216797,70.7383422602733,0
0.3796379566192627,-0.01080650556832552,-0.016833173111081123,0.4017210304737091,0.018167693247057082,0.7276058776162361,-0.0015227705979435503,0.0020317033844682907,-3.0549628111484436e-05,0.0,0.0,-0.6,0.0,0.0022039413452148438,0.0022039413452148438,0.002791881561279297,70.73831800343737,0
0.38924074172973633,-0.010958810336887836,-0.01702161692082882,0.40076324343681335,0.01820676365755004,0.7276058810175482,0.00038363648945797163,0.0020743319889701723,-2.5372083004787123e-05,0.0,0.0,-0.6,0.0,0.0018491744995117188,0.0018491744995117188,0.0021867752075195312,70.06185148390702,0
0.3994629383087158,-0.010958810336887836,-0.01702161692082882,0.40076324343681335,0.01820676365755004,0.7276058833494783,0.00024713536072137746,0.0015238323336188384,-1.8750046753268034e-05,0.0,0.0,-0.6,0.0,0.002099752426147461,0.002099752426147461,0.0026273727416992188,70.06183253317522,0
0.40944337844848633,-0.011221173219382763,-0.017325526103377342,0.3992082178592682,0.018252980661698854,0.7276058852485667,0.0003687519606331252,0.003678006157835869,-4.537056798003047e-05,0.0,0.0,-0.6,0.0,0.0022416114807128906,0.0022416114807128906,0.002638578414916992,69.09354758639932,0
0.4195578098297119,-0.011221173219382763,-0.017325526103377342,0.3992082178592682,0.018252980661698854,0.7276058864291283,0.00024096402390313452,0.0027046871888862147,-3.347515676446953e-05,0.0,0.0,-0.6,0.0,0.002002239227294922,0.002002239227294922,0.002457141876220703,69.09351487955493,0
0.4297482967376709,-0.011419358663260937,-0.017538482323288918,0.39811956882476807,0.018290069511170102,0.7276058871978531,-0.0008101292134375893,0.00207016473030301,-2.9076943606517966e-05,0.0,0.0,-0.6,0.0,0.0018146038055419922,0.0018146038055419922,0.002172231674194336,68.45366118820648,0
0.4393172264099121,-0.011419358663260937,-0.017538482323288918,0.39811956882476807,0.018290069511170102,0.7276058876800915,-0.0005113420069244066,0.0015217142550246873,-2.105705622253033e-05,0.0,0.0,-0.6,0.0,0.0018429756164550781,0.0018429756164550781,0.0022156238555908203,68.45364280813254,0
0.44945526123046875,-0.01131938211619854,-0.01740168407559395,0.3955213725566864,0.018276943829796347,0.7276058890741935,-0.0057286395513713,0.0038154611968985786,-6.95359353917653e-05,0.0,0.0,-0.6,0.0,0.0018477439880371094,0.0018477439880371094,0.0023145675659179688,67.63935309325642,0
0.4596066474914551,-0.011124991811811924,-0.01716643199324608,0.39350733160972595,0.018276239539979547,0.7276058906048235,-0.006744157321625899,0.005047764847133789,-8.899290126010716e-05,0.0,0.0,-0.6,0.0,0.0024564266204833984,0.0024564266204833984,0.003004789352416992,67.15679455952913,0
0.4693722724914551,-0.010940346866846085,-0.016939891502261162,0.39148280024528503,0.01828380454429985,0.7276058928533377,-0.009076488474338272,0.006216980491551233,-0.00011261625532629317,0.0,0.0,-0.6,0.0,0.0022237300872802734,0.0022237300872802734,0.0026204586029052734,66.67135746685405,0
0.47960829734802246,-0.010764160193502903,-0.016721408814191818,0.3894856572151184,0.01830820449937985,0.7276058951891805,-0.009570639137169719,0.007870462442805592,-0.00013475900120500466,0.0,0.0,-0.6,0.0,0.002438783645629883,0.002438783645629883,0.003004312515258789,66.2029191588566,0
0.48929929733276367,-0.01042946707457304,-0.016308430582284927,0.38556912541389465,0.01834245419273494,0.7276059017152197,-0.014321185406313997,0.012533169209517919,-0.0002107194093630048,0.0,0.0,-0.6,0.0,0.0020563602447509766,0.0020563602447509766,0.0024940967559814453,65.26547193901953,0
0.4994816780090332,-0.010271187871694565,-0.016112912446260452,0.38364648818969727,0.018339755021104468,0.727605905065144,-0.012444538038972157,0.01247794101270925,-0.00020068052332931457,0.0,0.0,-0.6,0.0,0.0019240379333496094,0.0019240379333496094,0.002336263656616211,64.80266717869662,0
0.5094306468963623,-0.010119389742612839,-0.0159258171916008,0.38174596428871155,0.018345366400307997,0.7276059062344654,-0.01036377375726288,0.012380268544633175,-0.00018933402093098585,0.0,0.0,-0.6,0.0,0.0018887519836425781,0.0018887519836425781,0.0023660659790039062,64.34189692737633,0
0.5194005966186523,-0.009974200278520584,-0.015746215358376503,0.37986594438552856,0.01834968166373767,0.7276059065742719,-0.010622038153467,0.011297724306140133,-0.00017715456673756064,0.0,0.0,-0.6,0.0,0.0019023418426513672,0.0019023418426513672,0.0022704601287841797,63.88769213572359,0
0.529390811920166,-0.009710772894322872,-0.015407152473926544,0.37612709403038025,0.018349067000112518,0.7276059085497067,-0.013431777334104316,0.01161277137737995,-0.0001936741475793385,0.0,0.0,-0.6,0.0,0.0019147396087646484,0.0019147396087646484,0.002384662628173828,62.96244388349685,0
0.5396015644073486,-0.00958884134888649,-0.015246796421706676,0.37426599860191345,0.018384618536533618,0.7276059092230017,-0.012508468425877722,0.011344717152929677,-0.00018564594217120245,0.0,0.0,-0.6,0.0,0.001980304718017578,0.001980304718017578,0.0024836063385009766,62.50706733019387,0
0.5492641925811768,-0.00947244931012392,-0.01509263925254345,0.37242206931114197,0.018401825822328678,0.7276059086401733,-0.0108122515982491,0.01110480521538319,-0.00017420849138509553,0.0,0.0,-0.6,0.0,0.0019185543060302734,0.0019185543060302734,0.002325773239135742,62.06897583240678,0
0.5595817565917969,-0.009361960925161839,-0.014944463968276978,0.37059447169303894,0.01841137199440575,0.727605907484636,-0.010370531191015483,0.010040243134577496,-0.00015994683271761644,0.0,0.0,-0.6,0.0,0.002106189727783203,0.002106189727783203,0.002663850784301758,61.631320571556344,0
0.5694229602813721,-0.009153666906058788,-0.014666760340332985,0.3669886291027069,0.01842815878781962,0.7276059083678407,-0.012429561001529022,0.011266299891033449,-0.00018411232647532846,0.0,0.0,-0.6,0.0,0.003756284713745117,0.003756284713745117,0.004290342330932617,60.80044480240308,0
0.579359769821167,-0.009056968614459038,-0.014536338858306408,0.3652081787586212,0.018427822490873318,0.7276059081415182,-0.010640962828245648,0.011493319476543288,-0.00017690143357470915,0.0,0.0,-0.6,0.0,0.0020084381103515625,0.0020084381103515625,0.0024330615997314453,60.38641203616854,0
0.5894701480865479,-0.008964309468865395,-0.0144108347594738,0.3634139895439148,0.018442262326810847,0.727605907506186,-0.010522725312819696,0.010689990594033721,-0.00016745164715610444,0.0,0.0,-0.6,0.0,0.0017783641815185547,0.0017783641815185547,0.0022635459899902344,59.95870044511659,0
0.599400520324707,-0.00887729600071907,-0.014289350248873234,0.3616313934326172,0.01845011118833166,0.7276059063126165,-0.00988762745081037,0.009755149436005322,-0.00015381418169820038,0.0,0.0,-0.6,0.0,0.0019183158874511719,0.0019183158874511719,0.0023152828216552734,59.53355031743314,0
0.609586238861084,-0.008641351945698261,-0.013953087851405144,0.35634753108024597,0.01848425888164164,0.7276059107952298,-0.015337975790860593,0.013707047732856347,-0.00022251353057715388,0.0,0.0,-0.6,0.0,0.0019183158874511719,0.0019183158874511719,0.0022895336151123047,58.26533215729024,0
0.6196475028991699,-0.008641351945698261,-0.013953087851405144,0.35634753108024597,0.01848425888164164,0.7276059087973006,-0.009873953839849103,0.01018804816877079,-0.0001566062022124261,0.0,0.0,-0.6,0.0,0.0021088123321533203,0.0021088123321533203,0.002656698226928711,58.265279162602454,0
0.6292905807495117,-0.008505568839609623,-0.013747983612120152,0.3528684377670288,0.018490330406296437,0.7276059094363432,-0.012368721598172892,0.011696196909382672,-0.00018515825585468931,0.0,0.0,-0.6,0.0,0.002205371856689453,0.002205371856689453,0.002653360366821289,57.43141765423981,0
0.6397128105163574,-0.008505568839609623,-0.013747983612120152,0.3528684377670288,0.018490330406296437,0.7276059064055059,-0.007970947179287168,0.008703909110363589,-0.00013081793289631752,0.0,0.0,-0.6,0.0,0.0034258365631103516,0.0034258365631103516,0.004220724105834961,57.43136830965197,0
0.6493165493011475,-0.008441762067377567,-0.013651982881128788,0.35113900899887085,0.01850852104594191,0.7276059042417077,-0.00740996289483983,0.009092480832015092,-0.00013180739360448235,0.0,0.0,-0.6,0.0,0.0025420188903808594,0.0025420188903808594,0.003110647201538086,57.01617081040171,0
0.659520149230957,-0.008324670605361462,-0.013473022729158401,0.34759190678596497,0.018519545312911032,0.7276059039834627,-0.009260069897285958,0.010322337506619645,-0.00015391719780473006,0.0,0.0,-0.6,0.0,0.0023963451385498047,0.0023963451385498047,0.0028791427612304688,56.196375232288425,0
0.669724702835083,-0.008271490223705769,-0.013389709405601025,0.345829576253891,0.018517700793210096,0.7276059032296724,-0.008012316625125068,0.010167781182087677,-0.00014573691007823151,0.0,0.0,-0.6,0.0,0.002139568328857422,0.002139568328857422,0.002645254135131836,55.78801939773822,0
0.6794083118438721,-0.008221468888223171,-0.013310826383531094,0.34407246112823486,0.018521948137453757,0.7276059017904478,-0.0066299619199493825,0.009173875114098447,-0.00012833954829642342,0.0,0.0,-0.6,0.0,0.001920938491821289,0.001920938491821289,0.0023415088653564453,55.37140342417189,0
0.6894474029541016,-0.008132725022733212,-0.013166804797947407,0.34057366847991943,0.018572093607527325,0.7276059014163785,-0.0069288554698703,0.010386065150571538,-0.00014236905557424894,0.0,0.0,-0.6,0.0,0.0019388198852539062,0.0019388198852539062,0.002417325973510742,54.57322262915267,0
0.6995389461517334,-0.00809234194457531,-0.013101864606142044,0.3388310670852661,0.01859892154052757,0.7276059005506565,-0.005615524026740003,0.009908149241451353,-0.0001307443738293845,0.0,0.0,-0.6,0.0,0.002190828323364258,0.002190828323364258,0.0027320384979248047,54.172825318314985,0
0.7092938423156738,-0.008052467368543148,-0.01304206345230341,0.3370501697063446,0.01859897068350328,0.7276058992765674,-0.004302951478197822,0.009065254396510788,-0.00011579832483390541,0.0,0.0,-0.6,0.0,0.001991748809814453,0.001991748809814453,0.002377748489379883,53.75979901511269,0
0.7196359634399414,-0.008015677332878113,-0.012986176647245884,0.3352718949317932,0.01860012306383721,0.7276058984385834,-0.005173258824108205,0.00873865696686564,-0.00011652572857028726,0.0,0.0,-0.6,0.0,0.002254962921142578,0.002254962921142578,0.002793550491333008,53.34550627757771,0
0.729332685470581,-0.007948929443955421,-0.0128862913697958,0.3317219316959381,0.018605029160226893,0.7276058983463978,-0.004171830803722785,0.010367570010147908,-0.00012936203746185808,0.0,0.0,-0.6,0.0,0.002128124237060547,0.002128124237060547,0.0026061534881591797,52.53846795672617,0
0.7396183013916016,-0.007919086143374443,-0.012844138778746128,0.3299509584903717,0.018614091110502683,0.7276058974736707,-0.0024919709003873095,0.009134511757268362,-0.00010836790284932967,0.0,0.0,-0.6,0.0,0.00225830078125,0.00225830078125,0.0027675628662109375,52.157750094340884,0
0.7495512962341309,-0.00789233110845089,-0.012806588783860207,0.32818275690078735,0.018613252532337594,0.7276058964898907,-0.0028381141688453944,0.008083865278501346,-9.933486141074424e-05,0.0,0.0,-0.6,0.0,0.002117633819580078,0.002117633819580078,0.002695798873901367,51.76461923335041,0
0.7593502998352051,-0.007868542335927486,-0.012771831825375557,0.326415091753006,0.018624972275590495,0.7276058957717398,-0.003982332931944225,0.007504070207792732,-9.889307033494813e-05,0.0,0.0,-0.6,0.0,0.002093076705932617,0.002093076705932617,0.0025277137756347656,51.36179640982429,0
0.7696771621704102,-0.00782775692641735,-0.012712466530501842,0.322839617729187,0.018620137151196505,0.727605895430142,-0.003133267848161731,0.008338638523227603,-0.00010404413018963346,0.0,0.0,-0.6,0.0,0.002025127410888672,0.002025127410888672,0.002508401870727539,50.558915345550155,0
0.7796039581298828,-0.007812019903212786,-0.01268884539604187,0.32103291153907776,0.018631200641278527,0.7276058945968619,-0.0018420921666955814,0.007066703037806771,-8.419456540973258e-05,0.0,0.0,-0.6,0.0,0.002011537551879883,0.002011537551879883,0.0024919509887695312,50.1712960097919,0
0.7892725467681885,-0.007799183484166861,-0.012670042924582958,0.31922751665115356,0.01864761751194901,0.7276058938049682,-0.0010156764566596496,0.006570936594208981,-7.488804414406435e-05,0.0,0.0,-0.6,0.0,0.0019092559814453125,0.0019092559814453125,0.0022704601287841797,49.79102312611541,0
0.7996232509613037,-0.007788357324898243,-0.012655265629291534,0.31742188334465027,0.018644722024288008,0.7276058931268203,-0.0008335372601606531,0.006172924042470212,-6.970162279412422e-05,0.0,0.0,-0.6,0.0,0.002168893814086914,0.002168893814086914,0.0026929378509521484,49.398846888042506,0
0.8093345165252686,-0.0077741569839417934,-0.012638995423913002,0.31380584836006165,0.018612964409716996,0.7276058928667336,0.0007876651306903562,0.006905741705068323,-7.001096865007545e-05,0.0,0.0,-0.6,0.0,0.0021042823791503906,0.0021042823791503906,0.0026192665100097656,48.60277330862922,0
0.8195323944091797,-0.007769403047859669,-0.012637480162084103,0.31199443340301514,0.018613911103856955,0.7276058927483121,0.00017287525007718036,0.007149830054426705,-7.56019763777973e-05,0.0,0.0,-0.6,0.0,0.0021448135375976562,0.0021448135375976562,0.002599954605102539,48.22080245567144,0
0.8295779228210449,-0.007765478920191526,-0.012639512307941914,0.31013691425323486,0.01859012883677383,0.7276058925027029,0.0006121705802545165,0.006606100694660308,-6.782444314900929e-05,0.0,0.0,-0.6,0.0,0.0021059513092041016,0.0021059513092041016,0.002653837203979492,47.818859333125445,0
0.8394355773925781,-0.007763697300106287,-0.012646127492189407,0.3082764744758606,0.018579008288992515,0.7276058921725492,0.001519737539152175,0.005895581032193866,-5.621979038737309e-05,0.0,0.0,-0.6,0.0,0.0021393299102783203,0.0021393299102783203,0.0025658607482910156,47.41560356828048,0
0.8495094776153564,-0.007764280308037996,-0.012657389976084232,0.30641329288482666,0.01859443858839537,0.7276058917579515,0.0018123503136685578,0.005070254565272992,-4.6093182684027655e-05,0.0,0.0,-0.6,0.0,0.0020341873168945312,0.0020341873168945312,0.002546072006225586,47.02566553194771,0
0.8595607280731201,-0.006736606825143099,-0.012243193574249744,0.30018138885498047,0.01862916138434032,0.7276058955826263,-0.004575221130873308,0.01379309143292291,-0.00017015243075070962,0.0,0.0,-0.6,0.0,0.0022475719451904297,0.0022475719451904297,0.002765655517578125,45.91908806182552,0
0.8696415424346924,-0.0062414249405264854,-0.012047040276229382,0.29710379242897034,0.01863354036410765,0.7276058994894437,-0.005264270938003754,0.01543265708558922,-0.00018991091763760366,0.0,0.0,-0.6,0.0,0.0019965171813964844,0.0019965171813964844,0.0024547576904296875,45.386463346751775,0
0.8795673847198486,-0.005757923703640699,-0.01185856107622385,0.2940509617328644,0.0186601342652624,0.7276059033398602,-0.006087241381342733,0.016690961343969628,-0.00020573404367872107,0.0,0.0,-0.6,0.0,0.0019626617431640625,0.0019626617431640625,0.0024695396423339844,44.847631718004145,0
0.8893282413482666,-0.005286121275275946,-0.011677094735205173,0.2910214066505432,0.018679179343635704,0.7276059059498164,-0.005685835306925194,0.01672875738626118,-0.00020297982022906015,0.0,0.0,-0.6,0.0,0.002830982208251953,0.002830982208251953,0.003412008285522461,44.31979289934972,0
0.8996365070343018,-0.004827054683119059,-0.011503993533551693,0.2879686951637268,0.018684379169686433,0.7276059075486677,-0.0051072367670806935,0.01662169115886716,-0.00019821790020179743,0.0,0.0,-0.6,0.0,0.0026922225952148438,0.0026922225952148438,0.003290414810180664,43.790702585764066,0
0.9095132350921631,-0.003942467272281647,-0.011174940504133701,0.2819315493106842,0.018655172770692008,0.7276059142532831,-0.01022225885996971,0.021147409206131375,-0.0002669302496516562,0.0,0.0,-0.6,0.0,0.002283334732055664,0.002283334732055664,0.002846956253051758,42.77138735992707,0
0.9194767475128174,-0.003516110125929117,-0.011018353514373302,0.27894696593284607,0.01866547932554827,0.7276059179505884,-0.00951995243650878,0.020425855075671386,-0.0002538799603862561,0.0,0.0,-0.6,0.0,0.002186298370361328,0.002186298370361328,0.002633333206176758,42.277088541231876,0
0.9299330711364746,-0.002296067774295807,-0.010586240328848362,0.27011197805404663,0.0186974398701976,0.7276059279955411,-0.010766488161418116,0.026958819253825945,-0.0003221148908033463,0.0,0.0,-0.6,0.0,0.0019359588623046875,0.0019359588623046875,0.0023338794708251953,40.78596596813726,0
0.9394984245300293,-0.002296067774295807,-0.010586240328848362,0.27011197805404663,0.0186974398701976,0.7276059267112448,-0.007074844520906625,0.020515149014799006,-0.0002383612844330454,0.0,0.0,-0.6,0.0,0.0023572444915771484,0.0023572444915771484,0.0029397010803222656,40.78596942959424,0
0.9493744373321533,-0.0019087919499725103,-0.010454852133989334,0.2671774923801422,0.018692202083103116,0.727605924770296,-0.006524509977242197,0.019549251961759023,-0.0002245365814152278,0.0,0.0,-0.6,0.0,0.0019469261169433594,0.0019469261169433594,0.002396106719970703,40.30320408024047,0
0.9594969749450684,-0.0015307175926864147,-0.010327882133424282,0.2642606198787689,0.018695392297980538,0.7276059228006213,-0.007931062353132318,0.018299666147360723,-0.00021759176696187538,0.0,0.0,-0.6,0.0,0.002106904983520508,0.002106904983520508,0.002606630325317383,39.81391059971892,0
0.9693853855133057,-0.0008036044891923666,-0.01008822675794363,0.2584753632545471,0.018709921969611513,0.7276059224377022,-0.007419987392448691,0.01972444177862197,-0.00022845884147924155,0.0,0.0,-0.6,0.0,0.0020837783813476562,0.0020837783813476562,0.0025463104248046875,38.85450359467252,0
0.9796068668365479,-0.0004543704562820494,-0.009977670386433601,0.25560569763183594,0.018713685704608306,0.7276059204126542,-0.006024875067223154,0.018129389872549605,-0.00020536741042171024,0.0,0.0,-0.6,0.0,0.002569913864135742,0.002569913864135742,0.0031349658966064453,38.37787796285627,0
0.9896941184997559,-0.00011317856842651963,-0.009872350841760635,0.252750039100647,0.01870247299576928,0.7276059183126369,-0.0051361981064687815,0.017556914562653677,-0.0001949271411562149,0.0,0.0,-0.6,0.0,0.002840280532836914,0.002840280532836914,0.003583669662475586,37.90605850803731,0
0.9994637966156006,0.00021962934988550842,-0.009773367084562778,0.24990707635879517,0.018709316915498417,0.7276059155537631,-0.0036268703547031214,0.016241452529175023,-0.00017511074532640012,0.0,0.0,-0.6,0.0,0.0022945404052734375,0.0022945404052734375,0.0027642250061035156,37.426717659394384,0
1.0094540119171143,0.0008598724962212145,-0.009592624381184578,0.24420742690563202,0.018694430644265403,0.7276059156909268,-0.00468472890911817,0.018675016947884645,-0.00020278935110406036,0.0,0.0,-0.6,0.0,0.002100706100463867,0.002100706100463867,0.002602100372314453,36.47151745945036,0
1.0196311473846436,0.0011697981972247362,-0.00950853992253542,0.24135106801986694,0.018713335602531397,0.7276059146792542,-0.004240798487258474,0.017409045569802415,-0.00018842207314282976,0.0,0.0,-0.6,0.0,0.0021910667419433594,0.0021910667419433594,0.0027222633361816406,35.99828749158126,0
1.0292935371398926,0.0014719845494255424,-0.009428969584405422,0.23850518465042114,0.018718240758274846,0.7276059128782598,-0.004357566046082691,0.01590623682432028,-0.00017343831848930282,0.0,0.0,-0.6,0.0,0.002029895782470703,0.002029895782470703,0.0024297237396240234,35.52218860306571,0
1.0395286083221436,0.0017671044915914536,-0.009353944100439548,0.23566806316375732,0.01872178946924555,0.7276059110077419,-0.0028056705323755583,0.015388764798042185,-0.000162182328655255,0.0,0.0,-0.6,0.0,0.002214670181274414,0.002214670181274414,0.0027348995208740234,35.031476122057065,0
1.049412727355957,0.0023379921913146973,-0.00921695213764906,0.23001350462436676,0.018754672023633467,0.7276059116271545,-0.0053459948885197705,0.017433749888938033,-0.0001905801288644595,0.0,0.0,-0.6,0.0,0.0021479129791259766,0.0021479129791259766,0.002692699432373047,34.05256678017922,0
1.0594868659973145,0.0026125928852707148,-0.009153678081929684,0.2271963655948639,0.018758351253045546,0.7276059103547201,-0.0044818047459447615,0.015342112365523075,-0.00016625568497617796,0.0,0.0,-0.6,0.0,0.002064228057861328,0.002064228057861328,0.002497434616088867,33.59375192210336,0
1.069655418395996,0.0028807257767766714,-0.00909397192299366,0.2243412733078003,0.018772411069173284,0.7276059084477154,-0.0039026132576477452,0.013941045439125572,-0.00015013667080708212,0.0,0.0,-0.6,0.0,0.002053976058959961,0.002053976058959961,0.0025496482849121094,33.12294320907688,0
1.079451322555542,0.0031426167115569115,-0.009037856012582779,0.2214931696653366,0.018781278311645347,0.7276059070593983,-0.004304202204744771,0.013741320312620193,-0.0001489474438059189,0.0,0.0,-0.6,0.0,0.001985788345336914,0.001985788345336914,0.002391338348388672,32.64745731955472,0
1.0893869400024414,0.0036502566654235125,-0.00893634743988514,0.21581849455833435,0.018775737789546235,0.7276059079691165,-0.004313301250915792,0.016574819348858735,-0.0001758600712303739,0.0,0.0,-0.6,0.0,0.0019047260284423828,0.0019047260284423828,0.0023956298828125,31.726606887816438,0
1.0995631217956543,0.0038969973102211952,-0.008890535682439804,0.21298900246620178,0.01877533231222918,0.7276059084345483,-0.004352000487024446,0.016335819218254655,-0.00017243232149067366,0.0,0.0,-0.6,0.0,0.002181529998779297,0.002181529998779297,0.0026984214782714844,31.242742673058643,0
1.1095304489135742,0.0043768007308244705,-0.008809286169707775,0.207341268658638,0.018786924173908256,0.7276059100455611,-0.003542279353079716,0.018231790987543888,-0.0001885739575877566,0.0,0.0,-0.6,0.0,0.002360105514526367,0.002360105514526367,0.0027937889099121094,30.317662412328616,0
1.119755744934082,0.0043768007308244705,-0.008809286169707775,0.207341268658638,0.018786924173908256,0.7276059080659847,-0.002344795783227452,0.014059936558538816,-0.00014409753457706159,0.0,0.0,-0.6,0.0,0.005195140838623047,0.005195140838623047,0.006103515625,30.317706457861227,0
1.129657506942749,0.004608944524079561,-0.00877463724464178,0.204523965716362,0.018778521746404306,0.7276059060743303,-0.0014749574614699248,0.0131725028997855,-0.0001332227994934167,0.0,0.0,-0.6,0.0,0.003612995147705078,0.003612995147705078,0.0044362545013427734,29.85676039951501,0
1.1395390033721924,0.005053864326328039,-0.00871971994638443,0.1987864077091217,0.018774526485348265,0.7276059052538405,0.00012120466688043034,0.014221282495821372,-0.00014002092280991922,0.0,0.0,-0.6,0.0,0.0026161670684814453,0.0026161670684814453,0.003132343292236328,28.89935211540407,0
1.150048017501831,0.005477327853441238,-0.008680579252541065,0.19305844604969025,0.01880207477541468,0.727605904678523,-0.0005035594941916195,0.014224143909971837,-0.00014232630009315537,0.0,0.0,-0.6,0.0,0.0021572113037109375,0.0021572113037109375,0.0026092529296875,27.96350923882884,0
1.1594429016113281,0.005477327853441238,-0.008680579252541065,0.19305844604969025,0.01880207477541468,0.7276059025003131,-0.0003125706355972954,0.011004966597346011,-0.0001099145200654318,0.0,0.0,-0.6,0.0,0.002226591110229492,0.002226591110229492,0.002687215805053711,27.963546160960654,0
1.1696946620941162,0.005678488872945309,-0.008665485307574272,0.19019833207130432,0.01880375885560639,0.7276059001328534,-0.0008947852778601695,0.009047521395862712,-9.174069035190459e-05,0.0,0.0,-0.6,0.0,0.0020945072174072266,0.0020945072174072266,0.002590179443359375,27.499130924529503,0
1.1796295642852783,0.006062720436602831,-0.008646493777632713,0.1843867003917694,0.018844818695172127,0.7276058991874733,-3.0108318097714792e-05,0.010748046359394171,-0.00010709008283599304,0.0,0.0,-0.6,0.0,0.0022382736206054688,0.0022382736206054688,0.002782106399536133,26.55634355955842,0
1.1893742084503174,0.006248006131500006,-0.008640646003186703,0.18143784999847412,0.018873620717684895,0.7276058982741905,-0.0015831889046069307,0.010077158466796259,-0.00010303083169706261,0.0,0.0,-0.6,0.0,0.002045869827270508,0.002045869827270508,0.0024862289428710938,26.09224832110783,0
1.1996371746063232,0.006428154651075602,-0.00863669067621231,0.17849193513393402,0.01887349278370696,0.7276058972360865,-0.0012934958965522465,0.009171401628251072,-9.330833898876553e-05,0.0,0.0,-0.6,0.0,0.0021944046020507812,0.0021944046020507812,0.002713918685913086,25.63214340847855,0
1.20949387550354,0.006944579072296619,-0.00865183211863041,0.16967569291591644,0.018877273492548256,0.7276058975609297,0.003226073372698345,0.011141873192046226,-0.00010633507992133924,0.0,0.0,-0.6,0.0,0.002557039260864258,0.002557039260864258,0.0030367374420166016,24.266707349588277,0
1.219529390335083,0.006944579072296619,-0.00865183211863041,0.16967569291591644,0.018877273492548256,0.7276058966056896,0.0022060007724741004,0.00866570823673701,-8.330574936823229e-05,0.0,0.0,-0.6,0.0,0.0032739639282226562,0.0032739639282226562,0.003957509994506836,24.26674163803784,0
1.2299840450286865,0.007266225293278694,-0.008682218380272388,0.16374261677265167,0.018892678312102982,0.7276058965047368,0.0037876621641859103,0.009592262495679476,-9.15195313073745e-05,0.0,0.0,-0.6,0.0,0.0021276473999023438,0.0021276473999023438,0.0025787353515625,23.323093343573976,0
1.2396001815795898,0.007266225293278694,-0.008682218380272388,0.16374261677265167,0.018892678312102982,0.7276058954857412,0.002586797990949821,0.00747087919866491,-7.190548015904426e-05,0.0,0.0,-0.6,0.0,0.003141164779663086,0.003141164779663086,0.003790616989135742,23.323123962220684,0
1.2497282028198242,0.008582155220210552,-0.008213113993406296,0.1521432101726532,0.018885544623806268,0.7276058980621568,-0.00014302689690521528,0.014673109963317046,-0.00014780286098719315,0.0,0.0,-0.6,0.0,0.002223968505859375,0.002223968505859375,0.0026531219482421875,21.639599826436495,0
1.2596585750579834,0.008582155220210552,-0.008213113993406296,0.1521432101726532,0.018885544623806268,0.727605898045428,-6.951843630808576e-05,0.011440012205778737,-0.00011518645625317801,0.0,0.0,-0.6,0.0,0.0024085044860839844,0.0024085044860839844,0.0029833316802978516,21.639654868237123,0
1.269465446472168,0.009687556885182858,-0.007762701716274023,0.1436680555343628,0.018888022445502348,0.7276059011626032,-0.0027359656810712956,0.016406745757529602,-0.00016683230131834197,0.0,0.0,-0.6,0.0,0.00203704833984375,0.00203704833984375,0.0024259090423583984,20.43663218003249,0
1.2796275615692139,0.009687556885182858,-0.007762701716274023,0.1436680555343628,0.018888022445502348,0.7276059009932182,-0.0018318735479050138,0.012805292120732168,-0.0001297054026779336,0.0,0.0,-0.6,0.0,0.002180337905883789,0.002180337905883789,0.0027010440826416016,20.436701914058442,0
1.289196252822876,0.011243733577430248,-0.007149711716920137,0.1311424970626831,0.01890790513661819,0.7276059096695344,-0.008923663841571575,0.02232886575756935,-0.000226306024029481,0.0,0.0,-0.6,0.0,0.0020220279693603516,0.0020220279693603516,0.0024459362030029297,18.68154217801012,0
1.2995929718017578,0.011243733577430248,-0.007149711716920137,0.1311424970626831,0.01890790513661819,0.7276059106635892,-0.006048389008168872,0.017454339876962082,-0.00017518531836224242,0.0,0.0,-0.6,0.0,0.0022432804107666016,0.0022432804107666016,0.002755880355834961,18.681663939501384,0
1.309584140777588,0.012220318429172039,-0.00677678594365716,0.12288189679384232,0.018933693003005247,0.7276059142886508,-0.007594641192231106,0.02052535261775762,-0.00020330346091045222,0.0,0.0,-0.6,0.0,0.001981019973754883,0.001981019973754883,0.0024156570434570312,17.507285822585477,0
1.3194758892059326,0.012220318429172039,-0.00677678594365716,0.12288189679384232,0.018933693003005247,0.7276059126723974,-0.00515301968755262,0.016068263792556523,-0.00015785430163010923,0.0,0.0,-0.6,0.0,0.0022292137145996094,0.0022292137145996094,0.002688169479370117,17.507401237332527,0
1.3294215202331543,0.013590801507234573,-0.00626791687682271,0.11067352443933487,0.018946212036185302,0.7276059162648024,-0.008835044633877768,0.020717783218339916,-0.0002007325082246088,0.0,0.0,-0.6,0.0,0.0019655227661132812,0.0019655227661132812,0.0023527145385742188,15.782176464646609,0
1.3396520614624023,0.013590801507234573,-0.00626791687682271,0.11067352443933487,0.018946212036185302,0.7276059143662281,-0.006014887525212374,0.016250183833494254,-0.00015613716470218224,0.0,0.0,-0.6,0.0,0.0022101402282714844,0.0022101402282714844,0.002753734588623047,15.782303119050525,0
1.3493061065673828,0.014442546293139458,-0.005961749702692032,0.10261261463165283,0.01897286663068134,0.7276059144529748,-0.007504901615310946,0.01763924261945133,-0.0001669287076212996,0.0,0.0,-0.6,0.0,0.001875162124633789,0.001875162124633789,0.002241373062133789,14.632605878009224,0
1.359607219696045,0.014442546293139458,-0.005961749702692032,0.10261261463165283,0.01897286663068134,0.7276059113374501,-0.00511729283805471,0.013854519003405692,-0.00013027616408427064,0.0,0.0,-0.6,0.0,0.0022323131561279297,0.0022323131561279297,0.002767324447631836,14.632714072922022,0
1.3693716526031494,0.015631401911377907,-0.005547821056097746,0.0906190350651741,0.0190163354823619,0.7276059116139061,-0.007685412593386157,0.016603724987729235,-0.00015348342741944597,0.0,0.0,-0.6,0.0,0.0019979476928710938,0.0019979476928710938,0.0024194717407226562,12.926380023341824,0
1.3795709609985352,0.015631401911377907,-0.005547821056097746,0.0906190350651741,0.0190163354823619,0.7276059089157049,-0.00525536767930713,0.013066525445105247,-0.00012018201374360739,0.0,0.0,-0.6,0.0,0.0022246837615966797,0.0022246837615966797,0.002752542495727539,12.926486037810184,0
1.3895320892333984,0.016368955373764038,-0.005302151665091515,0.0827103853225708,0.019027436006486265,0.7276059078085132,-0.004711882789291292,0.014611865250877812,-0.00013401322522342324,0.0,0.0,-0.6,0.0,0.0019378662109375,0.0019378662109375,0.0023581981658935547,11.826201253473904,0
1.399470329284668,0.016368955373764038,-0.005302151665091515,0.0827103853225708,0.019027436006486265,0.727605905072542,-0.003218453675182742,0.011517966850843948,-0.00010542337440910413,0.0,0.0,-0.6,0.0,0.002142667770385742,0.002142667770385742,0.002597332000732422,11.826293549636219,0
1.4093670845031738,0.01706511527299881,-0.005077294073998928,0.07486593723297119,0.0190725390069795,0.7276059044329445,-0.005627587394384925,0.013117281713729063,-0.000118403232834264,0.0,0.0,-0.6,0.0,0.0019290447235107422,0.0019290447235107422,0.0023255348205566406,10.740868042979452,0
1.4196586608886719,0.01706511527299881,-0.005077294073998928,0.07486593723297119,0.0190725390069795,0.7276059022599181,-0.003857838762762198,0.010350501911955972,-9.335463223165196e-05,0.0,0.0,-0.6,0.0,0.002243518829345703,0.002243518829345703,0.0027971267700195312,10.740953416215511,0
1.4292852878570557,0.018033582717180252,-0.0047817230224609375,0.0630219578742981,0.01910841311053238,0.7276059023708075,-0.002223978869769282,0.01396413089767262,-0.00012810347036412145,0.0,0.0,-0.6,0.0,0.0021352767944335938,0.0021352767944335938,0.002546072006225586,9.075371776490615,0
1.4398548603057861,0.018033582717180252,-0.0047817230224609375,0.0630219578742981,0.01910841311053238,0.7276059008571396,-0.0015112690036532435,0.011047701927313372,-0.00010139654952181685,0.0,0.0,-0.6,0.0,0.0028710365295410156,0.0028710365295410156,0.003604888916015625,9.075464973781491,0
1.4492311477661133,0.01892169937491417,-0.004536797758191824,0.05129307508468628,0.019123270375982715,0.727605902195073,-0.0024910354234772662,0.01525698914134861,-0.0001394978526576799,0.0,0.0,-0.6,0.0,0.002506732940673828,0.002506732940673828,0.0030198097229003906,7.451363981418821,0
1.4597318172454834,0.01892169937491417,-0.004536797758191824,0.05129307508468628,0.019123270375982715,0.7276059012464956,-0.0016972467341298677,0.012093648224518262,-0.00011068867946065211,0.0,0.0,-0.6,0.0,0.004141092300415039,0.004141092300415039,0.004883527755737305,7.451471827715474,0
1.4701640605926514,0.019472476094961166,-0.004398338962346315,0.043482035398483276,0.01915669069688225,0.7276059001519958,-0.0011591889216318165,0.011293605072062347,-0.00010403473202306823,0.0,0.0,-0.6,0.0,0.002267122268676758,0.002267122268676758,0.0027379989624023438,6.342896124803443,0
1.4794352054595947,0.019472476094961166,-0.004398338962346315,0.043482035398483276,0.01915669069688225,0.7276058983828125,-0.0007829530604175007,0.00896505807572387,-8.270507806365285e-05,0.0,0.0,-0.6,0.0,0.002301454544067383,0.002301454544067383,0.0029311180114746094,6.342974387994844,0
1.4897079467773438,0.019985167309641838,-0.004282607696950436,0.03566410765051842,0.019132249451220055,0.7276058971855597,1.1244043140671134e-05,0.009117109738480275,-8.592091309529216e-05,0.0,0.0,-0.6,0.0,0.00226593017578125,0.00226593017578125,0.002680063247680664,5.256859859166165,0
1.4997849464416504,0.019985167309641838,-0.004282607696950436,0.03566410765051842,0.019132249451220055,0.7276058957084605,2.525420712957292e-05,0.007248414001713085,-6.833843995851233e-05,0.0,0.0,-0.6,0.0,0.0030264854431152344,0.0030264854431152344,0.003765583038330078,5.256922941700677,0
1.5092895030975342,0.020693741738796234,-0.004143256228417158,0.02400643564760685,0.019110222339459495,0.7276058956814858,0.0007707603941683041,0.01002207507450789,-9.672296352195948e-05,0.0,0.0,-0.6,0.0,0.0025510787963867188,0.0025510787963867188,0.0030031204223632812,3.6554328405426055,0
1.519758701324463,0.020693741738796234,-0.004143256228417158,0.02400643564760685,0.019110222339459495,0.7276058948922853,0.0005560665021913894,0.00798438674760727,-7.6993091683573e-05,0.0,0.0,-0.6,0.0,0.0031545162200927734,0.0031545162200927734,0.0038709640502929688,3.65550490727587,0
1.5294804573059082,0.02112915925681591,-0.00407232204452157,0.01627686433494091,0.019094153779161377,0.727605894670792,-0.0010621720230936985,0.008886719802831905,-8.305390599264063e-05,0.0,0.0,-0.6,0.0,0.0023353099822998047,0.0023353099822998047,0.002803325653076172,2.6161308842756794,0
1.5395686626434326,0.02112915925681591,-0.00407232204452157,0.01627686433494091,0.019094153779161377,0.7276058939049226,-0.0007239904536928995,0.007085196093113118,-6.641947268880501e-05,0.0,0.0,-0.6,0.0,0.002310037612915039,0.002310037612915039,0.002832651138305664,2.616195251887131,0
1.5498089790344238,0.02172752656042576,-0.003994214814156294,0.004655994940549135,0.019064199149119478,0.7276058936665141,0.001297975805848435,0.00797162953778823,-7.97376363459096e-05,0.0,0.0,-0.6,0.0,0.001997709274291992,0.001997709274291992,0.0024261474609375,1.0677053590792858,0
1.5594468116760254,0.02172752656042576,-0.003994214814156294,0.004655994940549135,0.019064199149119478,0.7276058930065298,0.00092252445593198,0.006371477780801553,-6.352662603609788e-05,0.0,0.0,-0.6,0.0,0.0022025108337402344,0.0022025108337402344,0.002666473388671875,1.0677639736914188,0
1.5695924758911133,0.022091079503297806,-0.003964985255151987,-0.0030561189632862806,0.019078671719511896,0.7276058922441374,0.0024538780700706017,0.0045813329910263005,-5.023180894636378e-05,0.0,0.0,-0.6,0.0,0.0019230842590332031,0.0019230842590332031,0.002309083938598633,0.011918901293345675,0
1.57963228225708,0.022091079503297806,-0.003964985255151987,-0.0030561189632862806,0.019078671719511896,0.7276058914918877,0.0017265150743070558,0.0036695104606633312,-3.97238778731904e-05,0.0,0.0,-0.6,0.0,0.002177715301513672,0.002177715301513672,0.0027370452880859375,0.011952361124499138,0
1.5895278453826904,0.022574016824364662,-0.0039434474892914295,-0.014641680754721165,0.019068729066265888,0.7269967903423618,-0.0009465834217726609,0.0016091956328368143,-1.3123266854748146e-05,0.0,0.0,-0.6,0.0,0.003596782684326172,0.003596782684326172,0.004175424575805664,0.0,0
1.5997557640075684,0.022574016824364662,-0.0039434474892914295,-0.014641680754721165,0.019068729066265888,0.7265701542847826,-0.0006627218588491557,0.0011946055784711656,-9.836694175799473e-06,0.0,0.0,-0.6,0.0,0.0030455589294433594,0.0030455589294433594,0.0037648677825927734,0.0,0
1.6093025207519531,0.022848527878522873,-0.0039464207366108894,-0.02241036295890808,0.019069925853136636,0.7258619512126252,0.003308444840303043,-0.0017442185988188412,8.122647831939751e-06,0.0,0.0,-0.6,0.0,0.0022122859954833984,0.0022122859954833984,0.0027000904083251953,0.0,0
1.619460105895996,0.022848527878522873,-0.0039464207366108894,-0.02241036295890808,0.019069925853136636,0.7253658406183221,0.00231619536985379,-0.0015012036286758284,8.433984415499367e-06,0.0,0.0,-0.6,0.0,0.0019369125366210938,0.0019369125366210938,0.002408742904663086,0.0,0
1.6296963691711426,0.023198487237095833,-0.0039901151321828365,-0.03403322026133537,0.019068267486209656,0.7244209285949484,0.006073286614361223,-0.0021017635887662207,3.320688129370991e-06,0.0,0.0,-0.6,0.0,0.0018622875213623047,0.0018622875213623047,0.0022721290588378906,0.0,0
1.6394400596618652,0.023198487237095833,-0.0039901151321828365,-0.03403322026133537,0.019068267486209656,0.7237588373944622,0.004258424022392855,-0.001819976850581823,5.777880352589982e-06,0.0,0.0,-0.6,0.0,0.001977205276489258,0.001977205276489258,0.002391338348388672,0.0,0
1.649686574935913,0.024919386953115463,-0.0031276633962988853,-0.04877464473247528,0.019129926479227517,0.722544265562419,-0.004128032142592342,0.008981217719190252,-7.507983279553988e-05,0.0,0.0,-0.6,0.0,0.0019099712371826172,0.0019099712371826172,0.002292156219482422,0.0,0
1.6596150398254395,0.024919386953115463,-0.0031276633962988853,-0.04877464473247528,0.019129926479227517,0.7216930180593765,-0.0028881355555927415,0.007017562404491149,-5.945718756008195e-05,0.0,0.0,-0.6,0.0,0.002123117446899414,0.002123117446899414,0.0026755332946777344,0.0,0
1.6692845821380615,0.026454178616404533,-0.0022991125006228685,-0.05955401808023453,0.019199443650759273,0.7205736913620999,-0.00848254528790467,0.015454997799478993,-0.00012243897914970885,0.0,0.0,-0.6,0.0,0.0018358230590820312,0.0018358230590820312,0.0021703243255615234,0.0,0
1.6795704364776611,0.026454178616404533,-0.0022991125006228685,-0.05955401808023453,0.019199443650759273,0.7197892980578006,-0.005934547353917476,0.012213847705731903,-9.83251871584884e-05,0.0,0.0,-0.6,0.0,0.001871347427368164,0.001871347427368164,0.0023508071899414062,0.0,0
1.6892330646514893,0.02859552390873432,-0.001154217403382063,-0.07541307061910629,0.01925070407499333,0.7185120059862035,-0.015996060489381736,0.023825324025916035,-0.000173902568271643,0.0,0.0,-0.6,0.0,0.0017380714416503906,0.0017380714416503906,0.0020940303802490234,0.0,0
1.6995866298675537,0.02859552390873432,-0.001154217403382063,-0.07541307061910629,0.01925070407499333,0.7176167965938384,-0.011205112575044592,0.018894117925763412,-0.00014015116078725702,0.0,0.0,-0.6,0.0,0.0019235610961914062,0.0019235610961914062,0.00240325927734375,0.0,0
1.7098588943481445,0.029927268624305725,-0.00044538237852975726,-0.08582800626754761,0.01930374511460117,0.7165253966768796,-0.01608744907346664,0.023481733557650784,-0.00016332264787070517,0.0,0.0,-0.6,0.0,0.0018460750579833984,0.0018460750579833984,0.0022537708282470703,0.0,0
1.719437599182129,0.029927268624305725,-0.00044538237852975726,-0.08582800626754761,0.01930374511460117,0.7157606328859447,-0.01126244966920364,0.01862611129834157,-0.00013180373356001443,0.0,0.0,-0.6,0.0,0.002118825912475586,0.002118825912475586,0.0026171207427978516,0.0,0
1.730001449584961,0.03178670257329941,0.0005313028814271092,-0.10122078657150269,0.019331980920395675,0.7145645868305918,-0.015068721914707709,0.027221836465475123,-0.000190953358507091,0.0,0.0,-0.6,0.0,0.0025904178619384766,0.0025904178619384766,0.0031206607818603516,0.0,0
1.7397501468658447,0.03178670257329941,0.0005313028814271092,-0.10122078657150269,0.019331980920395675,0.7137264125345351,-0.010543846212489421,0.02160634934562736,-0.0001534492436196984,0.0,0.0,-0.6,0.0,0.0030410289764404297,0.0030410289764404297,0.003774404525756836,0.0,0
1.7494380474090576,0.03237242251634598,0.0008338995976373553,-0.10627119988203049,0.019333268256551038,0.7129305204230824,-0.008745103950956224,0.020741804928428285,-0.0001492564581702129,0.0,0.0,-0.6,0.0,0.0027267932891845703,0.0027267932891845703,0.003245830535888672,0.0,0
1.7597496509552002,0.03294077515602112,0.0011257666628807783,-0.1112823486328125,0.019339783140630843,0.7121662070884317,-0.008959766788517315,0.019563470658120974,-0.00013694352903048315,0.0,0.0,-0.6,0.0,0.002682924270629883,0.002682924270629883,0.0033180713653564453,0.0,0
1.7695863246917725,0.034027084708213806,0.001677165157161653,-0.12118630856275558,0.01935999862368692,0.7112432315689844,-0.008820857968062484,0.022316912536653275,-0.00015993584278047344,0.0,0.0,-0.6,0.0,0.002966642379760742,0.002966642379760742,0.003619670867919922,0.0,0
1.7794947624206543,0.034546975046396255,0.0019370990339666605,-0.12609142065048218,0.01938538628780417,0.7104111841006848,-0.008474890761084182,0.020642635402306524,-0.00014553374098722868,0.0,0.0,-0.6,0.0,0.002226591110229492,0.002226591110229492,0.002748727798461914,0.0,0
1.789478063583374,0.035050638020038605,0.00218738685362041,-0.13095663487911224,0.01940313887869157,0.7096462053301987,-0.007485796965640267,0.018634321548778487,-0.0001308511915118583,0.0,0.0,-0.6,0.0,0.0019407272338867188,0.0019407272338867188,0.002479076385498047,0.0,0
1.7994484901428223,0.03553839027881622,0.0024279789067804813,-0.13578112423419952,0.019413490747848174,0.7089432676931757,-0.00699027351608965,0.017547183395154698,-0.0001227265242465772,0.0,0.0,-0.6,0.0,0.002071380615234375,0.002071380615234375,0.0024955272674560547,0.0,0
1.8095076084136963,0.03647131845355034,0.002883066888898611,-0.1453038454055786,0.019445570413831555,0.7081288807770539,-0.00854957857866294,0.018987425385581857,-0.00012948549326833057,0.0,0.0,-0.6,0.0,0.002061605453491211,0.002061605453491211,0.0025835037231445312,0.0,0
1.819615125656128,0.03691501542925835,0.003097196575254202,-0.15000292658805847,0.01944992958770793,0.7074044061123924,-0.0075840253628498945,0.0165587231308859,-0.00011181555774640926,0.0,0.0,-0.6,0.0,0.0021762847900390625,0.0021762847900390625,0.0027086734771728516,0.0,0
1.8294575214385986,0.037342507392168045,0.0033028717152774334,-0.1546604484319687,0.01945378081069012,0.7067470494637111,-0.006764174058108616,0.013803756484163139,-9.068787807118523e-05,0.0,0.0,-0.6,0.0,0.00480198860168457,0.00480198860168457,0.005667686462402344,0.0,0
1.8396034240722656,0.03775588423013687,0.0034997211769223213,-0.15932080149650574,0.019473046452589873,0.7061361834569624,-0.007253877786504398,0.011690827252295671,-6.964113481005227e-05,0.0,0.0,-0.6,0.0,0.00272369384765625,0.00272369384765625,0.0034203529357910156,0.0,0
1.849961757659912,0.03889917582273483,0.004046811256557703,-0.17305080592632294,0.019472891567166348,0.705289752551928,-0.010180583658053358,0.010582077664900583,-4.494044056855564e-05,0.0,0.0,-0.6,0.0,0.0031239986419677734,0.0031239986419677734,0.003713369369506836,0.0,0
1.8594729900360107,0.03889917582273483,0.004046811256557703,-0.17305080592632294,0.019472891567166348,0.7046967597451066,-0.007131243592764466,0.008261103605600768,-3.817829642064194e-05,0.0,0.0,-0.6,0.0,0.0033752918243408203,0.0033752918243408203,0.004019498825073242,0.0,0
1.8700721263885498,0.03925085440278053,0.00421462208032608,-0.17754241824150085,0.019481818159744556,0.704161763730954,-0.007836954074546341,0.00779663631962898,-2.99214902139281e-05,0.0,0.0,-0.6,0.0,0.004366636276245117,0.004366636276245117,0.005235910415649414,0.0,0
1.8796062469482422,0.03958901762962341,0.004375477321445942,-0.18198953568935394,0.01949453001231538,0.7036682692832821,-0.006346139750928152,0.006759226942952488,-2.7231232303475793e-05,0.0,0.0,-0.6,0.0,0.002869129180908203,0.002869129180908203,0.003493785858154297,0.0,0
1.8897461891174316,0.040513139218091965,0.0048171766102313995,-0.19511592388153076,0.01951023378060911,0.7029921008537995,-0.008413844228001958,0.004463017101767498,5.198978540731895e-06,0.0,0.0,-0.6,0.0,0.0020551681518554688,0.0020551681518554688,0.0024750232696533203,0.0,0
1.899657964706421,0.040513139218091965,0.0048171766102313995,-0.19511592388153076,0.01951023378060911,0.7025184567382193,-0.005898560503116293,0.0033902380163286523,1.5962032119329712e-06,0.0,0.0,-0.6,0.0,0.0021753311157226562,0.0021753311157226562,0.002749204635620117,0.0,0
1.9094161987304688,0.041067589074373245,0.005075449123978615,-0.2037051022052765,0.019509777499163147,0.7019930676139644,-0.006055307197070661,0.004550118979019091,-6.117859127536075e-06,0.0,0.0,-0.6,0.0,0.001924276351928711,0.001924276351928711,0.0022869110107421875,0.0,0
1.9196715354919434,0.041067589074373245,0.005075449123978615,-0.2037051022052765,0.019509777499163147,0.701625104455911,-0.00424047303001274,0.003500033194918916,-6.832743618868373e-06,0.0,0.0,-0.6,0.0,0.0022192001342773438,0.0022192001342773438,0.0027599334716796875,0.0,0
1.9298007488250732,0.04180102050304413,0.005417623091489077,-0.21624326705932617,0.019530747857033414,0.7011081974243248,-0.006987044350632798,0.001012793367448155,3.151238250862471e-05,0.0,0.0,-0.6,0.0,0.0020008087158203125,0.0020008087158203125,0.0024347305297851562,0.0,0
1.93953537940979,0.04180102050304413,0.005417623091489077,-0.21624326705932617,0.019530747857033414,0.7007461632751155,-0.004900670778432208,0.0006647655351587132,2.2527812926410195e-05,0.0,0.0,-0.6,0.0,0.0020704269409179688,0.0020704269409179688,0.002524852752685547,0.0,0
1.949871301651001,0.04222489520907402,0.005620900541543961,-0.22442585229873657,0.019517716738681717,0.7003344423892999,-0.009110978822584772,-0.0016237088636043798,6.791771883120721e-05,0.0,0.0,-0.6,0.0,0.0018939971923828125,0.0018939971923828125,0.002304553985595703,0.0,0
1.9595129489898682,0.04222489520907402,0.005620900541543961,-0.22442585229873657,0.019517716738681717,0.700046101972437,-0.006392473624159392,-0.001424606473218262,5.000513748992419e-05,0.0,0.0,-0.6,0.0,0.002125263214111328,0.002125263214111328,0.002599954605102539,0.0,0
1.969919204711914,0.04275880753993988,0.005882963538169861,-0.23642921447753906,0.019534445154193628,0.6996414130578661,-0.003175104156377554,-0.004271987281539674,5.621465384355077e-05,0.0,0.0,-0.6,0.0,0.0018849372863769531,0.0018849372863769531,0.002254009246826172,0.0,0
1.9795727729797363,0.04275880753993988,0.005882963538169861,-0.23642921447753906,0.019534445154193628,0.6993579876854673,-0.002236228102870737,-0.0035321602977584216,4.401945587891085e-05,0.0,0.0,-0.6,0.0,0.0019524097442626953,0.0019524097442626953,0.0024743080139160156,0.0,0
1.9892992973327637,0.042908549308776855,0.005957179237157106,-0.24033547937870026,0.01954301773653041,0.6990972243617511,-0.001334150787588689,-0.005005776705905009,5.138444705909262e-05,0.0,0.0,-0.6,0.0,0.0017812252044677734,0.0017812252044677734,0.002167224884033203,0.0,0
1.999666690826416,0.043045300990343094,0.006024879403412342,-0.2441967874765396,0.019550295443311695,0.698848540031325,-5.4388981181923634e-05,-0.006123883593498465,5.335341825542865e-05,0.0,0.0,-0.6,0.0,0.0022001266479492188,0.0022001266479492188,0.0027337074279785156,0.0,0
2.0092623233795166,0.04328390955924988,0.006140652112662792,-0.2518391013145447,0.019579934677473234,0.6985770879450794,0.0019772288581736902,-0.00752277150121337,5.3491248749367384e-05,0.0,0.0,-0.6,0.0,0.0018618106842041016,0.0018618106842041016,0.0022830963134765625,0.0,0
2.019566774368286,0.0433870330452919,0.0061888182535767555,-0.25561821460723877,0.019585026621344606,0.6983298169687716,0.0018062373914222573,-0.007246990965272161,5.2581344649724494e-05,0.0,0.0,-0.6,0.0,0.002009153366088867,0.002009153366088867,0.0024950504302978516,0.0,0
2.029592275619507,0.04347950220108032,0.006231667473912239,-0.25935131311416626,0.01957509063880707,0.6981107053788256,0.001007554902567581,-0.007624119250444477,6.143324547683438e-05,0.0,0.0,-0.6,0.0,0.002279996871948242,0.002279996871948242,0.0029027462005615234,0.0,0
2.039716958999634,0.04356107860803604,0.006269101519137621,-0.26303723454475403,0.019573295081171775,0.6979118259953003,0.0019524755990663115,-0.0075791920057685066,5.568694865425748e-05,0.0,0.0,-0.6,0.0,0.003336191177368164,0.003336191177368164,0.004056692123413086,0.0,0
2.049410581588745,0.04403699189424515,0.0065259565599262714,-0.2718648314476013,0.019623011845314425,0.6976173623735533,-0.001629339570389624,-0.00678218529727083,7.101879374068789e-05,0.0,0.0,-0.6,0.0,0.0023984909057617188,0.0023984909057617188,0.0029418468475341797,0.0,0
2.059603214263916,0.04442343860864639,0.006743184756487608,-0.2769666314125061,0.019621986149460292,0.6973064804559309,-0.003191901372601512,-0.003855740649569042,5.4289092487126784e-05,0.0,0.0,-0.6,0.0,0.0022535324096679688,0.0022535324096679688,0.002785205841064453,0.0,0
2.0695626735687256,0.045145340263843536,0.007151114754378796,-0.28696706891059875,0.019621621174313566,0.6968914895810404,-0.00669576815890078,-0.0006936878120339063,4.691748571206085e-05,0.0,0.0,-0.6,0.0,0.0019192695617675781,0.0019192695617675781,0.0022797584533691406,0.0,0
