time,x,y,z,yaw,throttle,roll_rate,pitch_rate,yaw_rate,x_ref,y_ref,z_ref,yaw_ref,pred_time,nr_time,ctrl_callback_time,metadata
9.5367431640625e-07,0.024132754653692245,0.01386580802500248,1.4206641912460327,1.5345712464447179,-0.7572614888550474,0.027232384444606014,0.012791072621447241,-2.9312569654305914e-08,0.0,0.0,-0.6,1.5345712464447179,0.19297027587890625,0.19313359260559082,0.19416475296020508,Sim
0.1943509578704834,0.024132754653692245,0.01386580802500248,1.4206641912460327,1.5345712464447179,-0.8050315971173725,0.050312145474324305,0.030176182843391082,-4.724750424614913e-08,0.0,0.0,-0.6,1.5345712464447179,0.0004296302795410156,0.0005025863647460938,0.0009326934814453125,Jax
0.19961071014404297,0.024132445454597473,0.014052964746952057,1.4105637073516846,1.5344833691343496,-0.8415041885123514,0.06728983726502806,0.04796629075228662,-2.4608306254834997e-08,0.0,0.0,-0.6,1.5344833691343496,0.00038051605224609375,0.0004544258117675781,0.0008766651153564453,1x Speed
0.20967841148376465,0.02435186691582203,0.014063037931919098,1.4130233526229858,1.5345008042358763,-0.8696950516274098,0.07894731239236466,0.06369155212727062,-3.702109604018251e-08,0.0,0.0,-0.6,1.5345008042358763,0.0006282329559326172,0.000762939453125,0.0014717578887939453,0OrderHold
0.21996831893920898,0.02435186691582203,0.014063037931919098,1.4130233526229858,1.5345008042358763,-0.8916709021052255,0.08621072374083029,0.07648395333702182,-4.8133109808206926e-08,0.0,0.0,-0.6,1.5345008042358763,0.0008585453033447266,0.0009961128234863281,0.0018315315246582031,QuatYawError
0.22998523712158203,0.0244331993162632,0.01406572200357914,1.4139881134033203,1.5345209603541816,-0.908906995727256,0.09032001415211988,0.08641212954290257,-5.987107847818735e-08,0.0,0.0,-0.6,1.5345209603541816,0.0006859302520751953,0.0008111000061035156,0.0015773773193359375,NoPyJoules
0.23991036415100098,0.024517858400940895,0.014069017954170704,1.4150055646896362,1.5345237560992104,-0.922486696433534,0.0922371396182745,0.09383579666993015,-4.864579559762642e-08,0.0,0.0,-0.6,1.5345237560992104,0.0009245872497558594,0.0011320114135742188,0.0022122859954833984,0
0.250260591506958,0.024802301079034805,0.014079352840781212,1.4183831214904785,1.5345420209242624,-0.9332219602140158,0.09272704445246462,0.09915435430955814,-2.7368384628294835e-08,0.0,0.0,-0.6,1.5345420209242624,0.0009927749633789062,0.0011818408966064453,0.0022957324981689453,0
0.2602081298828125,0.024802301079034805,0.014079352840781212,1.4183831214904785,1.5345420209242624,-0.9417305212080705,0.09237966143741427,0.1029053991985472,-5.516530083291408e-09,0.0,0.0,-0.6,1.5345420209242624,0.001058340072631836,0.0012507438659667969,0.0024721622467041016,0
0.27029919624328613,0.024906828999519348,0.014081776142120361,1.4194427728652954,1.5345155442422334,-0.9484562171525898,0.09125854044521295,0.1053622658233797,1.058504884016548e-08,0.0,0.0,-0.6,1.5345155442422334,0.0008792877197265625,0.001043558120727539,0.0020356178283691406,0
0.2800614833831787,0.02512097731232643,0.014091997407376766,1.420990228652954,1.5345110019140065,-0.9526052024575125,0.08881208667594047,0.10653372733112855,2.2539119108669823e-08,0.0,0.0,-0.6,1.5345110019140065,0.001085519790649414,0.0013179779052734375,0.002601146697998047,0
0.2898437976837158,0.025346072390675545,0.014115981757640839,1.4214786291122437,1.5344943072563393,-0.9544109899628906,0.08488837813513436,0.10638890413176652,3.293380890916345e-08,0.0,0.0,-0.6,1.5344943072563393,0.0011587142944335938,0.0013816356658935547,0.0025911331176757812,0
0.30016160011291504,0.025346072390675545,0.014115981757640839,1.4214786291122437,1.5344943072563393,-0.9558490681185101,0.08200969576855041,0.1062480366438916,4.262133744253392e-08,0.0,0.0,-0.6,1.5344943072563393,0.001062631607055664,0.0012507438659667969,0.002597332000732422,0
0.3103501796722412,0.0254615880548954,0.014134887605905533,1.421255350112915,1.5344876118749091,-0.9561684869223338,0.07874853336636586,0.10556925408571259,4.5045149376681635e-08,0.0,0.0,-0.6,1.5344876118749091,0.0009131431579589844,0.001096487045288086,0.0022430419921875,0
0.3201406002044678,0.025579705834388733,0.014157929457724094,1.420695424079895,1.5344713447496252,-0.9555506057071675,0.07523836184605286,0.10435335234215742,2.7197165614115243e-08,0.0,0.0,-0.6,1.5344713447496252,0.001016378402709961,0.0011987686157226562,0.0022902488708496094,0
0.330333948135376,0.025967447087168694,0.014239412732422352,1.416878342628479,1.534424286784778,-0.9522995819340411,0.06921474406113612,0.10077485336010325,2.0562532548967883e-08,0.0,0.0,-0.6,1.534424286784778,0.0007565021514892578,0.0009086132049560547,0.0017383098602294922,0
0.34009861946105957,0.025967447087168694,0.014239412732422352,1.416878342628479,1.534424286784778,-0.9496807402473596,0.06525186806608102,0.09838861062110295,1.3451733444623224e-08,0.0,0.0,-0.6,1.534424286784778,0.0009334087371826172,0.0011103153228759766,0.0021581649780273438,0
0.34972357749938965,0.026099950075149536,0.014270844869315624,1.414871335029602,1.534432927002238,-0.9466180554966959,0.061417914488080975,0.09582281873176611,2.8151612745051876e-08,0.0,0.0,-0.6,1.534432927002238,0.000820159912109375,0.0009882450103759766,0.0018804073333740234,0
0.3598904609680176,0.02623213641345501,0.01430474128574133,1.4124606847763062,1.5344066066977322,-0.9431866835078734,0.05772112212667088,0.09307861928461347,7.677716567996187e-09,0.0,0.0,-0.6,1.5344066066977322,0.0007536411285400391,0.0009009838104248047,0.001798868179321289,0
0.37026071548461914,0.026363560929894447,0.014340839348733425,1.4096763134002686,1.5344051914598802,-0.9394481582927978,0.054180407168406775,0.0902098279500731,-7.45684394762636e-09,0.0,0.0,-0.6,1.5344051914598802,0.0007078647613525391,0.0008416175842285156,0.001653432846069336,0
0.37981510162353516,0.025617824867367744,0.014585159718990326,1.3941516876220703,1.5344168915520304,-0.9342398019987531,0.04905298822581853,0.08608112103914037,-1.5506305243135826e-08,0.0,0.0,-0.6,1.5344168915520304,0.0007174015045166016,0.0008678436279296875,0.0016427040100097656,0
0.39013147354125977,0.025259174406528473,0.014704073779284954,1.3860033750534058,1.5344299979789413,-0.9289433377054909,0.04443536953762,0.0822016724365437,-2.5185630771109846e-08,0.0,0.0,-0.6,1.5344299979789413,0.0014350414276123047,0.0017952919006347656,0.003491640090942383,0
0.40010595321655273,0.02456388808786869,0.014928743243217468,1.368937611579895,1.5344288946109381,-0.9224841463215088,0.03854255980546161,0.07714096258503324,-4.75707290034226e-08,0.0,0.0,-0.6,1.5344288946109381,0.002070903778076172,0.002431154251098633,0.004160404205322266,0
0.4103097915649414,0.024220861494541168,0.01503352914005518,1.3600234985351562,1.534433236657814,-0.9161891792953568,0.03335027697321304,0.0725630783111842,-5.0909526113304625e-08,0.0,0.0,-0.6,1.534433236657814,0.0011112689971923828,0.0013179779052734375,0.002580404281616211,0
0.4201338291168213,0.02388075552880764,0.015131840482354164,1.3508599996566772,1.5344422097143342,-0.9100304203806868,0.0287119039068113,0.06827939364317843,-4.159572170371418e-08,0.0,0.0,-0.6,1.5344422097143342,0.0011124610900878906,0.001361846923828125,0.002574443817138672,0
0.4298112392425537,0.023543260991573334,0.015223093330860138,1.3414483070373535,1.534450640071032,-0.903982364302104,0.024397636612824885,0.06411738059387317,-4.5206557455987406e-08,0.0,0.0,-0.6,1.534450640071032,0.0008790493011474609,0.0010466575622558594,0.002035379409790039,0
0.4399590492248535,0.022876448929309845,0.01538538932800293,1.3218952417373657,1.5344708200128305,-0.8969659994411221,0.01903320567247243,0.058671533274183445,-3.583475727585851e-08,0.0,0.0,-0.6,1.5344708200128305,0.0008063316345214844,0.0009601116180419922,0.0018711090087890625,0
0.44992876052856445,0.022545553743839264,0.015452747233211994,1.3117647171020508,1.5344747155461496,-0.8902553411153405,0.01438815382499577,0.05372752108873122,-4.117210267373097e-08,0.0,0.0,-0.6,1.5344747155461496,0.0008492469787597656,0.0010156631469726562,0.001969575881958008,0
0.45986151695251465,0.02221544273197651,0.015511938370764256,1.3014068603515625,1.5344846629653417,-0.8838015947024531,0.010274134412215134,0.04923759042488092,-2.6104595135451733e-08,0.0,0.0,-0.6,1.5344846629653417,0.0008094310760498047,0.0009641647338867188,0.0019092559814453125,0
0.4705977439880371,0.021890914067626,0.015563915483653545,1.290827989578247,1.5345000243231903,-0.8775710425333046,0.006522663419116604,0.04505585208794951,-1.5741164170481475e-08,0.0,0.0,-0.6,1.5345000243231903,0.0007884502410888672,0.0009417533874511719,0.0018734931945800781,0
0.47998738288879395,0.021237673237919807,0.015639811754226685,1.269031047821045,1.53454507186848,-0.8705329496012189,0.0017665618884828392,0.03968649447619488,-1.3851935044226773e-08,0.0,0.0,-0.6,1.53454507186848,0.000782012939453125,0.0009255409240722656,0.0018315315246582031,0
0.4898104667663574,0.020908351987600327,0.015661997720599174,1.2578294277191162,1.5345588324450352,-0.8638740809456086,-0.002286143652127157,0.03495312750712041,9.945203792729059e-09,0.0,0.0,-0.6,1.5345588324450352,0.0007448196411132812,0.0008938312530517578,0.001722097396850586,0
0.4998321533203125,0.020579012110829353,0.01567450910806656,1.2464371919631958,1.53454395832741,-0.857538300265184,-0.0058232431808061275,0.030628876222276894,-1.651119404862799e-09,0.0,0.0,-0.6,1.53454395832741,0.0007576942443847656,0.0009026527404785156,0.0017991065979003906,0
0.5096704959869385,0.02024860307574272,0.0156752560287714,1.2348626852035522,1.5345534064022748,-0.8514844868090616,-0.009001938260166082,0.02648757543995382,-3.990881377040501e-09,0.0,0.0,-0.6,1.5345534064022748,0.0007295608520507812,0.0008885860443115234,0.0017037391662597656,0
0.5199375152587891,0.019577588886022568,0.015633806586265564,1.2112021446228027,1.5346113330541173,-0.8447634408537913,-0.012999568190869162,0.021163936664568138,-7.79922543189206e-09,0.0,0.0,-0.6,1.5346113330541173,0.0007777214050292969,0.0009205341339111328,0.0018503665924072266,0
0.5300836563110352,0.019235361367464066,0.01559379231184721,1.1991322040557861,1.5346234399706313,-0.8384456572602965,-0.016444998412852102,0.016451142738487995,1.308619663782804e-08,0.0,0.0,-0.6,1.5346234399706313,0.0008533000946044922,0.0010159015655517578,0.00201416015625,0
0.5398705005645752,0.01889462023973465,0.015539892949163914,1.1868984699249268,1.5346310026554761,-0.8324703278004546,-0.0194881964909021,0.012128751734567579,1.0311766313947309e-08,0.0,0.0,-0.6,1.5346310026554761,0.0008540153503417969,0.001016855239868164,0.0019218921661376953,0
0.5500156879425049,0.018549375236034393,0.01547191757708788,1.1745221614837646,1.5346405310144353,-0.8267886803967586,-0.02218178724254914,0.008039543820208682,3.935647604299071e-09,0.0,0.0,-0.6,1.5346405310144353,0.0008738040924072266,0.001058340072631836,0.0021522045135498047,0
0.5600450038909912,0.01784794218838215,0.015297171659767628,1.1493711471557617,1.5346124618352615,-0.8205287584265939,-0.025474658145375296,0.003169332037365108,2.0154336258035476e-08,0.0,0.0,-0.6,1.5346124618352615,0.0009713172912597656,0.001207590103149414,0.0022890567779541016,0
0.5703873634338379,0.017488228157162666,0.01519104465842247,1.1366136074066162,1.5346186480493706,-0.8146714226474286,-0.028349875879898085,-0.0011050988261909322,3.2555845778703915e-08,0.0,0.0,-0.6,1.5346186480493706,0.001010894775390625,0.0012323856353759766,0.0023779869079589844,0
0.5804481506347656,0.017122620716691017,0.015071992762386799,1.1237447261810303,1.5346256043138646,-0.8091595905384977,-0.030883632035527957,-0.005023803025697956,1.5615030530966124e-08,0.0,0.0,-0.6,1.5346256043138646,0.0012640953063964844,0.0015213489532470703,0.003016233444213867,0
0.5899381637573242,0.016752298921346664,0.014938024803996086,1.1107738018035889,1.5346320862149256,-0.8039476188478676,-0.033113874119968856,-0.00871546432470479,1.572599244951742e-08,0.0,0.0,-0.6,1.5346320862149256,0.0009374618530273438,0.0011348724365234375,0.0022306442260742188,0
0.5999362468719482,0.016000786796212196,0.014627526514232159,1.0845023393630981,1.5346593717178991,-0.7982485190494872,-0.035613713624698645,-0.013040096257423812,1.0273802343343342e-08,0.0,0.0,-0.6,1.5346593717178991,0.0007984638214111328,0.0009479522705078125,0.0018529891967773438,0
0.6098086833953857,0.015623658895492554,0.01445101760327816,1.0712432861328125,1.5346526809447198,-0.7929393584070104,-0.03775790505441598,-0.01692502036735615,-3.790160676082456e-10,0.0,0.0,-0.6,1.5346526809447198,0.0006976127624511719,0.0008192062377929688,0.0015897750854492188,0
0.6196014881134033,0.015242688357830048,0.014259474352002144,1.0579127073287964,1.5346688915137612,-0.7879650989425864,-0.03963519769371402,-0.020440537687251632,-1.216838491101568e-08,0.0,0.0,-0.6,1.5346688915137612,0.00045228004455566406,0.0005347728729248047,0.0009715557098388672,0
0.6296699047088623,0.014857680536806583,0.014054153114557266,1.0445162057876587,1.5346931607310736,-0.7832700670547059,-0.04134256793498807,-0.02363649998437508,2.5775565279967046e-09,0.0,0.0,-0.6,1.5346931607310736,0.000484466552734375,0.0005738735198974609,0.0011584758758544922,0
0.6398224830627441,0.014072185382246971,0.013600361533463001,1.0175459384918213,1.534683136413028,-0.7781581818748227,-0.04342565057145793,-0.027341130373665045,1.3017080279598006e-08,0.0,0.0,-0.6,1.534683136413028,0.00048542022705078125,0.0005829334259033203,0.0011897087097167969,0
0.6496117115020752,0.013671547174453735,0.013352741487324238,1.0039863586425781,1.534660658482227,-0.7734043503873853,-0.045219314088939686,-0.03065931920796451,-1.3812108548123493e-09,0.0,0.0,-0.6,1.534660658482227,0.0004508495330810547,0.0005350112915039062,0.0010204315185546875,0
0.6598482131958008,0.013267277739942074,0.013090820051729679,0.9903806447982788,1.5346444988636125,-0.7689560960245786,-0.046624265247451564,-0.03371864477133815,3.923449888810117e-09,0.0,0.0,-0.6,1.5346444988636125,0.0006527900695800781,0.0007765293121337891,0.0014960765838623047,0
0.6700539588928223,0.012861174531280994,0.012814652174711227,0.9767389297485352,1.5346521340813528,-0.7647700252717422,-0.04782695575668302,-0.03658389865793542,1.1470083921680103e-08,0.0,0.0,-0.6,1.5346521340813528,0.0008893013000488281,0.001074075698852539,0.002089262008666992,0
0.6798450946807861,0.012452182359993458,0.012523870915174484,0.9630683660507202,1.5346721805626402,-0.760818280619675,-0.04886119569849472,-0.03926778441077932,2.6227955436767732e-08,0.0,0.0,-0.6,1.5346721805626402,0.0007989406585693359,0.0009596347808837891,0.001886129379272461,0
0.6899545192718506,0.011628574691712856,0.011901052668690681,0.9356669187545776,1.534692316724294,-0.7565107867188205,-0.049830856478809964,-0.04219692912092065,3.739010215463638e-08,0.0,0.0,-0.6,1.534692316724294,0.0008027553558349609,0.0009582042694091797,0.0019383430480957031,0
0.6998865604400635,0.01121226791292429,0.01157000008970499,0.9219445586204529,1.534701703007319,-0.7525083925709634,-0.050608236779143737,-0.04477690924013994,3.684189405745067e-08,0.0,0.0,-0.6,1.534701703007319,0.0007991790771484375,0.0009429454803466797,0.0017483234405517578,0
0.7103166580200195,0.010792160406708717,0.011227293871343136,0.9082151055335999,1.534718060650667,-0.748763465651841,-0.05126367855016686,-0.047007895284253316,4.564158287255218e-08,0.0,0.0,-0.6,1.534718060650667,0.0014579296112060547,0.00182342529296875,0.0035817623138427734,0
0.7205286026000977,0.010369256138801575,0.010873785242438316,0.8944698572158813,1.5347393091408197,-0.7452412759836974,-0.051794155196887466,-0.048989764875920515,6.560234817584152e-08,0.0,0.0,-0.6,1.5347393091408197,0.0017499923706054688,0.002091646194458008,0.00405573844909668,0
0.7301115989685059,0.009943971410393715,0.010508145205676556,0.8807266354560852,1.5347551371032584,-0.7419097949570453,-0.05230974170624255,-0.05082827042611146,7.533533129398552e-08,0.0,0.0,-0.6,1.5347551371032584,0.0015583038330078125,0.001996755599975586,0.004110574722290039,0
0.7407588958740234,0.009080559946596622,0.009739773347973824,0.8532618880271912,1.534802224867135,-0.738272409716895,-0.052815215750536854,-0.05269748633914096,8.502472692386132e-08,0.0,0.0,-0.6,1.534802224867135,0.0014255046844482422,0.0016818046569824219,0.003453493118286133,0
0.7498781681060791,0.008643685840070248,0.00933905504643917,0.8395482301712036,1.5348103537345985,-0.734887550673467,-0.05325384068154101,-0.05437691050886169,1.0364833475287951e-07,0.0,0.0,-0.6,1.5348103537345985,0.0009379386901855469,0.0011456012725830078,0.002269268035888672,0
0.760061502456665,0.0082069281488657,0.008926471695303917,0.8258525729179382,1.5348149531878748,-0.731724411986091,-0.05361161603096167,-0.055962335650989584,1.0354319756407248e-07,0.0,0.0,-0.6,1.5348149531878748,0.0010077953338623047,0.0011968612670898438,0.0022597312927246094,0
0.7713735103607178,0.0071795349940657616,0.008005098439753056,0.7951364517211914,1.5348584921671633,-0.7282213402110121,-0.05379329387080881,-0.05750684860339118,1.1360514690733525e-07,0.0,0.0,-0.6,1.5348584921671633,0.0010941028594970703,0.0013015270233154297,0.0025835037231445312,0
0.7799463272094727,0.006592155434191227,0.007500023581087589,0.7782139778137207,1.5348759643286607,-0.7248944756693079,-0.05405729823793499,-0.05896814155347817,1.045209978478477e-07,0.0,0.0,-0.6,1.5348759643286607,0.0008702278137207031,0.0010399818420410156,0.001990079879760742,0
0.7898588180541992,0.0060066827572882175,0.006984849460422993,0.7614097595214844,1.5348898475408017,-0.7217231849145459,-0.054129528147186017,-0.0602696141523432,1.1583491311859122e-07,0.0,0.0,-0.6,1.5348898475408017,0.0008392333984375,0.0010051727294921875,0.0019614696502685547,0
0.8001563549041748,0.004845410585403442,0.005931052379310131,0.7281582951545715,1.5349036326967185,-0.7182170548202538,-0.05383967854077424,-0.06131421928233981,1.1109769149779684e-07,0.0,0.0,-0.6,1.5349036326967185,0.001435995101928711,0.0017168521881103516,0.003186941146850586,0
0.8100831508636475,0.004269050899893045,0.005390484817326069,0.7117125391960144,1.534905738588078,-0.7149435650343546,-0.05353973661873062,-0.0623888421404145,9.134773531377331e-08,0.0,0.0,-0.6,1.534905738588078,0.0010535717010498047,0.0012755393981933594,0.0024399757385253906,0
0.8201210498809814,0.0036987883504480124,0.004840596113353968,0.6953879594802856,1.5349248337784953,-0.7118697195347811,-0.05325717403521037,-0.0634815738308253,7.969636042082407e-08,0.0,0.0,-0.6,1.5349248337784953,0.0009372234344482422,0.0011355876922607422,0.0022406578063964844,0
0.8298635482788086,0.0031320960260927677,0.004281739238649607,0.6791859269142151,1.5349426164185953,-0.7089749736955813,-0.052870165888162755,-0.06451122677717248,7.579062081258182e-08,0.0,0.0,-0.6,1.5349426164185953,0.0009543895721435547,0.0011432170867919922,0.0022192001342773438,0
0.8399758338928223,0.0025690256152302027,0.00371528510004282,0.6631086468696594,1.534947377231945,-0.7062410796202142,-0.05245639587119089,-0.06536933842055297,6.907559957827423e-08,0.0,0.0,-0.6,1.534947377231945,0.0008471012115478516,0.0010118484497070312,0.001957416534423828,0
0.850088357925415,0.0014533963985741138,0.0025614623446017504,0.6313310265541077,1.5349689803605264,-0.7032614141309347,-0.05164069170693873,-0.06590012551755459,7.227462110364468e-08,0.0,0.0,-0.6,1.5349689803605264,0.0008718967437744141,0.0010433197021484375,0.0020666122436523438,0
0.85988450050354,0.0009013712406158447,0.0019752979278564453,0.615632951259613,1.5349932772015182,-0.7005013297718669,-0.05080983565390449,-0.06635049418066495,6.715132303024438e-08,0.0,0.0,-0.6,1.5349932772015182,0.0008294582366943359,0.0010027885437011719,0.0019383430480957031,0
0.870452880859375,0.0003533154958859086,0.001383480615913868,0.6000635027885437,1.5350022864896684,-0.6979278808346225,-0.050119196554754095,-0.06674188400714481,8.779505898280828e-08,0.0,0.0,-0.6,1.5350022864896684,0.0008542537689208984,0.0010445117950439453,0.002010822296142578,0
0.8800530433654785,-0.00019269203767180443,0.0007858863100409508,0.5846242308616638,1.5350135487501184,-0.6955254792650749,-0.049531853119205514,-0.06707375389492505,8.477499850032122e-08,0.0,0.0,-0.6,1.5350135487501184,0.0008549690246582031,0.0010218620300292969,0.0020067691802978516,0
0.8898110389709473,-0.0007356456480920315,0.00018316494242753834,0.569317638874054,1.5350249727424314,-0.69327329844539,-0.048925206592053135,-0.06725034063765555,7.436006368881275e-08,0.0,0.0,-0.6,1.5350249727424314,0.0007574558258056641,0.0009071826934814453,0.00177001953125,0
0.9000756740570068,-0.0018051352817565203,-0.0010361497988924384,0.5390978455543518,1.535021234116427,-0.690834109350084,-0.04777963498343375,-0.06679997381904598,9.246901284742152e-08,0.0,0.0,-0.6,1.535021234116427,0.0008807182312011719,0.0010721683502197266,0.0020377635955810547,0
0.909785270690918,-0.002332984935492277,-0.001652075327001512,0.5241830348968506,1.535040240499854,-0.6885798529514866,-0.046767744132580405,-0.06649026568618069,8.524420152029644e-08,0.0,0.0,-0.6,1.535040240499854,0.0009012222290039062,0.0010790824890136719,0.002030611038208008,0
0.9198894500732422,-0.003374745137989521,-0.0028984248638153076,0.4947563409805298,1.535063608212765,-0.686233638063051,-0.04520470605222281,-0.06564135802379233,7.921875641114878e-08,0.0,0.0,-0.6,1.535063608212765,0.0007939338684082031,0.000946044921875,0.0018270015716552734,0
0.9299452304840088,-0.0038872843142598867,-0.0035269290674477816,0.4802471697330475,1.5350633739666286,-0.6840998930657697,-0.043877494746479596,-0.06505758912285421,7.480041638592664e-08,0.0,0.0,-0.6,1.5350633739666286,0.0008676052093505859,0.00102996826171875,0.002038240432739258,0
0.9399154186248779,-0.0043960511684417725,-0.004159307107329369,0.4658758044242859,1.5350877487619552,-0.6821483853691578,-0.04282941841969545,-0.06452610687749788,9.136917071130052e-08,0.0,0.0,-0.6,1.5350877487619552,0.0008499622344970703,0.0010097026824951172,0.0019392967224121094,0
0.9499471187591553,-0.00490142684429884,-0.004794894251972437,0.4516163170337677,1.5351069263346493,-0.6803557551627594,-0.04192531198951835,-0.06402724185645214,1.0234340503306343e-07,0.0,0.0,-0.6,1.5351069263346493,0.0008656978607177734,0.0010344982147216797,0.0020263195037841797,0
0.9600012302398682,-0.005402808077633381,-0.005433494690805674,0.4374968409538269,1.535128229641561,-0.678700987381371,-0.041000863548708584,-0.06347998561392415,1.0000351804439681e-07,0.0,0.0,-0.6,1.535128229641561,0.0009002685546875,0.001081705093383789,0.0021033287048339844,0
0.9702980518341064,-0.005895683541893959,-0.006074239499866962,0.4235163927078247,1.5351509502798388,-0.6771642328150965,-0.03994414949776028,-0.06288254506112283,7.963811261338959e-08,0.0,0.0,-0.6,1.5351509502798388,0.0008077621459960938,0.0009753704071044922,0.0018630027770996094,0
0.9800968170166016,-0.006863333750516176,-0.0073624784126877785,0.39597731828689575,1.535183148484609,-0.6755556286215942,-0.03833287824029496,-0.06154894920785394,6.351804255883408e-08,0.0,0.0,-0.6,1.535183148484609,0.000995635986328125,0.001233816146850586,0.002338409423828125,0
0.990220308303833,-0.007339285220950842,-0.00800904631614685,0.3824206292629242,1.5352057533636048,-0.6740939678749132,-0.03688855247151543,-0.06033193109281475,7.535080088576886e-08,0.0,0.0,-0.6,1.5352057533636048,0.0012500286102294922,0.0015153884887695312,0.0033071041107177734,0
1.0002098083496094,-0.008274352177977562,-0.00930643081665039,0.3557297885417938,1.5352280197397086,-0.6726144888871715,-0.034968712521431855,-0.05860737796739495,7.746838966826589e-08,0.0,0.0,-0.6,1.5352280197397086,0.0010380744934082031,0.0012671947479248047,0.0024781227111816406,0
1.0100958347320557,-0.008732358925044537,-0.009957871399819851,0.34259602427482605,1.5352298956846415,-0.6712808555098454,-0.033308334198379946,-0.05713969330343328,6.778858702134539e-08,0.0,0.0,-0.6,1.5352298956846415,0.0009236335754394531,0.0011081695556640625,0.0022020339965820312,0
1.019935131072998,-0.009184258989989758,-0.010610273107886314,0.32960477471351624,1.5352467254268571,-0.6700750245157036,-0.03178242182702028,-0.055779886093839326,6.612941732253982e-08,0.0,0.0,-0.6,1.5352467254268571,0.0008978843688964844,0.0010771751403808594,0.0020856857299804688,0
1.0300323963165283,-0.009624860249459743,-0.011263607069849968,0.316757470369339,1.5352865225322996,-0.6689866059041856,-0.030239149405533405,-0.05445834763422961,5.743255639012832e-08,0.0,0.0,-0.6,1.5352865225322996,0.000997304916381836,0.0012335777282714844,0.0024390220642089844,0
1.0400030612945557,-0.010483876802027225,-0.012568688951432705,0.29149264097213745,1.535322593390574,-0.667885636907555,-0.02818337599029062,-0.05247739812411247,7.485393421799637e-08,0.0,0.0,-0.6,1.535322593390574,0.0009064674377441406,0.001087188720703125,0.0020825862884521484,0
1.0498402118682861,-0.01090291328728199,-0.01321988645941019,0.27907443046569824,1.5353414806980623,-0.6669038479365528,-0.02628633152893348,-0.05071254397090588,6.715601244245757e-08,0.0,0.0,-0.6,1.5353414806980623,0.0007550716400146484,0.0009031295776367188,0.001779794692993164,0
1.060011863708496,-0.01131461188197136,-0.01386998686939478,0.2668004333972931,1.5353759828201312,-0.6660278857135012,-0.024523660535183643,-0.04902284333124455,7.84674907612888e-08,0.0,0.0,-0.6,1.5353759828201312,0.0008504390716552734,0.0010023117065429688,0.0019559860229492188,0
1.07004714012146,-0.011718953028321266,-0.0145188607275486,0.25465628504753113,1.5354095794513742,-0.665243319431913,-0.022804781401491742,-0.04744505855003346,8.20602669990518e-08,0.0,0.0,-0.6,1.5354095794513742,0.0007624626159667969,0.0009210109710693359,0.0017514228820800781,0
1.0799057483673096,-0.012115218676626682,-0.015166965313255787,0.24265573918819427,1.5354386381717793,-0.6645372666139255,-0.021083561300068117,-0.04588704357132746,7.500323999265543e-08,0.0,0.0,-0.6,1.5354386381717793,0.0007748603820800781,0.0009202957153320312,0.001847982406616211,0
1.0900466442108154,-0.012504227459430695,-0.015813445672392845,0.23079842329025269,1.5354629310099162,-0.6639041150367211,-0.019433869080805723,-0.04434077243232434,5.8374084483181505e-08,0.0,0.0,-0.6,1.5354629310099162,0.0008692741394042969,0.001043558120727539,0.002016305923461914,0
1.099935531616211,-0.013261944986879826,-0.01710154488682747,0.20751987397670746,1.5355088653168967,-0.6632971555069751,-0.017342661682655514,-0.042224116996186126,5.6186468318062905e-08,0.0,0.0,-0.6,1.5355088653168967,0.0008375644683837891,0.001001119613647461,0.001924753189086914,0
1.1100800037384033,-0.01362941600382328,-0.017740819603204727,0.19609734416007996,1.535529423695246,-0.6627713754281158,-0.015557814585262184,-0.04010071866989527,7.44633483109449e-08,0.0,0.0,-0.6,1.535529423695246,0.0008897781372070312,0.0010540485382080078,0.002072572708129883,0
1.1199936866760254,-0.014347345568239689,-0.019007466733455658,0.17362865805625916,1.5356020766541516,-0.6622869628913275,-0.013519770123027186,-0.03731095787728979,6.83414068218347e-08,0.0,0.0,-0.6,1.5356020766541516,0.0009205341339111328,0.0011000633239746094,0.0020914077758789062,0
1.1299254894256592,-0.014695615507662296,-0.019635453820228577,0.1625816375017166,1.535622639345489,-0.6618704879834889,-0.011733320279124874,-0.034836193908235516,8.440768451728149e-08,0.0,0.0,-0.6,1.535622639345489,0.0007212162017822266,0.0008540153503417969,0.0016982555389404297,0
1.1398086547851562,-0.015036256983876228,-0.020260145887732506,0.1516783982515335,1.5356365097368834,-0.6615175907261532,-0.01002501854886018,-0.032539471397155795,7.141060118317302e-08,0.0,0.0,-0.6,1.5356365097368834,0.0006170272827148438,0.0007407665252685547,0.0014362335205078125,0
1.1497159004211426,-0.015369169414043427,-0.020879777148365974,0.1409195214509964,1.5356651202968912,-0.6612253661286963,-0.008499472499225894,-0.030225894695735184,5.869119513640984e-08,0.0,0.0,-0.6,1.5356651202968912,0.0006732940673828125,0.0008144378662109375,0.001650094985961914,0
1.1599645614624023,-0.016014881432056427,-0.022100653499364853,0.11983075737953186,1.5357132001510596,-0.6609848917300976,-0.0066386577193295986,-0.02720663596861504,6.034388130233934e-08,0.0,0.0,-0.6,1.5357132001510596,0.0011641979217529297,0.0014045238494873047,0.002682209014892578,0
1.1711628437042236,-0.016850169748067856,-0.023320741951465607,0.1051836758852005,1.5357575319420589,-0.6606408410197202,-0.005230232061133064,-0.024866806809199386,5.667582341066426e-08,0.0,0.0,-0.6,1.5357575319420589,0.001039743423461914,0.0014624595642089844,0.0028820037841796875,0
1.1800036430358887,-0.01766459457576275,-0.024522408843040466,0.09078818559646606,1.5357651279806328,-0.6602301561078527,-0.00407223352409225,-0.023119238134946683,4.048185375065962e-08,0.0,0.0,-0.6,1.5357651279806328,0.0011267662048339844,0.0013632774353027344,0.002607107162475586,0
1.1907329559326172,-0.018459156155586243,-0.025706268846988678,0.07664225250482559,1.535783617511495,-0.659778498694966,-0.003167877024150171,-0.02177830111315006,2.886655989035424e-08,0.0,0.0,-0.6,1.535783617511495,0.0012850761413574219,0.0015914440155029297,0.0033614635467529297,0
1.2002620697021484,-0.019989624619483948,-0.028023699298501015,0.04907926172018051,1.5358259405855594,-0.6591802043603838,-0.0021724657483939906,-0.02063277455868904,1.85789144281024e-08,0.0,0.0,-0.6,1.5358259405855594,0.0011315345764160156,0.001354217529296875,0.0027093887329101562,0
1.2098805904388428,-0.020727159455418587,-0.029156671836972237,0.035652901977300644,1.5358231888824787,-0.6585983194653144,-0.0015021241236998254,-0.019770597032541786,4.699281157383135e-09,0.0,0.0,-0.6,1.5358231888824787,0.000858306884765625,0.0010161399841308594,0.0019965171813964844,0
1.2200901508331299,-0.02144842967391014,-0.030271941795945168,0.022459302097558975,1.5358232736522681,-0.6580315406655303,-0.001124474367891926,-0.01914935372814068,2.2587637676714656e-08,0.0,0.0,-0.6,1.5358232736522681,0.0009415149688720703,0.0011217594146728516,0.0021860599517822266,0
1.2297403812408447,-0.0221539456397295,-0.03137034922838211,0.009493328630924225,1.535827121458054,-0.6574858674460237,-0.0009095040985166622,-0.01870392545984714,8.20179456090547e-09,0.0,0.0,-0.6,1.535827121458054,0.0008418560028076172,0.0009946823120117188,0.0019266605377197266,0
1.240020751953125,-0.023511845618486404,-0.03351929038763046,-0.01577743887901306,1.5358490208047169,-0.6569009942253545,-0.0006547840823179032,-0.018315154908247467,2.53223255119201e-08,0.0,0.0,-0.6,1.5358490208047169,0.0007655620574951172,0.0009121894836425781,0.0018093585968017578,0
1.2501740455627441,-0.024165714159607887,-0.03457161784172058,-0.028080735355615616,1.5358550112881493,-0.6563699648494958,-0.0005858871011234332,-0.018226077277586284,8.978813260985622e-09,0.0,0.0,-0.6,1.5358550112881493,0.0012004375457763672,0.0014755725860595703,0.00298309326171875,0
1.2600781917572021,-0.024803388863801956,-0.0356098972260952,-0.04016660526394844,1.5358578576241,-0.6558875234379593,-0.00046354348420214855,-0.01830672309825057,-1.2851783143137152e-08,0.0,0.0,-0.6,1.5358578576241,0.0013828277587890625,0.0016603469848632812,0.0030956268310546875,0
1.270982265472412,-0.025423688814044,-0.0366332046687603,-0.05203825607895851,1.535860144685361,-0.6554530779902279,-0.0003684104678511795,-0.01834505049655966,-2.6414069965174442e-08,0.0,0.0,-0.6,1.535860144685361,0.0010459423065185547,0.0012753009796142578,0.0024297237396240234,0
1.2800922393798828,-0.026028281077742577,-0.03764026239514351,-0.06369883567094803,1.5358414081418403,-0.6550631055262454,-0.00041671871103621065,-0.018307810698802957,-4.7716281754016066e-08,0.0,0.0,-0.6,1.5358414081418403,0.0009367465972900391,0.0011272430419921875,0.0022759437561035156,0
1.2899463176727295,-0.027193309739232063,-0.039606716483831406,-0.08639729022979736,1.5358484203864524,-0.6546942939042154,-0.000451714293969865,-0.01812344005155958,-3.2229768928463754e-08,0.0,0.0,-0.6,1.5358484203864524,0.0008509159088134766,0.0010323524475097656,0.0020248889923095703,0
1.300504207611084,-0.0277521051466465,-0.04056825116276741,-0.09744147956371307,1.5358462580113545,-0.654375005762599,-0.00044810151861455203,-0.01806654400057878,-2.3012527832109114e-08,0.0,0.0,-0.6,1.5358462580113545,0.0014176368713378906,0.0016951560974121094,0.0032815933227539062,0
1.3101232051849365,-0.028295278549194336,-0.04151547700166702,-0.10828711837530136,1.5358457236648821,-0.6540989815070293,-0.00044623671524501976,-0.01792462949493969,-3.533594189044397e-08,0.0,0.0,-0.6,1.5358457236648821,0.002165555953979492,0.0025238990783691406,0.004436016082763672,0
1.3201050758361816,-0.0288177989423275,-0.04244743287563324,-0.11893550306558609,1.535858514469591,-0.6538720080581812,-0.0005711614564154709,-0.01769839456948453,-3.438705167996466e-08,0.0,0.0,-0.6,1.535858514469591,0.001018524169921875,0.001203298568725586,0.0023813247680664062,0
1.3301331996917725,-0.02982458844780922,-0.0442686527967453,-0.13964326679706573,1.5358482883687115,-0.6537043360779987,-0.0007342669253901475,-0.01754776137740975,-2.3725798553827852e-08,0.0,0.0,-0.6,1.5358482883687115,0.0009541511535644531,0.0011548995971679688,0.002317667007446289,0
1.3399417400360107,-0.03030707687139511,-0.04515792801976204,-0.14970719814300537,1.5358402070033133,-0.6535870218091147,-0.0007850524735820017,-0.01736221632991882,-3.742408271350647e-09,0.0,0.0,-0.6,1.5358402070033133,0.0008862018585205078,0.0010771751403808594,0.002056121826171875,0
1.3499562740325928,-0.030775917693972588,-0.0460321344435215,-0.15958036482334137,1.5358269176996178,-0.6535168648336295,-0.0008779238015285513,-0.017115418952943256,-5.155805330573698e-09,0.0,0.0,-0.6,1.5358269176996178,0.0008592605590820312,0.0010149478912353516,0.0020258426666259766,0
1.360013484954834,-0.03167277202010155,-0.047731585800647736,-0.17878620326519012,1.5358244197908815,-0.6535268982582114,-0.0007737351533924628,-0.016517603453900607,-4.4999493044262444e-09,0.0,0.0,-0.6,1.5358244197908815,0.0009279251098632812,0.0011162757873535156,0.002142190933227539,0
1.3710768222808838,-0.03209995478391647,-0.04855787381529808,-0.18810994923114777,1.5358282562061154,-0.6535765056978666,-0.0005754089894827466,-0.015951205449675446,4.289422733832915e-09,0.0,0.0,-0.6,1.5358282562061154,0.0017685890197753906,0.0019767284393310547,0.003798961639404297,0
1.3802540302276611,-0.03251321241259575,-0.04936940222978592,-0.19724933803081512,1.5358028086003048,-0.6536694337280775,-0.00033559908596673255,-0.015427075430827707,-7.94498992335041e-09,0.0,0.0,-0.6,1.5358028086003048,0.0012845993041992188,0.001567840576171875,0.003069639205932617,0
1.3899345397949219,-0.032911282032728195,-0.050167880952358246,-0.20620475709438324,1.5357798454407106,-0.6538030937596014,4.996860660392893e-06,-0.014935361012725794,-3.5805330563346252e-09,0.0,0.0,-0.6,1.5357798454407106,0.0009930133819580078,0.0011935234069824219,0.002344846725463867,0
1.4000210762023926,-0.03329477459192276,-0.05095266178250313,-0.21498018503189087,1.535764890394609,-0.6539661721446965,0.00044119399437807667,-0.014430164273636978,-1.9422416874173908e-08,0.0,0.0,-0.6,1.535764890394609,0.0009038448333740234,0.0010721683502197266,0.002119779586791992,0
1.4100570678710938,-0.03402290120720863,-0.052478428930044174,-0.23201970756053925,1.5357745265878684,-0.6542261216561374,0.0010029415777398855,-0.013696844495125673,2.0627274956607966e-09,0.0,0.0,-0.6,1.5357745265878684,0.0009005069732666016,0.0010700225830078125,0.002147197723388672,0
1.4199748039245605,-0.03436688333749771,-0.05322025343775749,-0.24028639495372772,1.535766741085763,-0.6545038701125844,0.0015908736397875196,-0.012981994100739939,9.758074710205478e-09,0.0,0.0,-0.6,1.535766741085763,0.0008740425109863281,0.001056671142578125,0.0020284652709960938,0
1.4300272464752197,-0.034697454422712326,-0.05394739657640457,-0.24838075041770935,1.535748462102948,-0.6548083352741902,0.002180054275128813,-0.01213757476744753,2.3326024991919165e-09,0.0,0.0,-0.6,1.535748462102948,0.0008792877197265625,0.0010464191436767578,0.0020880699157714844,0
1.440091848373413,-0.03532354161143303,-0.055354781448841095,-0.26405400037765503,1.5357133958746843,-0.6552316466711705,0.0027261244025317483,-0.010944003613967013,-1.199177852248139e-08,0.0,0.0,-0.6,1.5357133958746843,0.0010597705841064453,0.0012433528900146484,0.0023136138916015625,0
1.4501466751098633,-0.03561908006668091,-0.05603587627410889,-0.27163758873939514,1.535702280018173,-0.6556623413818471,0.003266385246445365,-0.009761468135705026,7.22351630766231e-09,0.0,0.0,-0.6,1.535702280018173,0.0013298988342285156,0.0016841888427734375,0.0033388137817382812,0
1.4604547023773193,-0.035902418196201324,-0.05670316889882088,-0.27905547618865967,1.5227766237936138,-0.6561067044188319,0.004620985987147736,-0.008949705452584101,1.4504727025002198e-08,0.0,0.0,-0.6,1.5227766237936138,0.0017614364624023438,0.0020570755004882812,0.003813028335571289,0
1.47021484375,-0.0361742302775383,-0.05735723301768303,-0.2863083779811859,1.5227478695566063,-0.6565655722303796,0.005708573513119177,-0.008092928933286584,1.2672876250756222e-08,0.0,0.0,-0.6,1.5227478695566063,0.001293182373046875,0.0016264915466308594,0.003331899642944336,0
1.4803388118743896,-0.036681853234767914,-0.0586274154484272,-0.3003726899623871,1.5227264242253957,-0.6571455047656031,0.007002357892429133,-0.007044372747059058,1.5523773794935783e-08,0.0,0.0,-0.6,1.5227264242253957,0.0015468597412109375,0.0018355846405029297,0.0034127235412597656,0
1.4901823997497559,-0.036917079240083694,-0.05924248695373535,-0.30716559290885925,1.52271026704522,-0.6577192544701895,0.008163216615767202,-0.0059166433384246955,-5.618090706292858e-09,0.0,0.0,-0.6,1.52271026704522,0.001087188720703125,0.0012941360473632812,0.002595663070678711,0
1.49989914894104,-0.03714069351553917,-0.05984272435307503,-0.31380271911621094,1.5227036533614247,-0.658288341286761,0.009168544940893114,-0.004578890494837296,-3.3809987754378944e-09,0.0,0.0,-0.6,1.5227036533614247,0.0009670257568359375,0.0011658668518066406,0.002203226089477539,0
1.5098657608032227,-0.03735426440834999,-0.0604281909763813,-0.320285826921463,1.5226811991465956,-0.658857497100872,0.010011928913443846,-0.0031363576698495363,-1.735237498219581e-08,0.0,0.0,-0.6,1.5226811991465956,0.0008268356323242188,0.0009877681732177734,0.0019707679748535156,0
1.5198473930358887,-0.03774547949433327,-0.06155750900506973,-0.3327972888946533,1.522682335121308,-0.6595492072359926,0.011144533658253871,-0.0014445766606798057,-7.298471967885138e-09,0.0,0.0,-0.6,1.522682335121308,0.0008902549743652344,0.001050710678100586,0.002003192901611328,0
1.5301527976989746,-0.03793716803193092,-0.06209927424788475,-0.3388667702674866,1.5226661830794235,-0.6602189316464957,0.012243360588551128,0.0001898707982474065,-1.9571325481153576e-08,0.0,0.0,-0.6,1.5226661830794235,0.001489400863647461,0.001880645751953125,0.003621816635131836,0
1.5402405261993408,-0.038116034120321274,-0.06262748688459396,-0.3447902202606201,1.5228217407115752,-0.6608722140344261,0.013265830255070728,0.0018516198668778905,-3.561268045286833e-08,0.0,0.0,-0.6,1.5228217407115752,0.00112152099609375,0.0013427734375,0.0026350021362304688,0
1.549858808517456,-0.03828314691781998,-0.0631411075592041,-0.3505696952342987,1.5229945930452162,-0.6615151637329183,0.014199425509706359,0.0035329787375445263,-5.2376582879732163e-08,0.0,0.0,-0.6,1.5229945930452162,0.0010051727294921875,0.0011763572692871094,0.00261688232421875,0
1.5600602626800537,-0.038579147309064865,-0.06412526220083237,-0.3617005944252014,1.5233160447335021,-0.6622835745519049,0.015338123648037752,0.005519065803782945,-4.5308468713725745e-08,0.0,0.0,-0.6,1.5233160447335021,0.0009472370147705078,0.0011243820190429688,0.002166748046875,0
1.5702521800994873,-0.03919953107833862,-0.0650278851389885,-0.37170490622520447,1.523477457065807,-0.6628583578309709,0.015978627350154075,0.007146942491148869,-3.7121564303469544e-08,0.0,0.0,-0.6,1.523477457065807,0.0006806850433349609,0.0008084774017333984,0.0015747547149658203,0
1.579850435256958,-0.03979935869574547,-0.06590960174798965,-0.3814545273780823,1.5236215085245162,-0.6632871137659162,0.01631088457589082,0.00831770154756709,-5.6154390529636354e-08,0.0,0.0,-0.6,1.5236215085245162,0.0007920265197753906,0.0009393692016601562,0.0017399787902832031,0
1.5900828838348389,-0.04037880152463913,-0.0667710229754448,-0.3909548819065094,1.5237592473829429,-0.6636007166380612,0.016366909491115203,0.009194074269057793,-5.5588803506742234e-08,0.0,0.0,-0.6,1.5237592473829429,0.0008988380432128906,0.0010652542114257812,0.002048492431640625,0
1.6000213623046875,-0.04147631675004959,-0.06843146681785583,-0.409261554479599,1.5240470366547136,-0.6638083625336668,0.01617168073704972,0.009812453896322954,-4.8374652892556465e-08,0.0,0.0,-0.6,1.5240470366547136,0.0009016990661621094,0.0011076927185058594,0.0021393299102783203,0
1.6097412109375,-0.04199514538049698,-0.06923083961009979,-0.4180624186992645,1.524212013932755,-0.6639607914773286,0.015844046290252496,0.0102652759560757,-4.4162026861739455e-08,0.0,0.0,-0.6,1.524212013932755,0.0007970333099365234,0.0009624958038330078,0.0018458366394042969,0
1.6200525760650635,-0.04249461740255356,-0.0700094997882843,-0.4266360402107239,1.524390730934784,-0.6640676301144982,0.01546359556381001,0.01057518183414645,-3.1637950545858186e-08,0.0,0.0,-0.6,1.524390730934784,0.0011622905731201172,0.0013456344604492188,0.0023956298828125,0
1.6297130584716797,-0.04297403246164322,-0.07076755166053772,-0.4349880516529083,1.524570186379707,-0.6641446546297676,0.015018335539255408,0.010838982704172556,-4.679103367451852e-08,0.0,0.0,-0.6,1.524570186379707,0.0007374286651611328,0.0009021759033203125,0.0018267631530761719,0
1.6399941444396973,-0.043434664607048035,-0.07150507718324661,-0.4431215524673462,1.5247406952677565,-0.6642078288982189,0.014539057905205405,0.011062763608793633,-4.7061963718752414e-08,0.0,0.0,-0.6,1.5247406952677565,0.0007994174957275391,0.0009458065032958984,0.001852273941040039,0
1.6499629020690918,-0.0438767708837986,-0.07222212105989456,-0.4510408937931061,1.5248911198942854,-0.6642606255697394,0.014033881534290783,0.011215871929215072,-5.3865823940282745e-08,0.0,0.0,-0.6,1.5248911198942854,0.0008664131164550781,0.0010349750518798828,0.0019927024841308594,0
1.6599040031433105,-0.04471093416213989,-0.07359901070594788,-0.46629586815834045,1.5251969165085149,-0.6643365002145128,0.013268768646786003,0.011209560441970716,-5.139747916968106e-08,0.0,0.0,-0.6,1.5251969165085149,0.0008604526519775391,0.0010304450988769531,0.001970529556274414,0
1.6704227924346924,-0.045102208852767944,-0.07425981014966965,-0.47361600399017334,1.5253532040415458,-0.6644145642998502,0.012631944514161612,0.01120181459132381,-4.7300397410725056e-08,0.0,0.0,-0.6,1.5253532040415458,0.000827789306640625,0.0010046958923339844,0.0019969940185546875,0
1.6802284717559814,-0.04583503305912018,-0.07552504539489746,-0.4876622259616852,1.525640289422766,-0.6645393198204304,0.011992989828908151,0.011195356082407274,-3.2256899519268294e-08,0.0,0.0,-0.6,1.525640289422766,0.0011441707611083984,0.0013890266418457031,0.002797365188598633,0
1.6899704933166504,-0.04617715999484062,-0.07613168656826019,-0.49439382553100586,1.525800507731053,-0.664675386525007,0.01134156632446829,0.01099548456897139,-1.6831376158974116e-08,0.0,0.0,-0.6,1.525800507731053,0.0009467601776123047,0.001146078109741211,0.0022437572479248047,0
1.7001316547393799,-0.04650411009788513,-0.07672329246997833,-0.5009357929229736,1.5259273417650883,-0.6648292143300305,0.010764054343529606,0.010739783419832128,-3.127111686842873e-09,0.0,0.0,-0.6,1.5259273417650883,0.0009853839874267578,0.0012083053588867188,0.0023391246795654297,0
1.7097971439361572,-0.046815838664770126,-0.07729873061180115,-0.5072916150093079,1.5260438338711642,-0.6649989665314414,0.010195212774030932,0.01053097304924086,-2.4900249684971955e-08,0.0,0.0,-0.6,1.5260438338711642,0.0008835792541503906,0.0010559558868408203,0.002051830291748047,0
1.7199349403381348,-0.047396041452884674,-0.07839600741863251,-0.5194862484931946,1.5263105966256505,-0.66524916843968,0.009518166821678976,0.010571580528528687,-1.2358501372972315e-08,0.0,0.0,-0.6,1.5263105966256505,0.0008375644683837891,0.0009987354278564453,0.0019326210021972656,0
1.7299604415893555,-0.04766501113772392,-0.07891663163900375,-0.5253152251243591,1.5264495048008282,-0.6655091507807792,0.008906253386989037,0.010662864057753548,-3.354737707301139e-08,0.0,0.0,-0.6,1.5264495048008282,0.0008609294891357422,0.0010275840759277344,0.0020148754119873047,0
1.739854097366333,-0.047921113669872284,-0.07942097634077072,-0.5309696793556213,1.5265799701406217,-0.6657854151481821,0.008278847582131123,0.010767434458730714,-3.583822897544707e-08,0.0,0.0,-0.6,1.5265799701406217,0.0007903575897216797,0.0009474754333496094,0.0018055438995361328,0
1.7500593662261963,-0.0481649711728096,-0.07990919053554535,-0.5364514589309692,1.5266925441614754,-0.6660793097391887,0.0077246724006107504,0.010863349825103202,-2.2822904531106653e-08,0.0,0.0,-0.6,1.5266925441614754,0.0008947849273681641,0.001062154769897461,0.002146482467651367,0
1.7600460052490234,-0.048612698912620544,-0.0808391198515892,-0.5469049215316772,1.5269285080491726,-0.6664769843650031,0.007240979758089356,0.010818113992895582,-3.628716929858851e-08,0.0,0.0,-0.6,1.5269285080491726,0.0009870529174804688,0.0011932849884033203,0.002315521240234375,0
1.7703595161437988,-0.04881534352898598,-0.0812823697924614,-0.5519222617149353,1.527036247913981,-0.6668787330090972,0.006887638764949246,0.010737579222754331,-1.4573595060877097e-08,0.0,0.0,-0.6,1.527036247913981,0.0009386539459228516,0.0011692047119140625,0.0021979808807373047,0
1.7802178859710693,-0.049003709107637405,-0.0817115381360054,-0.5567765235900879,1.5271441655245264,-0.667285417299258,0.006678426447021399,0.010666975964271757,-2.5111047062936643e-08,0.0,0.0,-0.6,1.5271441655245264,0.0010139942169189453,0.0012624263763427734,0.002527952194213867,0
1.7897498607635498,-0.04917803779244423,-0.08212563395500183,-0.5614714026451111,1.5272167519679476,-0.667698020226625,0.006559648982809669,0.010698093097693833,-4.018379743425311e-08,0.0,0.0,-0.6,1.5272167519679476,0.0007917881011962891,0.0009846687316894531,0.0018835067749023438,0
1.7998640537261963,-0.049339186400175095,-0.08252408355474472,-0.5660091042518616,1.527308925086416,-0.6681186201366596,0.006423485827896669,0.010814704523878322,-4.611336181478783e-08,0.0,0.0,-0.6,1.527308925086416,0.0007774829864501953,0.0009522438049316406,0.0018024444580078125,0
1.8099424839019775,-0.049488283693790436,-0.0829082503914833,-0.5703927874565125,1.5274003202144746,-0.6685488588422268,0.006277744104732508,0.01095789656482117,-6.642989708525444e-08,0.0,0.0,-0.6,1.5274003202144746,0.0008542537689208984,0.0010843276977539062,0.0021102428436279297,0
1.8199915885925293,-0.04975307360291481,-0.08363495767116547,-0.578703761100769,1.5275411691819243,-0.6690982809593681,0.005984722267041119,0.010981819453906746,-6.325927071555408e-08,0.0,0.0,-0.6,1.5275411691819243,0.0012173652648925781,0.001506805419921875,0.002742767333984375,0
1.830035924911499,-0.04986979067325592,-0.08397971093654633,-0.5826357007026672,1.5275828686862851,-0.6696430503742894,0.005815347728016541,0.010944522983110173,-6.893891423179688e-08,0.0,0.0,-0.6,1.5275828686862851,0.00096893310546875,0.0011970996856689453,0.0023353099822998047,0
1.8399646282196045,-0.050072427839040756,-0.08463282883167267,-0.5901365876197815,1.527680885179831,-0.6702972432421973,0.005619611710135011,0.010970559230568782,-6.471474350993154e-08,0.0,0.0,-0.6,1.527680885179831,0.0010437965393066406,0.001245737075805664,0.0022954940795898438,0
1.8500275611877441,-0.05015891417860985,-0.08493921905755997,-0.5936739444732666,1.5277203869044862,-0.6709286214054336,0.005487821694989796,0.011203435297619564,-4.4170274924026885e-08,0.0,0.0,-0.6,1.5277203869044862,0.0007996559143066406,0.0009691715240478516,0.0018699169158935547,0
1.859994888305664,-0.050234969705343246,-0.08523182570934296,-0.5970737934112549,1.5277496880502746,-0.671540684724174,0.0054454808679867545,0.011548896475032048,-3.2758629812761405e-08,0.0,0.0,-0.6,1.5277496880502746,0.0008785724639892578,0.0010690689086914062,0.002057790756225586,0
1.8712389469146729,-0.05030137300491333,-0.08551070094108582,-0.600338876247406,1.5277840746891986,-0.672141106991143,0.005337703374169098,0.011990395801798285,-4.568487536455185e-08,0.0,0.0,-0.6,1.5277840746891986,0.0021691322326660156,0.0026705265045166016,0.004409074783325195,0
1.8802008628845215,-0.05035921931266785,-0.08577638119459152,-0.6034711003303528,1.5278206582029976,-0.6727348750323859,0.005298172570146079,0.012437216327694333,-6.374854173944474e-08,0.0,0.0,-0.6,1.5278206582029976,0.0009560585021972656,0.0011565685272216797,0.0024416446685791016,0
1.8900773525238037,-0.05044562369585037,-0.08627082407474518,-0.6093602180480957,1.5278902507825933,-0.6734454583694837,0.005292064962433381,0.012810150694673447,-4.669988750570157e-08,0.0,0.0,-0.6,1.5278902507825933,0.0009815692901611328,0.0011827945709228516,0.0023369789123535156,0
1.9000039100646973,-0.0504750981926918,-0.08649983257055283,-0.61212158203125,1.5279068418863107,-0.6741313377584456,0.005377192342690308,0.013205806489094295,-6.653752765930685e-08,0.0,0.0,-0.6,1.5279068418863107,0.0010459423065185547,0.0012104511260986328,0.0022258758544921875,0
1.909916877746582,-0.050495706498622894,-0.08671547472476959,-0.6147592663764954,1.5279239205454105,-0.6747954975295043,0.005486734149208403,0.013792195012609205,-7.44351665214129e-08,0.0,0.0,-0.6,1.5279239205454105,0.0008444786071777344,0.0010077953338623047,0.0019865036010742188,0
1.9199366569519043,-0.050509341061115265,-0.0871051549911499,-0.6196708679199219,1.527956175680201,-0.6755760348502896,0.00572629141131069,0.014506618051017077,-5.656842227060952e-08,0.0,0.0,-0.6,1.527956175680201,0.0008442401885986328,0.0010046958923339844,0.001936197280883789,0
1.9297947883605957,-0.050500787794589996,-0.0872810035943985,-0.6219470500946045,1.5279814431218988,-0.6763241269848865,0.0061619403510106315,0.015282966141186322,-4.055754914608319e-08,0.0,0.0,-0.6,1.5279814431218988,0.0009136199951171875,0.0011093616485595703,0.0021038055419921875,0
1.9405038356781006,-0.05048049986362457,-0.0874447375535965,-0.6241070032119751,1.527996062711484,-0.6770510102717164,0.006739149995453982,0.016035074993599747,-4.0772949921626326e-08,0.0,0.0,-0.6,1.527996062711484,0.001608133316040039,0.00186920166015625,0.003625154495239258,0
1.9504094123840332,-0.05045056715607643,-0.08759664744138718,-0.6261515617370605,1.528005293701358,-0.6777617524444183,0.007227863613961152,0.016860898650533192,-2.1475560720313313e-08,0.0,0.0,-0.6,1.528005293701358,0.0016472339630126953,0.0019540786743164062,0.0038199424743652344,0
1.9599881172180176,-0.05036694556474686,-0.08786267042160034,-0.6299082040786743,1.528019654097809,-0.6785808204687426,0.007827558534533199,0.01782536961728678,-2.6159931752749473e-08,0.0,0.0,-0.6,1.528019654097809,0.0007414817810058594,0.0009005069732666016,0.002111673355102539,0
1.9710958003997803,-0.05074694752693176,-0.08827818185091019,-0.6363005042076111,1.528033091748172,-0.6792032774845729,0.008137952103699126,0.018590437425427365,-4.328083783297296e-08,0.0,0.0,-0.6,1.528033091748172,0.0014348030090332031,0.00177001953125,0.003489255905151367,0
1.9800453186035156,-0.05110957473516464,-0.08867694437503815,-0.6424673199653625,1.5280613997488608,-0.6796770540069602,0.008089703736962798,0.019104615530061902,-3.960103336030343e-08,0.0,0.0,-0.6,1.5280613997488608,0.000980377197265625,0.0011703968048095703,0.0023670196533203125,0
1.9902536869049072,-0.05145760625600815,-0.08905982226133347,-0.6484137773513794,1.5280817849067183,-0.6800336787666044,0.007783395015461922,0.019360923091122268,-3.5743023595795016e-08,0.0,0.0,-0.6,1.5280817849067183,0.00102996826171875,0.0012347698211669922,0.002536773681640625,0
2.0000739097595215,-0.052103523164987564,-0.0897786021232605,-0.6596831679344177,1.52814215767277,-0.6802710408460068,0.007280729039075704,0.0193819410126333,-5.6833163491685803e-08,0.0,0.0,-0.6,1.52814215767277,0.0009264945983886719,0.0011093616485595703,0.0021448135375976562,0
2.009963035583496,-0.05240125209093094,-0.0901128351688385,-0.6650161147117615,1.5281693934801148,-0.6804481666998651,0.006884768257224663,0.01934101209237277,-5.686853911046255e-08,0.0,0.0,-0.6,1.5281693934801148,0.0007975101470947266,0.0009489059448242188,0.0018575191497802734,0
2.0200483798980713,-0.05268220603466034,-0.0904311090707779,-0.6701517701148987,1.5281637878342185,-0.6805759355041124,0.006512409031246866,0.019221663057833457,-5.792732912913586e-08,0.0,0.0,-0.6,1.5281637878342185,0.000896453857421875,0.0010631084442138672,0.002050161361694336,0
2.029881000518799,-0.05294773355126381,-0.09073381125926971,-0.675096333026886,1.5281744568707862,-0.6806670216104553,0.0060982991626435295,0.019049593937519285,-3.674684021637415e-08,0.0,0.0,-0.6,1.5281744568707862,0.000804901123046875,0.0009951591491699219,0.0020160675048828125,0
2.040315866470337,-0.053436342626810074,-0.09129460901021957,-0.6844252943992615,1.5281863496153232,-0.6807457825458525,0.005365633059610729,0.018678124891013528,-2.6135373246295223e-08,0.0,0.0,-0.6,1.5281863496153232,0.0013113021850585938,0.0015616416931152344,0.0031728744506835938,0
2.0499520301818848,-0.053659677505493164,-0.09155410528182983,-0.6888172626495361,1.5281981758877032,-0.6808149084308616,0.0047425583653913014,0.018311269296116667,-6.2789403338213294e-09,0.0,0.0,-0.6,1.5281981758877032,0.0008914470672607422,0.001073598861694336,0.002100706100463867,0
2.059978723526001,-0.05386916175484657,-0.09179921448230743,-0.6930341124534607,1.5282048003638797,-0.6808791012550283,0.0040937206343437905,0.017956324254372935,-5.625963669220282e-09,0.0,0.0,-0.6,1.5282048003638797,0.0014188289642333984,0.0016887187957763672,0.0032243728637695312,0
2.070732593536377,-0.054065100848674774,-0.09203039109706879,-0.6970799565315247,1.5281811392032152,-0.6809447861764729,0.003549867687146936,0.01763773810041088,-2.6635130008240888e-08,0.0,0.0,-0.6,1.5281811392032152,0.0009658336639404297,0.0011737346649169922,0.002420186996459961,0
2.0799190998077393,-0.0544150285422802,-0.09245064854621887,-0.7046731114387512,1.5281675474501482,-0.6810385567856347,0.0030338682790692706,0.01723176936757843,-4.8352168802087046e-08,0.0,0.0,-0.6,1.5281675474501482,0.0009391307830810547,0.0011138916015625,0.0021855831146240234,0
2.089906692504883,-0.05456800013780594,-0.09264112263917923,-0.7082275748252869,1.5281533493651889,-0.6811375333540169,0.002753715003411519,0.016826876383777875,-2.991674141759435e-08,0.0,0.0,-0.6,1.5281533493651889,0.0008039474487304688,0.000972747802734375,0.0018801689147949219,0
2.0999324321746826,-0.05470661446452141,-0.0928192287683487,-0.7116265892982483,1.5281473866205215,-0.6812457215923144,0.002578086659259549,0.016397496118995086,-1.237596947135768e-08,0.0,0.0,-0.6,1.5281473866205215,0.0009086132049560547,0.0010762214660644531,0.0020706653594970703,0
2.109821081161499,-0.05483177676796913,-0.09298557788133621,-0.7148703932762146,1.5281654942558733,-0.6813767724061123,0.002468828568745164,0.01595933441666447,6.071255459232267e-10,0.0,0.0,-0.6,1.5281654942558733,0.0007660388946533203,0.0009241104125976562,0.0017857551574707031,0
2.1197614669799805,-0.05504484474658966,-0.09328347444534302,-0.7209060788154602,1.5281725933077714,-0.6815661071778536,0.0023506324669161503,0.015377017434457593,-6.476573665954954e-09,0.0,0.0,-0.6,1.5281725933077714,0.0008568763732910156,0.0010366439819335938,0.0019845962524414062,0
2.130506753921509,-0.05513204634189606,-0.09341607987880707,-0.7237047553062439,1.5281855789862606,-0.6817669391817274,0.0024158985729063965,0.014779414091944724,-1.6612728295717993e-08,0.0,0.0,-0.6,1.5281855789862606,0.001436471939086914,0.0017352104187011719,0.003236055374145508,0
2.1401007175445557,-0.055205509066581726,-0.09354060888290405,-0.7263611555099487,1.5281949642174653,-0.6819820406976804,0.002422342733174552,0.014007678476113884,-3.8860591221709866e-08,0.0,0.0,-0.6,1.5281949642174653,0.001003265380859375,0.0012097358703613281,0.0023615360260009766,0
2.150104284286499,-0.055269017815589905,-0.09365738183259964,-0.7288753986358643,1.5282214745066072,-0.6822204188466131,0.0022646599500332973,0.013258791149121534,-4.392643262968818e-08,0.0,0.0,-0.6,1.5282214745066072,0.0008878707885742188,0.001073598861694336,0.0021796226501464844,0
2.160072088241577,-0.055364448577165604,-0.09385848045349121,-0.7334873676300049,1.5282453529150133,-0.6825452652443029,0.0021620042482750528,0.012554205661511927,-3.528651320952762e-08,0.0,0.0,-0.6,1.5282453529150133,0.0009021759033203125,0.0010728836059570312,0.0021042823791503906,0
2.1700549125671387,-0.05539635568857193,-0.09394370764493942,-0.7355929017066956,1.528246278426413,-0.6828696000561993,0.0020865817961915724,0.011997437696727701,-3.721390306320408e-08,0.0,0.0,-0.6,1.528246278426413,0.0007634162902832031,0.0009093284606933594,0.0017476081848144531,0
2.1800215244293213,-0.055416740477085114,-0.09401881694793701,-0.7375780344009399,1.5282511463519457,-0.683198647863908,0.0021998926391264724,0.011566441624389488,-4.6513013922512723e-08,0.0,0.0,-0.6,1.5282511463519457,0.0008671283721923828,0.0010275840759277344,0.0019888877868652344,0
2.189775228500366,-0.055425047874450684,-0.0940840020775795,-0.7394345998764038,1.5282777887136518,-0.6835409698658457,0.0024096980739804832,0.011270351542723286,-3.378013562610367e-08,0.0,0.0,-0.6,1.5282777887136518,0.0007789134979248047,0.0009310245513916016,0.0018143653869628906,0
2.19989013671875,-0.05542223900556564,-0.09413856267929077,-0.741163969039917,1.5283116703428867,-0.6838971094404453,0.0027278099845390092,0.01107175726932414,-5.59243098104612e-08,0.0,0.0,-0.6,1.5283116703428867,0.0008282661437988281,0.0009737014770507812,0.0018668174743652344,0
2.2099647521972656,-0.055385392159223557,-0.09421610832214355,-0.7442485690116882,1.528325248785909,-0.6843573156635605,0.0030460196152080907,0.010839542198313613,-3.7643692453171875e-08,0.0,0.0,-0.6,1.528325248785909,0.0008428096771240234,0.0010018348693847656,0.0020246505737304688,0
2.21981143951416,-0.055350951850414276,-0.09424027800559998,-0.7456095218658447,1.5283290387153112,-0.6848151832435239,0.0034483074266749847,0.010703554608760454,-2.8693645446243898e-08,0.0,0.0,-0.6,1.5283290387153112,0.00103759765625,0.0012633800506591797,0.0023431777954101562,0
2.2305309772491455,-0.055306386202573776,-0.09425461292266846,-0.7468531131744385,1.5283300461455773,-0.6852704175411701,0.003815331808590414,0.010652170024188463,-4.428687604621902e-08,0.0,0.0,-0.6,1.5283300461455773,0.00238800048828125,0.0031304359436035156,0.005451679229736328,0
2.2398765087127686,-0.05519210174679756,-0.09425503015518188,-0.7490234971046448,1.5283467513653255,-0.6858101400171577,0.004190766056336745,0.010461337476595545,-5.391291069822667e-08,0.0,0.0,-0.6,1.5283467513653255,0.0013735294342041016,0.0016376972198486328,0.002933979034423828,0
2.249932050704956,-0.055122051388025284,-0.09424374997615814,-0.7499550580978394,1.5283592343737495,-0.6863317917086055,0.0046329768908060735,0.01031068012421336,-7.623537526499892e-08,0.0,0.0,-0.6,1.5283592343737495,0.0009043216705322266,0.0010762214660644531,0.0020689964294433594,0
2.260061502456665,-0.0550423189997673,-0.0942249596118927,-0.7507793307304382,1.528366744531201,-0.6868438667565432,0.005164004528274743,0.01022890982412097,-9.854123525064193e-08,0.0,0.0,-0.6,1.528366744531201,0.0011138916015625,0.0012888908386230469,0.0023088455200195312,0
2.270597219467163,-0.05495337396860123,-0.09419842064380646,-0.7514972686767578,1.528378119556883,-0.6873542017481613,0.005654181517426496,0.01021112783185502,-1.0206742043935776e-07,0.0,0.0,-0.6,1.528378119556883,0.002401113510131836,0.002973794937133789,0.005588054656982422,0
