time,x,y,z,yaw,throttle,roll_rate,pitch_rate,yaw_rate,x_ref,y_ref,z_ref,yaw_ref,pred_time,nr_time,ctrl_callback_time,v_norm,metadata
9.5367431640625e-07,-0.010612452402710915,0.0029375015292316675,0.10386000573635101,-0.01417579882460788,0.7161234205069721,0.036038510501384735,0.031441494822502136,0.005878187250345945,0.0,0.0,-0.6,0.0,0.8669886589050293,0.8669886589050293,0.9787790775299072,0,Sim
0.9795205593109131,-0.010612452402710915,0.0029375015292316675,0.10386000573635101,-0.01417579882460788,0.7338013852231237,0.05699578672647476,0.04959871247410774,0.00934683345258236,0.0,0.0,-0.6,0.0,0.0003921985626220703,0.0003921985626220703,0.005487680435180664,0,jax_reg_wardi
0.9860694408416748,-0.005677799694240093,0.002568749478086829,0.13004924356937408,-0.01376836257749657,0.7485799166843392,0.0708511620759964,0.06605693697929382,0.01139830332249403,0.0,0.0,-0.6,0.0,0.00033020973205566406,0.00033020973205566406,0.006098508834838867,0,1x Speed
0.9928898811340332,-0.005677799694240093,0.002568749478086829,0.13004924356937408,-0.01376836257749657,0.7602271502341692,0.07951106876134872,0.07631874084472656,0.012730991467833519,0.0,0.0,-0.6,0.0,0.0003898143768310547,0.0003898143768310547,0.006395101547241211,0,helix
1.0000817775726318,-0.00566643662750721,0.0026330254040658474,0.13008491694927216,-0.013801622608184133,0.7694245223134668,0.08503258228302002,0.08271881192922592,0.01364501379430294,0.0,0.0,-0.6,0.0,0.0003914833068847656,0.0003914833068847656,0.005509614944458008,0,0
1.0105829238891602,-0.005652644671499729,0.002666097367182374,0.13014543056488037,-0.01381769758655769,0.7767163167182415,0.08862432837486267,0.08687878400087357,0.01428142748773098,0.0,0.0,-0.6,0.0,0.0003867149353027344,0.0003867149353027344,0.005853176116943359,0,0
1.0198948383331299,-0.005622193682938814,0.0027175433933734894,0.13033956289291382,-0.013827535336869501,0.7825076841025238,0.0912540853023529,0.08986122161149979,0.014716477133333683,0.0,0.0,-0.6,0.0,0.00038743019104003906,0.00038743019104003906,0.006235837936401367,0,0
1.0298402309417725,-0.0056088329292833805,0.0027363018598407507,0.13047251105308533,-0.013785416128313075,0.7871164311971681,0.09302424639463425,0.09177114069461823,0.015004860237240791,0.0,0.0,-0.6,0.0,0.00038170814514160156,0.00038170814514160156,0.005782365798950195,0,0
1.0400006771087646,-0.005597086623311043,0.0027512703090906143,0.13062851130962372,-0.013780647732938411,0.7907865204413457,0.09434198588132858,0.09301206469535828,0.015201948583126068,0.0,0.0,-0.6,0.0,0.00038623809814453125,0.00038623809814453125,0.006142854690551758,0,0
1.049792766571045,-0.005576303228735924,0.0027644045185297728,0.13091707229614258,-0.01377112095891642,0.7935028679304841,0.09519127756357193,0.09376423060894012,0.015336135402321815,0.0,0.0,-0.6,0.0,0.00035881996154785156,0.00035881996154785156,0.005712985992431641,0,0
1.0600910186767578,-0.005569090601056814,0.0027679651975631714,0.13098075985908508,-0.013794230256031442,0.7954403246448085,0.09541227668523788,0.0940522626042366,0.01544791366904974,0.0,0.0,-0.6,0.0,0.00040984153747558594,0.00040984153747558594,0.005976438522338867,0,0
1.0698072910308838,-0.005562356673181057,0.002768285572528839,0.13096608221530914,-0.013806701719355191,0.7967053585208467,0.09506764262914658,0.0939902737736702,0.01554122380912304,0.0,0.0,-0.6,0.0,0.0003769397735595703,0.0003769397735595703,0.0062406063079833984,0,0
1.0834136009216309,-0.005555095616728067,0.0027669973205775023,0.1308572143316269,-0.013781459061126941,0.7974018748587502,0.0940738394856453,0.09355802088975906,0.01561562530696392,0.0,0.0,-0.6,0.0,0.002974987030029297,0.002974987030029297,0.023185253143310547,0,0
1.1061511039733887,-0.005555095616728067,0.0027669973205775023,0.1308572143316269,-0.013781459061126941,0.7979586919786456,0.09338156133890152,0.09325695782899857,0.01566731557250023,0.0,0.0,-0.6,0.0,0.0004088878631591797,0.0004088878631591797,0.005903720855712891,0,0
1.1129605770111084,-0.005507852416485548,0.0027499552816152573,0.12921887636184692,-0.013611663479274855,0.7969766231624991,0.08952196687459946,0.09075502306222916,0.01572870835661888,0.0,0.0,-0.6,0.0,0.00036787986755371094,0.00036787986755371094,0.005619525909423828,0,0
1.1196892261505127,-0.005493977572768927,0.0027389652095735073,0.12849296629428864,-0.013612309815101819,0.7958056429828961,0.0859917551279068,0.08832574635744095,0.015788737684488297,0.0,0.0,-0.6,0.0,0.0003349781036376953,0.0003349781036376953,0.005364894866943359,0,0
1.1304962635040283,-0.00547897769138217,0.002725752769038081,0.127643883228302,-0.013567595432944082,0.7944808550215036,0.08247258514165878,0.0858587995171547,0.015837958082556725,0.0,0.0,-0.6,0.0,0.0003757476806640625,0.0003757476806640625,0.005799293518066406,0,0
1.1398053169250488,-0.005463317036628723,0.0027117368299514055,0.12667439877986908,-0.01350335630549807,0.7930383530397784,0.07906326651573181,0.0832776427268982,0.015870511531829834,0.0,0.0,-0.6,0.0,0.0003628730773925781,0.0003628730773925781,0.006540775299072266,0,0
1.1503169536590576,-0.0054273903369903564,0.0026854644529521465,0.12437094748020172,-0.013337551327110878,0.7910917461182098,0.07436292618513107,0.07999979704618454,0.015885235741734505,0.0,0.0,-0.6,0.0,0.0003840923309326172,0.0003840923309326172,0.00562596321105957,0,0
1.1598780155181885,-0.00540911452844739,0.00267409929074347,0.12299919873476028,-0.013204137427953901,0.7891442163676262,0.06985112279653549,0.07684081047773361,0.015868373215198517,0.0,0.0,-0.6,0.0,0.0003914833068847656,0.0003914833068847656,0.005675792694091797,0,0
1.1703169345855713,-0.005372975021600723,0.0026570928748697042,0.11990150064229965,-0.013045930681103322,0.7867922882501855,0.06431025266647339,0.07303748279809952,0.015847090631723404,0.0,0.0,-0.6,0.0,0.0003724098205566406,0.0003724098205566406,0.00545048713684082,0,0
1.1798036098480225,-0.005355081055313349,0.002652217634022236,0.11817483603954315,-0.012902382473765283,0.7845100691908488,0.059089627116918564,0.06943276524543762,0.015799887478351593,0.0,0.0,-0.6,0.0,0.00037217140197753906,0.00037217140197753906,0.005515098571777344,0,0
1.1898658275604248,-0.005355081055313349,0.002652217634022236,0.11817483603954315,-0.012902382473765283,0.7826807534437352,0.05537596344947815,0.06686870008707047,0.015757592394948006,0.0,0.0,-0.6,0.0,0.00035691261291503906,0.00035691261291503906,0.005868673324584961,0,0
1.1997625827789307,-0.005323940888047218,0.0026527291629463434,0.11437301337718964,-0.01269059022070296,0.7804376042627894,0.050304997712373734,0.06309978663921356,0.01569969952106476,0.0,0.0,-0.6,0.0,0.00036787986755371094,0.00036787986755371094,0.005584239959716797,0,0
1.2101094722747803,-0.005323940888047218,0.0026527291629463434,0.11437301337718964,-0.01269059022070296,0.7786397156969402,0.04669852927327156,0.06041940674185753,0.015649503096938133,0.0,0.0,-0.6,0.0,0.00046062469482421875,0.00046062469482421875,0.006554126739501953,0,0
1.220128059387207,-0.005298256874084473,0.0026725297793745995,0.1076752096414566,-0.01243966644269279,0.7760435206084227,0.0405101515352726,0.055506717413663864,0.015594151802361012,0.0,0.0,-0.6,0.0,0.00044345855712890625,0.00044345855712890625,0.0056955814361572266,0,0
1.2300524711608887,-0.005298256874084473,0.0026725297793745995,0.1076752096414566,-0.01243966644269279,0.7739620987205338,0.03609761223196983,0.05200393497943878,0.015539465472102165,0.0,0.0,-0.6,0.0,0.0004010200500488281,0.0004010200500488281,0.005953788757324219,0,0
1.2403590679168701,-0.005297223571687937,0.0027027768082916737,0.10263277590274811,-0.01230962659633283,0.7715428489179404,0.03059111163020134,0.04763296991586685,0.015488382428884506,0.0,0.0,-0.6,0.0,0.00039076805114746094,0.00039076805114746094,0.00580286979675293,0,0
1.250009536743164,-0.005297223571687937,0.0027027768082916737,0.10263277590274811,-0.01230962659633283,0.7696035016028857,0.026669315993785858,0.04451996833086014,0.015439800918102264,0.0,0.0,-0.6,0.0,0.0003571510314941406,0.0003571510314941406,0.005965471267700195,0,0
1.265946388244629,-0.0053260051645338535,0.0027853017672896385,0.09430813789367676,-0.012014057157319461,0.7669658297764681,0.020514579489827156,0.039392080157995224,0.01534557156264782,0.0,0.0,-0.6,0.0,0.0027539730072021484,0.0027539730072021484,0.012947320938110352,0,0
1.278660774230957,-0.0053260051645338535,0.0027853017672896385,0.09430813789367676,-0.012014057157319461,0.7648509987275265,0.016123948618769646,0.035733822733163834,0.015262315049767494,0.0,0.0,-0.6,0.0,0.0003974437713623047,0.0003974437713623047,0.005810976028442383,0,0
1.2854948043823242,-0.005378930363804102,0.0028727103490382433,0.08825026452541351,-0.011829801710710243,0.7624526073935889,0.010811254382133484,0.031001117080450058,0.01515638455748558,0.0,0.0,-0.6,0.0,0.000362396240234375,0.000362396240234375,0.005224466323852539,0,0
1.2911255359649658,-0.005378930363804102,0.0028727103490382433,0.08825026452541351,-0.011829801710710243,0.7605299239422183,0.00702746631577611,0.027630139142274857,0.015068125911056995,0.0,0.0,-0.6,0.0,0.00033354759216308594,0.00033354759216308594,0.005285501480102539,0,0
1.3002862930297852,-0.005531707312911749,0.003316097194328904,0.07825947552919388,-0.01139303422630435,0.7579761433163512,0.0006274300976656377,0.02229706384241581,0.014872691594064236,0.0,0.0,-0.6,0.0,0.00035881996154785156,0.00035881996154785156,0.005834102630615234,0,0
1.3099617958068848,-0.005531707312911749,0.003316097194328904,0.07825947552919388,-0.01139303422630435,0.755928881391439,-0.003936131484806538,0.01849355176091194,0.014716269448399544,0.0,0.0,-0.6,0.0,0.0004680156707763672,0.0004680156707763672,0.00621795654296875,0,0
1.3198668956756592,-0.005603179335594177,0.0035220046993345022,0.07473299652338028,-0.011265485296542952,0.7539582103358453,-0.008418339304625988,0.014675158075988293,0.014555571600794792,0.0,0.0,-0.6,0.0,0.0004010200500488281,0.0004010200500488281,0.005733013153076172,0,0
1.3299880027770996,-0.005686130374670029,0.0037365180905908346,0.07110846042633057,-0.011130296323294006,0.7520450765657882,-0.012824035249650478,0.01073535531759262,0.014386248774826527,0.0,0.0,-0.6,0.0,0.0003917217254638672,0.0003917217254638672,0.005735874176025391,0,0
1.3398661613464355,-0.0058804783038794994,0.00418580137193203,0.06365939229726791,-0.010818141375781147,0.7498707622338823,-0.017854701727628708,0.0059075728058815,0.014142298139631748,0.0,0.0,-0.6,0.0,0.00040531158447265625,0.00040531158447265625,0.0059967041015625,0,0
1.349935531616211,-0.005991990212351084,0.004417838528752327,0.05984557047486305,-0.010705363347932217,0.7478270755289665,-0.022296719253063202,0.0015060054138302803,0.013912894763052464,0.0,0.0,-0.6,0.0,0.0003676414489746094,0.0003676414489746094,0.005466461181640625,0,0
1.3602728843688965,-0.006113710347563028,0.004656270612031221,0.05597676336765289,-0.010550037132586147,0.745892649808473,-0.026334058493375778,-0.002575470134615898,0.013677933253347874,0.0,0.0,-0.6,0.0,0.0004210472106933594,0.0004210472106933594,0.005896091461181641,0,0
1.3697569370269775,-0.006245003547519445,0.004900413565337658,0.05205409973859787,-0.01046387953062664,0.7440432823617519,-0.029960067942738533,-0.0064502195455133915,0.013464320451021194,0.0,0.0,-0.6,0.0,0.0003848075866699219,0.0003848075866699219,0.005725860595703125,0,0
1.3801078796386719,-0.00638565793633461,0.005151856224983931,0.04805945232510567,-0.010363128848912334,0.7422743392149616,-0.033443890511989594,-0.010053563863039017,0.01326004508882761,0.0,0.0,-0.6,0.0,0.00041985511779785156,0.00041985511779785156,0.005521297454833984,0,0
1.389930009841919,-0.006693894974887371,0.005674077197909355,0.039935436099767685,-0.010085468185576922,0.7403183920395887,-0.03718193247914314,-0.014127799309790134,0.012987770140171051,0.0,0.0,-0.6,0.0,0.00038909912109375,0.00038909912109375,0.005878925323486328,0,0
1.401768445968628,-0.006863045506179333,0.005942073650658131,0.03581233695149422,-0.009954341144624129,0.7384855022598781,-0.040498036891222,-0.01799372211098671,0.012725471518933773,0.0,0.0,-0.6,0.0,0.001848459243774414,0.001848459243774414,0.010839462280273438,0,0
1.4123749732971191,-0.006863045506179333,0.005942073650658131,0.03581233695149422,-0.009954341144624129,0.7370167262366983,-0.04285085201263428,-0.020737547427415848,0.012533577159047127,0.0,0.0,-0.6,0.0,0.0004127025604248047,0.0004127025604248047,0.0066814422607421875,0,0
1.4199388027191162,-0.007235967554152012,0.006503485143184662,0.027442749589681625,-0.009754342006119888,0.7353144991558569,-0.04616488888859749,-0.024124637246131897,0.01229054294526577,0.0,0.0,-0.6,0.0,0.0006089210510253906,0.0006089210510253906,0.005840301513671875,0,0
1.429936170578003,-0.007650450337678194,0.007106398232281208,0.01889338344335556,-0.009477032004201632,0.7334590571827749,-0.04976595565676689,-0.028133347630500793,0.01197504810988903,0.0,0.0,-0.6,0.0,0.0003898143768310547,0.0003898143768310547,0.005833864212036133,0,0
1.440047025680542,-0.007875921204686165,0.007417402230203152,0.014550724998116493,-0.00937845107882696,0.7317276447251228,-0.052629075944423676,-0.03173176944255829,0.011691930703818798,0.0,0.0,-0.6,0.0,0.0004036426544189453,0.0004036426544189453,0.008144617080688477,0,0
1.4502923488616943,-0.008112641051411629,0.007733029313385487,0.010179408825933933,-0.00928221768268917,0.7301074855101597,-0.05512695014476776,-0.03491687774658203,0.01143388170748949,0.0,0.0,-0.6,0.0,0.0005979537963867188,0.0005979537963867188,0.006266117095947266,0,0
1.459989309310913,-0.00835956260561943,0.00805581919848919,0.005783000960946083,-0.009155251273408214,0.728588558936219,-0.0573500357568264,-0.037778522819280624,0.011182374320924282,0.0,0.0,-0.6,0.0,0.0006909370422363281,0.0006909370422363281,0.006659507751464844,0,0
1.4701933860778809,-0.008888953365385532,0.008729849010705948,-0.003068997524678707,-0.008939437379855801,0.7269515554130122,-0.059971604496240616,-0.04092232882976532,0.0108810905367136,0.0,0.0,-0.6,0.0,0.0007030963897705078,0.0007030963897705078,0.007375240325927734,0,0
1.479820966720581,-0.009168627671897411,0.00907814595848322,-0.007522602565586567,-0.00879067586380922,0.7254323488330222,-0.06209906190633774,-0.0436418317258358,0.010591614991426468,0.0,0.0,-0.6,0.0,0.0005786418914794922,0.0005786418914794922,0.00570225715637207,0,0
1.4899117946624756,-0.009458156302571297,0.009434343315660954,-0.012038898654282093,-0.008700550048250957,0.7240089881184549,-0.0639183297753334,-0.046017035841941833,0.010332386940717697,0.0,0.0,-0.6,0.0,0.00042128562927246094,0.00042128562927246094,0.006842613220214844,0,0
1.4997918605804443,-0.010063155554234982,0.0101641695946455,-0.02110876701772213,-0.008526852852341059,0.7224851062481313,-0.06517840921878815,-0.04856090620160103,0.01005250308662653,0.0,0.0,-0.6,0.0,0.0003802776336669922,0.0003802776336669922,0.005660295486450195,0,0
1.5100364685058594,-0.010379862040281296,0.010534247383475304,-0.025659875944256783,-0.008458232745289533,0.7210748671710759,-0.06611339747905731,-0.05086146295070648,0.00980997271835804,0.0,0.0,-0.6,0.0,0.0009508132934570312,0.0009508132934570312,0.0076732635498046875,0,0
1.5197679996490479,-0.010709701105952263,0.010910731740295887,-0.030220678076148033,-0.008369376182602471,0.7197567093351539,-0.06689462810754776,-0.052976250648498535,0.009584801271557808,0.0,0.0,-0.6,0.0,0.0005588531494140625,0.0005588531494140625,0.0055348873138427734,0,0
1.5299601554870605,-0.011050255969166756,0.011293197982013226,-0.03478865325450897,-0.008273044288208655,0.7185319556987375,-0.0674460381269455,-0.05463700369000435,0.009378783404827118,0.0,0.0,-0.6,0.0,0.0003979206085205078,0.0003979206085205078,0.0056841373443603516,0,0
1.5398814678192139,-0.011756207793951035,0.012076071463525295,-0.044000379741191864,-0.00808067678908767,0.717208319524465,-0.06804599612951279,-0.05639239773154259,0.009128674864768982,0.0,0.0,-0.6,0.0,0.0004019737243652344,0.0004019737243652344,0.005908966064453125,0,0
1.5499987602233887,-0.012122740969061852,0.01247870922088623,-0.04860769212245941,-0.007959753468446696,0.7159931831823106,-0.06859690696001053,-0.05773349478840828,0.008894090540707111,0.0,0.0,-0.6,0.0,0.00049591064453125,0.00049591064453125,0.006224632263183594,0,0
1.5600323677062988,-0.012498428113758564,0.012888278812170029,-0.053212061524391174,-0.007849372681102406,0.7148703117674615,-0.06901023536920547,-0.05879875645041466,0.008676223456859589,0.0,0.0,-0.6,0.0,0.0004494190216064453,0.0004494190216064453,0.007047414779663086,0,0
1.5698328018188477,-0.012881606817245483,0.013303831219673157,-0.05781277269124985,-0.007724147327319212,0.7138189294923042,-0.06930941343307495,-0.05963873490691185,0.008465209975838661,0.0,0.0,-0.6,0.0,0.0004038810729980469,0.0004038810729980469,0.005678415298461914,0,0
1.5800106525421143,-0.013676822185516357,0.014152219519019127,-0.0669984519481659,-0.007467882159167239,0.7127106265455128,-0.06919141858816147,-0.06070592254400253,0.008194814436137676,0.0,0.0,-0.6,0.0,0.0005095005035400391,0.0005095005035400391,0.006000518798828125,0,0
1.5899438858032227,-0.01408927608281374,0.014580926857888699,-0.07160112261772156,-0.007360061023080876,0.7117008377475041,-0.06893368810415268,-0.06148909404873848,0.007957668974995613,0.0,0.0,-0.6,0.0,0.00035452842712402344,0.00035452842712402344,0.005928993225097656,0,0
1.6000173091888428,-0.014510620385408401,0.015015869401395321,-0.07619134336709976,-0.00727702808358288,0.710767190690398,-0.06872029602527618,-0.06222311407327652,0.007746094837784767,0.0,0.0,-0.6,0.0,0.00039386749267578125,0.00039386749267578125,0.005775928497314453,0,0
1.6100828647613525,-0.014941721223294735,0.015457297675311565,-0.08077002316713333,-0.007172186439296181,0.7098932028360283,-0.0684063583612442,-0.06275813281536102,0.007551385555416346,0.0,0.0,-0.6,0.0,0.0004687309265136719,0.0004687309265136719,0.005965471267700195,0,0
1.619875192642212,-0.015381284058094025,0.015902316197752953,-0.08533765375614166,-0.007119911129817237,0.7090687934285935,-0.06777891516685486,-0.0629906952381134,0.007397723384201527,0.0,0.0,-0.6,0.0,0.0003902912139892578,0.0003902912139892578,0.00558161735534668,0,0
1.6300523281097412,-0.01582629419863224,0.016346318647265434,-0.0898936539888382,-0.0071226616490924445,0.7082830568557031,-0.06667692214250565,-0.06269606947898865,0.007308573927730322,0.0,0.0,-0.6,0.0,0.0004086494445800781,0.0004086494445800781,0.0056455135345458984,0,0
1.6398699283599854,-0.016728604212403297,0.017231138423085213,-0.09900012612342834,-0.00697511265754187,0.7074395875234257,-0.06499843299388885,-0.061979275196790695,0.007204644847661257,0.0,0.0,-0.6,0.0,0.0003883838653564453,0.0003883838653564453,0.0058498382568359375,0,0
1.6498067378997803,-0.017188671976327896,0.017677657306194305,-0.10354258120059967,-0.006914151315404674,0.7066614841431317,-0.0634995624423027,-0.06117948889732361,0.007114562205970287,0.0,0.0,-0.6,0.0,0.0003542900085449219,0.0003542900085449219,0.0055768489837646484,0,0
1.659996747970581,-0.01765485666692257,0.018126143142580986,-0.10806643962860107,-0.006890523725073364,0.7059329996966249,-0.0620504766702652,-0.06047704815864563,0.007044839207082987,0.0,0.0,-0.6,0.0,0.0004782676696777344,0.0004782676696777344,0.006209135055541992,0,0
1.6698930263519287,-0.018126042559742928,0.01857803761959076,-0.11257224529981613,-0.0067996094233380155,0.7052514358881952,-0.060719266533851624,-0.05963395908474922,0.006969136651605368,0.0,0.0,-0.6,0.0,0.0004119873046875,0.0004119873046875,0.005663394927978516,0,0
1.6801342964172363,-0.01907707005739212,0.019490662962198257,-0.12152654677629471,-0.006599370455688732,0.7044977858888114,-0.05921928584575653,-0.05843275785446167,0.006852429360151291,0.0,0.0,-0.6,0.0,0.0004699230194091797,0.0004699230194091797,0.005743980407714844,0,0
1.689969778060913,-0.019556665793061256,0.019951529800891876,-0.12597692012786865,-0.0065177792401867225,0.7038075795860599,-0.057716287672519684,-0.05729902908205986,0.006748080253601074,0.0,0.0,-0.6,0.0,0.00036406517028808594,0.00036406517028808594,0.005837440490722656,0,0
1.6998488903045654,-0.02004164084792137,0.020414315164089203,-0.13044308125972748,-0.0064121088510051116,0.7031689579409801,-0.05633493512868881,-0.05627274140715599,0.0066392612643539906,0.0,0.0,-0.6,0.0,0.0004260540008544922,0.0004260540008544922,0.005465269088745117,0,0
1.7101638317108154,-0.0204605832695961,0.021055877208709717,-0.13551868498325348,-0.0063269795967446345,0.7025651453308946,-0.055091604590415955,-0.05504292622208595,0.006543449591845274,0.0,0.0,-0.6,0.0,0.0007143020629882812,0.0007143020629882812,0.01888895034790039,0,0
1.7294552326202393,-0.0204605832695961,0.021055877208709717,-0.13551868498325348,-0.0063269795967446345,0.7020818225093995,-0.05421721190214157,-0.05417795851826668,0.006475671194493771,0.0,0.0,-0.6,0.0,0.00037479400634765625,0.00037479400634765625,0.00541996955871582,0,0
1.735691785812378,-0.02174834907054901,0.022956091910600662,-0.1504930853843689,-0.006144267267451949,0.7014187029886437,-0.052533820271492004,-0.05238370969891548,0.006392757873982191,0.0,0.0,-0.6,0.0,0.0003445148468017578,0.0003445148468017578,0.005098581314086914,0,0
1.7413535118103027,-0.02174834907054901,0.022956091910600662,-0.1504930853843689,-0.006144267267451949,0.7008879057021651,-0.05134937912225723,-0.05112119019031525,0.006333229597657919,0.0,0.0,-0.6,0.0,0.00037360191345214844,0.00037360191345214844,0.005624055862426758,0,0
1.7498319149017334,-0.02305137924849987,0.024827150627970695,-0.16508029401302338,-0.00587452656658309,0.7002252417288523,-0.0494377575814724,-0.048459384590387344,0.006245796103030443,0.0,0.0,-0.6,0.0,0.0003485679626464844,0.0003485679626464844,0.0052258968353271484,0,0
1.7621173858642578,-0.023489726707339287,0.02544224075973034,-0.1698579043149948,-0.005819102041164487,0.6996164705657332,-0.04761475697159767,-0.04607134684920311,0.0061789401806890965,0.0,0.0,-0.6,0.0,0.0028684139251708984,0.0028684139251708984,0.012484073638916016,0,0
1.7739689350128174,-0.023489726707339287,0.02544224075973034,-0.1698579043149948,-0.005819102041164487,0.699129252686948,-0.04633261635899544,-0.044391728937625885,0.006129885092377663,0.0,0.0,-0.6,0.0,0.0003535747528076172,0.0003535747528076172,0.005990743637084961,0,0
1.7811355590820312,-0.024802356958389282,0.02725995145738125,-0.18394438922405243,-0.005630368388813608,0.6985127581948832,-0.044143542647361755,-0.041043829172849655,0.0060989027842879295,0.0,0.0,-0.6,0.0,0.0003533363342285156,0.0003533363342285156,0.005273580551147461,0,0
1.7900598049163818,-0.02523844689130783,0.02785380929708481,-0.18855801224708557,-0.005565097463128443,0.6979512046485048,-0.041969239711761475,-0.03829612955451012,0.006066359579563141,0.0,0.0,-0.6,0.0,0.0003981590270996094,0.0003981590270996094,0.006104707717895508,0,0
1.7997732162475586,-0.025675151497125626,0.02843792550265789,-0.1931406408548355,-0.005511530928657899,0.6974347151961721,-0.03985677286982536,-0.03577923774719238,0.006043044850230217,0.0,0.0,-0.6,0.0,0.0003483295440673828,0.0003483295440673828,0.005177736282348633,0,0
1.8100812435150146,-0.026111839339137077,0.029015548527240753,-0.19768007099628448,-0.005408835876785593,0.6969690238647923,-0.037904996424913406,-0.03351994976401329,0.006003078073263168,0.0,0.0,-0.6,0.0,0.0003857612609863281,0.0003857612609863281,0.005805253982543945,0,0
1.82000732421875,-0.026984985917806625,0.030152954161167145,-0.20662656426429749,-0.005347841092919098,0.6964845808300372,-0.03542252257466316,-0.030536677688360214,0.006001618690788746,0.0,0.0,-0.6,0.0,0.0004208087921142578,0.0004208087921142578,0.005796670913696289,0,0
1.8299098014831543,-0.02742002345621586,0.03070889599621296,-0.2110360860824585,-0.0053271517083751906,0.6960426731652015,-0.033146750181913376,-0.02791043184697628,0.006008928641676903,0.0,0.0,-0.6,0.0,0.0004189014434814453,0.0004189014434814453,0.0062639713287353516,0,0
1.839782953262329,-0.027853552252054214,0.03125597909092903,-0.2154044508934021,-0.005283727128830112,0.6956339846311242,-0.03092781826853752,-0.025361735373735428,0.006020520813763142,0.0,0.0,-0.6,0.0,0.00033855438232421875,0.00033855438232421875,0.00551295280456543,0,0
1.8498589992523193,-0.028284894302487373,0.031795844435691833,-0.2197854071855545,-0.005250012155895673,0.6952617100678242,-0.028890766203403473,-0.023017648607492447,0.006032316945493221,0.0,0.0,-0.6,0.0,0.0004162788391113281,0.0004162788391113281,0.005483150482177734,0,0
1.8598761558532715,-0.02914099395275116,0.032859835773706436,-0.22841189801692963,-0.005124305889827754,0.6948748722283274,-0.026519255712628365,-0.020015446469187737,0.006037649232894182,0.0,0.0,-0.6,0.0,0.0004055500030517578,0.0004055500030517578,0.006381988525390625,0,0
1.8700008392333984,-0.029565436765551567,0.033380456268787384,-0.2326604127883911,-0.005077524963763602,0.6945156150133237,-0.024471595883369446,-0.017227398231625557,0.006042679771780968,0.0,0.0,-0.6,0.0,0.00039577484130859375,0.00039577484130859375,0.00574946403503418,0,0
1.8803985118865967,-0.029986077919602394,0.03389699012041092,-0.23686583340168,-0.005025361760139921,0.6941958590297483,-0.022743241861462593,-0.014682049863040447,0.006042569875717163,0.0,0.0,-0.6,0.0,0.003174304962158203,0.003174304962158203,0.02768540382385254,0,0
1.908555507659912,-0.029986077919602394,0.03389699012041092,-0.23686583340168,-0.005025361760139921,0.6939400953472498,-0.02153034321963787,-0.012895828112959862,0.006040011532604694,0.0,0.0,-0.6,0.0,0.000385284423828125,0.000385284423828125,0.006229877471923828,0,0
1.9156925678253174,-0.031641725450754166,0.03589555248618126,-0.2532912492752075,-0.004868573723469638,0.693636842327774,-0.01915988326072693,-0.009417564608156681,0.006052225828170776,0.0,0.0,-0.6,0.0,0.0003666877746582031,0.0003666877746582031,0.005483388900756836,0,0
1.921743392944336,-0.031641725450754166,0.03589555248618126,-0.2532912492752075,-0.004868573723469638,0.6933944479261246,-0.017496582120656967,-0.006976992357522249,0.0060560316778719425,0.0,0.0,-0.6,0.0,0.00035381317138671875,0.00035381317138671875,0.005488157272338867,0,0
1.9301269054412842,-0.03244388476014137,0.0368587002158165,-0.26127317547798157,-0.004793635544847316,0.6931484728599053,-0.015882274135947227,-0.004119671881198883,0.006064371205866337,0.0,0.0,-0.6,0.0,0.0004107952117919922,0.0004107952117919922,0.005561351776123047,0,0
1.939882755279541,-0.03283507004380226,0.03733236715197563,-0.26519787311553955,-0.0047647468794853945,0.6929228367249867,-0.01436412800103426,-0.0014029024168848991,0.0060791559517383575,0.0,0.0,-0.6,0.0,0.0004024505615234375,0.0004024505615234375,0.005798816680908203,0,0
1.9500417709350586,-0.033597432076931,0.03825312480330467,-0.272976815700531,-0.004706220100578857,0.6927108946520162,-0.01247487310320139,0.0015218222979456186,0.006097148638218641,0.0,0.0,-0.6,0.0,0.0004010200500488281,0.0004010200500488281,0.005896329879760742,0,0
1.9599599838256836,-0.03397045657038689,0.03870026394724846,-0.2768252491950989,-0.004684767040217693,0.6925322154335432,-0.010599522851407528,0.003978518769145012,0.006110916379839182,0.0,0.0,-0.6,0.0,0.00040268898010253906,0.00040268898010253906,0.005873918533325195,0,0
1.9700040817260742,-0.034338947385549545,0.039136387407779694,-0.28062495589256287,-0.0046452070971678095,0.692372347763348,-0.00874003954231739,0.00609061261638999,0.006114480551332235,0.0,0.0,-0.6,0.0,0.0003821849822998047,0.0003821849822998047,0.005820035934448242,0,0
1.979884386062622,-0.035057950764894485,0.03998329117894173,-0.2880779802799225,-0.004634175650595522,0.6922350897934274,-0.006675447802990675,0.008446021936833858,0.0061361645348370075,0.0,0.0,-0.6,0.0,0.0004589557647705078,0.0004589557647705078,0.005949497222900391,0,0
1.989999771118164,-0.03541193902492523,0.040397487580776215,-0.2917318344116211,-0.004604790783104916,0.6921128391839132,-0.004925942048430443,0.010310879908502102,0.006143385078758001,0.0,0.0,-0.6,0.0,0.00037407875061035156,0.00037407875061035156,0.005911111831665039,0,0
1.9997849464416504,-0.035762250423431396,0.04080120101571083,-0.2953403890132904,-0.004572842127498521,0.6920032354731892,-0.0031540454365313053,0.012090206146240234,0.006146583240479231,0.0,0.0,-0.6,0.0,0.00038814544677734375,0.00038814544677734375,0.005603313446044922,0,0
2.0098483562469482,-0.036107487976551056,0.04119301959872246,-0.2989499866962433,-0.00450545723479998,0.6919160703635202,-0.001643451163545251,0.013644480146467686,0.006129952613264322,0.0,0.0,-0.6,0.0,0.00037360191345214844,0.00037360191345214844,0.0056955814361572266,0,0
2.019814968109131,-0.036449022591114044,0.041579119861125946,-0.3025088608264923,-0.004455164690611523,0.6918522194829032,-0.0003811755159404129,0.014915071427822113,0.006102839484810829,0.0,0.0,-0.6,0.0,0.00036215782165527344,0.00036215782165527344,0.005459785461425781,0,0
2.03007173538208,-0.03678891435265541,0.04195971414446831,-0.3060142397880554,-0.004413893612290242,0.691817884680562,0.0007788290386088192,0.015768468379974365,0.006065906956791878,0.0,0.0,-0.6,0.0,0.0003993511199951172,0.0003993511199951172,0.00576019287109375,0,0
2.039797306060791,-0.037457648664712906,0.042695026844739914,-0.3128719925880432,-0.00431604347263918,0.6918015455276657,0.002625923603773117,0.0168814305216074,0.006012836471199989,0.0,0.0,-0.6,0.0,0.0003502368927001953,0.0003502368927001953,0.0062046051025390625,0,0
2.0499327182769775,-0.03778096288442612,0.0430472269654274,-0.31622737646102905,-0.004264556134465176,0.6917969278798699,0.004221437498927116,0.01784372515976429,0.00595890311524272,0.0,0.0,-0.6,0.0,0.00038933753967285156,0.00038933753967285156,0.005505800247192383,0,0
2.059896230697632,-0.038100309669971466,0.04339386522769928,-0.31953611969947815,-0.004141578544386366,0.6917918365959579,0.005442501045763493,0.018595892935991287,0.0058760009706020355,0.0,0.0,-0.6,0.0,0.0007050037384033203,0.0007050037384033203,0.007057666778564453,0,0
2.069875478744507,-0.03872710466384888,0.04406731575727463,-0.3261459171772003,-0.00400351355800569,0.6917985065659066,0.00680367648601532,0.019505638629198074,0.005773141048848629,0.0,0.0,-0.6,0.0,0.00038242340087890625,0.00038242340087890625,0.005745887756347656,0,0
2.0799002647399902,-0.03903155028820038,0.04439288377761841,-0.3293779194355011,-0.003946972748228575,0.6918140564551756,0.007923869416117668,0.02030857279896736,0.0056826346553862095,0.0,0.0,-0.6,0.0,0.00039839744567871094,0.00039839744567871094,0.0056304931640625,0,0
2.089745283126831,-0.039332080632448196,0.04471105709671974,-0.33256199955940247,-0.0038710324730551107,0.691832605416069,0.008944464847445488,0.020965028554201126,0.005591247696429491,0.0,0.0,-0.6,0.0,0.0004208087921142578,0.0004208087921142578,0.007909059524536133,0,0
2.0998313426971436,-0.03962909057736397,0.045021262019872665,-0.3357003629207611,-0.003808936219598702,0.6918542321665017,0.009815781377255917,0.021355198696255684,0.00550061883404851,0.0,0.0,-0.6,0.0,0.0005710124969482422,0.0005710124969482422,0.006647825241088867,0,0
2.1099491119384766,-0.04086516797542572,0.04633678123354912,-0.34415873885154724,-0.0037453640135962254,0.6918118463372469,0.010585068725049496,0.021005455404520035,0.00539696030318737,0.0,0.0,-0.6,0.0,0.0003952980041503906,0.0003952980041503906,0.00576329231262207,0,0
2.119830846786499,-0.04146787151694298,0.04696933552622795,-0.3482972979545593,-0.0036662355098890736,0.6917444347767783,0.010993216186761856,0.020421944558620453,0.00528786052018404,0.0,0.0,-0.6,0.0,0.0003638267517089844,0.0003638267517089844,0.005419254302978516,0,0
2.129964828491211,-0.04206070676445961,0.04758874326944351,-0.35236236453056335,-0.0036103990824888077,0.6916766622176,0.011095947585999966,0.019810358062386513,0.005186957307159901,0.0,0.0,-0.6,0.0,0.00039005279541015625,0.00039005279541015625,0.005628108978271484,0,0
2.143848180770874,-0.043213095515966415,0.048786893486976624,-0.3602725565433502,-0.0035576454150138643,0.6915842106181754,0.010922306217253208,0.01905752345919609,0.005090382415801287,0.0,0.0,-0.6,0.0,0.0031201839447021484,0.0031201839447021484,0.03560972213745117,0,0
2.179550886154175,-0.043213095515966415,0.048786893486976624,-0.3602725565433502,-0.0035576454150138643,0.6915102652524476,0.010800694115459919,0.018530147150158882,0.005022693891078234,0.0,0.0,-0.6,0.0,0.00047397613525390625,0.00047397613525390625,0.0060040950775146484,0,0
2.1864631175994873,-0.04593159258365631,0.051543593406677246,-0.3788793385028839,-0.0035088265988789725,0.6913704489681176,0.01033218577504158,0.01662236638367176,0.004921252373605967,0.0,0.0,-0.6,0.0,0.0004565715789794922,0.0004565715789794922,0.006266593933105469,0,0
2.1937336921691895,-0.04644657298922539,0.05205053463578224,-0.38240814208984375,-0.0034606024881206126,0.6912437203542281,0.00986708328127861,0.015092402696609497,0.0048276083543896675,0.0,0.0,-0.6,0.0,0.00035834312438964844,0.00035834312438964844,0.005374908447265625,0,0
2.200291872024536,-0.04694980010390282,0.05254639312624931,-0.3858759105205536,-0.003423392936258242,0.6911275181663195,0.009369109757244587,0.0139133520424366,0.004745827056467533,0.0,0.0,-0.6,0.0,0.00034689903259277344,0.00034689903259277344,0.005394697189331055,0,0
2.2119812965393066,-0.0474422425031662,0.05302973464131355,-0.38928380608558655,-0.0033827967465822045,0.6910199112538191,0.008984717540442944,0.012670975178480148,0.0046628303825855255,0.0,0.0,-0.6,0.0,0.002872943878173828,0.002872943878173828,0.011144399642944336,0,0
2.222550868988037,-0.0474422425031662,0.05302973464131355,-0.38928380608558655,-0.0033827967465822045,0.69093386259535,0.008715447969734669,0.011800558306276798,0.004604430869221687,0.0,0.0,-0.6,0.0,0.0003666877746582031,0.0003666877746582031,0.005351543426513672,0,0
2.229802131652832,-0.048404015600681305,0.053959909826517105,-0.39597782492637634,-0.0032643672651413826,0.6908598959360628,0.008048583753407001,0.010699198581278324,0.004508671350777149,0.0,0.0,-0.6,0.0,0.00036215782165527344,0.00036215782165527344,0.005209445953369141,0,0
2.245408535003662,-0.04932742938399315,0.054854001849889755,-0.40243029594421387,-0.003180639903339635,0.690788253896073,0.007187424693256617,0.009317299351096153,0.004396043252199888,0.0,0.0,-0.6,0.0,0.002874612808227539,0.002874612808227539,0.016133785247802734,0,0
2.261155843734741,-0.04932742938399315,0.054854001849889755,-0.40243029594421387,-0.003180639903339635,0.6907309513987675,0.006584326270967722,0.008349386043846607,0.0043164826929569244,0.0,0.0,-0.6,0.0,0.00039124488830566406,0.00039124488830566406,0.005728483200073242,0,0
2.2700095176696777,-0.05108056589961052,0.056493740528821945,-0.41467466950416565,-0.003030897096609825,0.6907009943714502,0.006103277672082186,0.006862913724035025,0.00418406818062067,0.0,0.0,-0.6,0.0,0.00038361549377441406,0.00038361549377441406,0.005640506744384766,0,0
2.2799155712127686,-0.051496971398591995,0.056871235370635986,-0.41761910915374756,-0.0030606792215600604,0.6906858968642352,0.005818168167024851,0.005744622554630041,0.0041000754572451115,0.0,0.0,-0.6,0.0,0.00037479400634765625,0.00037479400634765625,0.0055315494537353516,0,0
2.2899179458618164,-0.051901984959840775,0.05723834037780762,-0.4205063283443451,-0.0030350281198651325,0.6906839602521351,0.005459251347929239,0.004809507168829441,0.004028031602501869,0.0,0.0,-0.6,0.0,0.00039505958557128906,0.00039505958557128906,0.0059278011322021484,0,0
2.299755811691284,-0.0522976852953434,0.05759676918387413,-0.4233367145061493,-0.0030082304010096957,0.690694473232234,0.005171845201402903,0.003979826346039772,0.003963083494454622,0.0,0.0,-0.6,0.0,0.0003762245178222656,0.0003762245178222656,0.005445718765258789,0,0
2.3099305629730225,-0.0530688613653183,0.05827672407031059,-0.4288332164287567,-0.0029269688870585593,0.690720083215293,0.005123216658830643,0.00298283901065588,0.0038765715435147285,0.0,0.0,-0.6,0.0,0.0004718303680419922,0.0004718303680419922,0.006273984909057617,0,0
2.3198463916778564,-0.05344250425696373,0.05860007926821709,-0.43153753876686096,-0.0028705622738762,0.6907633969778824,0.005169907119125128,0.002116805175319314,0.003790648188441992,0.0,0.0,-0.6,0.0,0.0004153251647949219,0.0004153251647949219,0.005537748336791992,0,0
2.329906940460205,-0.0538063682615757,0.05891157686710358,-0.4341840445995331,-0.0028933101305536947,0.6908142164882976,0.00526460213586688,0.0014373079175129533,0.0037372333463281393,0.0,0.0,-0.6,0.0,0.00040459632873535156,0.00040459632873535156,0.005579233169555664,0,0
2.339766025543213,-0.05416150391101837,0.059210095554590225,-0.4367792308330536,-0.002877317483414928,0.6908608837842469,0.005423021037131548,0.0007954625762067735,0.0036898371763527393,0.0,0.0,-0.6,0.0,0.0004010200500488281,0.0004010200500488281,0.0060977935791015625,0,0
2.349966049194336,-0.05485399067401886,0.05977143347263336,-0.44180813431739807,-0.0028114474049579334,0.6909480861598947,0.005761514417827129,-3.4130887797800824e-05,0.0036229011602699757,0.0,0.0,-0.6,0.0,0.0004100799560546875,0.0004100799560546875,0.005976676940917969,0,0
2.359935998916626,-0.0551910437643528,0.06003423407673836,-0.44423940777778625,-0.0027568703946443994,0.6910434169500432,0.0061720386147499084,-0.0007758713327348232,0.0035520025994628668,0.0,0.0,-0.6,0.0,0.0004036426544189453,0.0004036426544189453,0.006616830825805664,0,0
2.3698856830596924,-0.05552610382437706,0.06028171628713608,-0.44661831855773926,-0.002703684197618846,0.6911413432503701,0.0068182251416146755,-0.0017634201794862747,0.003471805015578866,0.0,0.0,-0.6,0.0,0.00045990943908691406,0.00045990943908691406,0.00619959831237793,0,0
2.3797860145568848,-0.056186821311712265,0.06073316931724548,-0.4512615203857422,-0.0026022680852204674,0.6912739332873288,0.007713521830737591,-0.0028057056479156017,0.0033703986555337906,0.0,0.0,-0.6,0.0,0.00038170814514160156,0.00038170814514160156,0.005640983581542969,0,0
2.3898985385894775,-0.056509122252464294,0.06094172224402428,-0.4535023272037506,-0.0025643675931320583,0.6914179521592874,0.008484216406941414,-0.003641305724158883,0.003283600090071559,0.0,0.0,-0.6,0.0,0.00040721893310546875,0.00040721893310546875,0.005865573883056641,0,0
2.399792432785034,-0.05682667717337608,0.061139628291130066,-0.45568782091140747,-0.002545302793100298,0.6915731567581104,0.009176086634397507,-0.0043275002390146255,0.0032140782568603754,0.0,0.0,-0.6,0.0,0.0003705024719238281,0.0003705024719238281,0.0061643123626708984,0,0
2.4099414348602295,-0.05713865906000137,0.06132917106151581,-0.45782187581062317,-0.0024847812620185823,0.6917255679842605,0.009672987274825573,-0.004762046039104462,0.003144096815958619,0.0,0.0,-0.6,0.0,0.0005373954772949219,0.0005373954772949219,0.006537199020385742,0,0
2.419767379760742,-0.0577407069504261,0.061682458966970444,-0.46193453669548035,-0.002406697787765429,0.6919257383113646,0.01020163856446743,-0.00486656092107296,0.0030707863625139,0.0,0.0,-0.6,0.0,0.0003654956817626953,0.0003654956817626953,0.005506753921508789,0,0
2.4298954010009766,-0.058036625385284424,0.06184500828385353,-0.46393445134162903,-0.0023485108593484195,0.6921196248042337,0.010739302262663841,-0.0052651530131697655,0.0029911212623119354,0.0,0.0,-0.6,0.0,0.00038814544677734375,0.00038814544677734375,0.006130695343017578,0,0
2.4399170875549316,-0.05833016708493233,0.06199585646390915,-0.465883731842041,-0.0022782785861380646,0.6923173291049489,0.011315787211060524,-0.0055165099911391735,0.0029102666303515434,0.0,0.0,-0.6,0.0,0.0003933906555175781,0.0003933906555175781,0.0060155391693115234,0,0
2.4500739574432373,-0.058617208153009415,0.062136534601449966,-0.4677828848361969,-0.00223850908808655,0.6925098185511647,0.011867670342326164,-0.005713293328881264,0.0028388036880642176,0.0,0.0,-0.6,0.0,0.0004131793975830078,0.0004131793975830078,0.005571603775024414,0,0
2.4597697257995605,-0.05889949947595596,0.06226823478937149,-0.46963661909103394,-0.0021737256944113206,0.6926931152722344,0.012383433058857918,-0.005915978457778692,0.0027635316364467144,0.0,0.0,-0.6,0.0,0.0004975795745849609,0.0004975795745849609,0.005990266799926758,0,0
2.4699172973632812,-0.05917596444487572,0.06239358335733414,-0.471442312002182,-0.0021436531015429235,0.6928863805741653,0.012702345848083496,-0.005916221998631954,0.0027025099843740463,0.0,0.0,-0.6,0.0,0.00039386749267578125,0.00039386749267578125,0.005685091018676758,0,0
2.480229377746582,-0.05971066281199455,0.06262979656457901,-0.4750080108642578,-0.0020665025439344075,0.6931077716804949,0.012852841056883335,-0.005574300419539213,0.00263793021440506,0.0,0.0,-0.6,0.0,0.0003848075866699219,0.0003848075866699219,0.005424022674560547,0,0
2.4898273944854736,-0.05996876582503319,0.06273636966943741,-0.4767662286758423,-0.002035834269242309,0.6933270526712171,0.01310550607740879,-0.005338577553629875,0.0025814715772867203,0.0,0.0,-0.6,0.0,0.00038123130798339844,0.00038123130798339844,0.006349325180053711,0,0
2.500032663345337,-0.05996876582503319,0.06273636966943741,-0.4767662286758423,-0.002035834269242309,0.693502441710169,0.013282060623168945,-0.005173853132873774,0.0025419085286557674,0.0,0.0,-0.6,0.0,0.00041103363037109375,0.00041103363037109375,0.005850553512573242,0,0
2.5153186321258545,-0.061039797961711884,0.06360553950071335,-0.484047532081604,-0.001984750735406867,0.6936654679397359,0.013179196044802666,-0.00547980610281229,0.0024866817984730005,0.0,0.0,-0.6,0.0,0.0028219223022460938,0.0028219223022460938,0.05098247528076172,0,0
2.5694680213928223,-0.061039797961711884,0.06360553950071335,-0.484047532081604,-0.001984750735406867,0.6937958648166416,0.01310729794204235,-0.0056937020272016525,0.0024480102583765984,0.0,0.0,-0.6,0.0,0.002992391586303711,0.002992391586303711,0.030135631561279297,0,0
2.599623203277588,-0.06432100385427475,0.06652708351612091,-0.5059622526168823,-0.0018533384473061125,0.6938975847047275,0.010571230202913284,-0.0058367131277918816,0.0023687072098255157,0.0,0.0,-0.6,0.0,0.0003764629364013672,0.0003764629364013672,0.005350828170776367,0,0
2.610121726989746,-0.06498212367296219,0.06707464158535004,-0.5102391839027405,-0.0019119568939152075,0.6939988979841218,0.007681583054363728,-0.0061117494478821754,0.0023299192544072866,0.0,0.0,-0.6,0.0,0.0005393028259277344,0.0005393028259277344,0.006911754608154297,0,0
2.6197969913482666,-0.06530116498470306,0.06733793020248413,-0.5122886300086975,-0.0018920902697033418,0.6940854015784448,0.005557063035666943,-0.006179749500006437,0.0022973401937633753,0.0,0.0,-0.6,0.0,0.00035262107849121094,0.00035262107849121094,0.005490541458129883,0,0
2.629950523376465,-0.06561239063739777,0.06758812814950943,-0.5142807960510254,-0.0018681458796759069,0.6941696134957569,0.004183363169431686,-0.006268452387303114,0.0022650298196822405,0.0,0.0,-0.6,0.0,0.0004017353057861328,0.0004017353057861328,0.005487680435180664,0,0
2.6401150226593018,-0.06591888517141342,0.067826047539711,-0.5162162780761719,-0.0018212399088326555,0.694245042477446,0.0030046370811760426,-0.006479693576693535,0.002221417613327503,0.0,0.0,-0.6,0.0,0.0004062652587890625,0.0004062652587890625,0.006095409393310547,0,0
2.6499650478363037,-0.06651841849088669,0.06827287375926971,-0.5199776291847229,-0.0017414062102977565,0.6943197954854203,0.0018513862742111087,-0.006689760368317366,0.0021593300625681877,0.0,0.0,-0.6,0.0,0.0003437995910644531,0.0003437995910644531,0.0052907466888427734,0,0
2.660060405731201,-0.06681140512228012,0.06848224252462387,-0.521806001663208,-0.001687242706653493,0.6943799075379488,0.0009692606399767101,-0.006798636633902788,0.002096276730298996,0.0,0.0,-0.6,0.0,0.00044155120849609375,0.00044155120849609375,0.006101846694946289,0,0
2.6700007915496826,-0.06737902760505676,0.0688725933432579,-0.525310218334198,-0.0016477373530198855,0.6944600367545243,-3.7490404793061316e-05,-0.006911014206707478,0.002036166610196233,0.0,0.0,-0.6,0.0,0.0004367828369140625,0.0004367828369140625,0.005845069885253906,0,0
2.6800200939178467,-0.06765280663967133,0.06905462592840195,-0.5269830822944641,-0.0016282218694094856,0.6945365394366706,-0.0007927555125206709,-0.006788679398596287,0.001991146942600608,0.0,0.0,-0.6,0.0,0.0003943443298339844,0.0003943443298339844,0.0055065155029296875,0,0
2.6900575160980225,-0.06791704148054123,0.06922780722379684,-0.5286075472831726,-0.0016258250783423643,0.6946064670640429,-0.0012428525369614363,-0.00648738956078887,0.001963839866220951,0.0,0.0,-0.6,0.0,0.0003719329833984375,0.0003719329833984375,0.0058863162994384766,0,0
2.6998631954193115,-0.06817172467708588,0.06939009577035904,-0.5301910042762756,-0.0015713558195265202,0.6946750515147685,-0.0015148685779422522,-0.005903978366404772,0.001932898536324501,0.0,0.0,-0.6,0.0,0.0004107952117919922,0.0004107952117919922,0.005722999572753906,0,0
2.710125684738159,-0.06865148991346359,0.0696834847331047,-0.5332106351852417,-0.0015065141222488042,0.6947734346969582,-0.0015498892171308398,-0.00496640196070075,0.001899262540973723,0.0,0.0,-0.6,0.0,0.0003924369812011719,0.0003924369812011719,0.0057981014251708984,0,0
2.7199063301086426,-0.06887411326169968,0.0698181614279747,-0.5346495509147644,-0.001482406311079034,0.6948607975614347,-0.001675478066317737,-0.003914907108992338,0.0018753630574792624,0.0,0.0,-0.6,0.0,0.0003612041473388672,0.0003612041473388672,0.005304813385009766,0,0
2.7299866676330566,-0.06908808648586273,0.0699450671672821,-0.536043643951416,-0.001499017224483408,0.6949540081036135,-0.0018099816516041756,-0.003079064888879657,0.0018671333091333508,0.0,0.0,-0.6,0.0,0.0003955364227294922,0.0003955364227294922,0.006238222122192383,0,0
2.739802598953247,-0.06929857283830643,0.07006340473890305,-0.5373899936676025,-0.0014726503007320836,0.6950591566040856,-0.0018326228018850088,-0.0025900218170136213,0.0018495095428079367,0.0,0.0,-0.6,0.0,0.0003783702850341797,0.0003783702850341797,0.006930828094482422,0,0
2.750077486038208,-0.06970695406198502,0.07026898860931396,-0.5399652123451233,-0.0014385962440068968,0.6952021755503439,-0.0014574103988707066,-0.0018325303681194782,0.0018339655362069607,0.0,0.0,-0.6,0.0,0.0005350112915039062,0.0005350112915039062,0.006643533706665039,0,0
2.759800672531128,-0.06990272551774979,0.07035872340202332,-0.541195809841156,-0.0013925866165985428,0.6953472119143941,-0.0011079757241532207,-0.001268420834094286,0.0018064628820866346,0.0,0.0,-0.6,0.0,0.00042128562927246094,0.00042128562927246094,0.0060994625091552734,0,0
2.7704806327819824,-0.07028185576200485,0.07051096856594086,-0.5435218214988708,-0.001319921944606992,0.6955178737778304,-0.00045077333925291896,-0.0006859384011477232,0.001764127635397017,0.0,0.0,-0.6,0.0,0.0004520416259765625,0.0004520416259765625,0.005567789077758789,0,0
2.780130624771118,-0.07028185576200485,0.07051096856594086,-0.5435218214988708,-0.001319921944606992,0.6956543690573187,8.636372513137758e-06,-0.00027873797807842493,0.0017342526698485017,0.0,0.0,-0.6,0.0,0.00047659873962402344,0.00047659873962402344,0.006350040435791016,0,0
2.7901954650878906,-0.07080253958702087,0.07067092508077621,-0.5467180013656616,-0.0013246068852948245,0.6958403577351427,0.0008743013604544103,0.0005034509813413024,0.0017256713472306728,0.0,0.0,-0.6,0.0,0.0003485679626464844,0.0003485679626464844,0.005486488342285156,0,0
2.8001515865325928,-0.07080253958702087,0.07067092508077621,-0.5467180013656616,-0.0013246068852948245,0.6959891252397862,0.0014793711015954614,0.0010501767974346876,0.0017192440573126078,0.0,0.0,-0.6,0.0,0.00040268898010253906,0.00040268898010253906,0.005591154098510742,0,0
2.8098628520965576,-0.07096395641565323,0.07070530951023102,-0.5477023124694824,-0.0013088199576142096,0.6961514852714903,0.002195733832195401,0.0015303170075640082,0.0017105331644415855,0.0,0.0,-0.6,0.0,0.000362396240234375,0.000362396240234375,0.005423307418823242,0,0
2.8200385570526123,-0.07111907750368118,0.07073140144348145,-0.5486416816711426,-0.001306729659087008,0.6963248394970485,0.002738805254921317,0.0020510044414550066,0.0017072225455194712,0.0,0.0,-0.6,0.0,0.0004067420959472656,0.0004067420959472656,0.0056345462799072266,0,0
2.8300178050994873,-0.07126660645008087,0.07074999064207077,-0.5495378971099854,-0.001301126815136989,0.6965030210237748,0.003475189907476306,0.002565778326243162,0.0017054592026397586,0.0,0.0,-0.6,0.0,0.00040149688720703125,0.00040149688720703125,0.0057830810546875,0,0
2.839989423751831,-0.07140666991472244,0.07075872272253036,-0.5503930449485779,-0.001262195096955575,0.6966804566449462,0.004233794752508402,0.0032548271119594574,0.001695838407613337,0.0,0.0,-0.6,0.0,0.0003955364227294922,0.0003955364227294922,0.006267547607421875,0,0
2.849869966506958,-0.07166418433189392,0.07075828313827515,-0.5519893169403076,-0.0012046916720699625,0.6968776176427595,0.004843027796596289,0.004366470966488123,0.0016796350246295333,0.0,0.0,-0.6,0.0,0.0003838539123535156,0.0003838539123535156,0.005479574203491211,0,0
2.8599958419799805,-0.07177653908729553,0.07075078040361404,-0.5527992248535156,-0.0012123446337535212,0.6970635953297578,0.005242544692009687,0.0056296479888260365,0.0016802262980490923,0.0,0.0,-0.6,0.0,0.00044846534729003906,0.00044846534729003906,0.00598597526550293,0,0
2.869905471801758,-0.07195986062288284,0.07072024047374725,-0.5542930364608765,-0.00115686721844867,0.6973048350536951,0.005501187406480312,0.007349406369030476,0.0016756679397076368,0.0,0.0,-0.6,0.0,0.0004112720489501953,0.0004112720489501953,0.005635261535644531,0,0
2.880195379257202,-0.07203647494316101,0.0706980749964714,-0.5549808740615845,-0.0011413330581397177,0.6975318567305008,0.005721236113458872,0.008910386823117733,0.0016731326468288898,0.0,0.0,-0.6,0.0,0.0004086494445800781,0.0004086494445800781,0.005815982818603516,0,0
2.8897948265075684,-0.07210524380207062,0.07067078351974487,-0.5556331276893616,-0.0011367112956558209,0.6977434189637668,0.005945111159235239,0.01006279420107603,0.0016701298300176859,0.0,0.0,-0.6,0.0,0.0003802776336669922,0.0003802776336669922,0.005530357360839844,0,0
2.8999409675598145,-0.0721682757139206,0.07063652575016022,-0.5562517046928406,-0.0010881946749153523,0.6979419621751948,0.006282532121986151,0.011008399538695812,0.0016514958115294576,0.0,0.0,-0.6,0.0,0.0003948211669921875,0.0003948211669921875,0.0055582523345947266,0,0
2.9116361141204834,-0.07230506837368011,0.07068207859992981,-0.5586345791816711,-0.0010052814457123874,0.6981296887097986,0.006831972859799862,0.011949877254664898,0.0016108507988974452,0.0,0.0,-0.6,0.0,0.002764463424682617,0.002764463424682617,0.015111923217773438,0,0
2.926525354385376,-0.07230506837368011,0.07068207859992981,-0.5586345791816711,-0.0010052814457123874,0.6982798694693485,0.007215992081910372,0.012607949785888195,0.0015820745611563325,0.0,0.0,-0.6,0.0,0.0004792213439941406,0.0004792213439941406,0.008108854293823242,0,0
2.9355051517486572,-0.07251174002885818,0.07087939977645874,-0.5636554956436157,-0.0009579558470278504,0.6983882983861925,0.007992632687091827,0.013355010189116001,0.0015468584606423974,0.0,0.0,-0.6,0.0,0.0003268718719482422,0.0003268718719482422,0.0051076412200927734,0,0
2.941112756729126,-0.07251174002885818,0.07087939977645874,-0.5636554956436157,-0.0009579558470278504,0.698475070055415,0.008535811677575111,0.013877518475055695,0.0015218555927276611,0.0,0.0,-0.6,0.0,0.0003590583801269531,0.0003590583801269531,0.005680561065673828,0,0
2.9499053955078125,-0.07261715829372406,0.07096776366233826,-0.5667031407356262,-0.0009520837451021527,0.698529625311422,0.008971497416496277,0.01462541799992323,0.0015087459469214082,0.0,0.0,-0.6,0.0,0.00036525726318359375,0.00036525726318359375,0.005552053451538086,0,0
2.960084915161133,-0.07266063988208771,0.0710005909204483,-0.5681741833686829,-0.0009568388583156784,0.6985650020505532,0.009300756268203259,0.015188799239695072,0.0015015207463875413,0.0,0.0,-0.6,0.0,0.0004208087921142578,0.0004208087921142578,0.005571126937866211,0,0
2.969796657562256,-0.07269762456417084,0.07102738320827484,-0.5695911049842834,-0.0009541488869395803,0.6985907118167604,0.009429478086531162,0.01574091799557209,0.001498472411185503,0.0,0.0,-0.6,0.0,0.0003509521484375,0.0003509521484375,0.005278587341308594,0,0
2.980278491973877,-0.07273078709840775,0.07104701548814774,-0.5709517002105713,-0.0009510729641938744,0.6986193555130003,0.009628867730498314,0.015891335904598236,0.0014901029644533992,0.0,0.0,-0.6,0.0,0.0004570484161376953,0.0004570484161376953,0.00565791130065918,0,0
2.989961624145508,-0.07278405129909515,0.0710640624165535,-0.5735077857971191,-0.0009474064161369382,0.6986603236044721,0.00958506390452385,0.016252273693680763,0.0014874006155878305,0.0,0.0,-0.6,0.0,0.00041103363037109375,0.00041103363037109375,0.005868196487426758,0,0
2.999873161315918,-0.07279755920171738,0.07106313854455948,-0.5747053027153015,-0.0009451657860479688,0.6986995289218593,0.009457645937800407,0.016540594398975372,0.0014852022286504507,0.0,0.0,-0.6,0.0,0.0003554821014404297,0.0003554821014404297,0.005251169204711914,0,0
3.009995698928833,-0.072806216776371,0.07105559855699539,-0.5758519768714905,-0.0009168289906299068,0.6987385758181459,0.009435721673071384,0.016707787290215492,0.001471924944780767,0.0,0.0,-0.6,0.0,0.0003955364227294922,0.0003955364227294922,0.00567936897277832,0,0
3.0199573040008545,-0.07280868291854858,0.07104066014289856,-0.5769535899162292,-0.0009108535723379688,0.6987826284415554,0.009470959194004536,0.017057113349437714,0.0014637457206845284,0.0,0.0,-0.6,0.0,0.00038814544677734375,0.00038814544677734375,0.005640268325805664,0,0
3.0299036502838135,-0.07279238849878311,0.07099447399377823,-0.5790066123008728,-0.0008267602675237763,0.6988395098516347,0.009350618347525597,0.01739906147122383,0.0014285007491707802,0.0,0.0,-0.6,0.0,0.0003829002380371094,0.0003829002380371094,0.005311489105224609,0,0
3.0401418209075928,-0.07277606427669525,0.07096409797668457,-0.5799652934074402,-0.0008187101191423874,0.6988909891217949,0.009302649646997452,0.01771373860538006,0.0014015360502526164,0.0,0.0,-0.6,0.0,0.0004029273986816406,0.0004029273986816406,0.005899667739868164,0,0
3.0499589443206787,-0.07275451719760895,0.07092735171318054,-0.5808788537979126,-0.0007899484021579504,0.6989463373719164,0.009231677278876305,0.017905134707689285,0.0013713146327063441,0.0,0.0,-0.6,0.0,0.0003666877746582031,0.0003666877746582031,0.005536794662475586,0,0
3.060105800628662,-0.0727306455373764,0.07088568806648254,-0.5817463397979736,-0.0007300524609937729,0.6990111075573355,0.009201597422361374,0.017844952642917633,0.0013239207910373807,0.0,0.0,-0.6,0.0,0.0004723072052001953,0.0004723072052001953,0.00628972053527832,0,0
3.0698444843292236,-0.07270481437444687,0.07083690911531448,-0.5825977921485901,-0.0006948349466247859,0.6990777496589428,0.00922925304621458,0.017655864357948303,0.0012741362443193793,0.0,0.0,-0.6,0.0,0.00044918060302734375,0.00044918060302734375,0.0066645145416259766,0,0
3.0829050540924072,-0.07264445722103119,0.07072284817695618,-0.58417147397995,-0.0006854446461767234,0.6991581899098576,0.009121897630393505,0.017365440726280212,0.0012331863399595022,0.0,0.0,-0.6,0.0,0.003065824508666992,0.003065824508666992,0.04439401626586914,0,0
3.126765251159668,-0.07264445722103119,0.07072284817695618,-0.58417147397995,-0.0006854446461767234,0.6992225519215534,0.009046796709299088,0.017162274569272995,0.0012045048642903566,0.0,0.0,-0.6,0.0,0.0004353523254394531,0.0004353523254394531,0.005757331848144531,0,0
3.1335644721984863,-0.07243874669075012,0.07023222744464874,-0.588014543056488,-0.0007120598819948909,0.6993742474585981,0.009835164994001389,0.015290049836039543,0.001159361912868917,0.0,0.0,-0.6,0.0,0.0003871917724609375,0.0003871917724609375,0.005557537078857422,0,0
3.1401383876800537,-0.07240655273199081,0.07012798637151718,-0.5885538458824158,-0.0006924920969034587,0.699520168601143,0.01039191335439682,0.013720578514039516,0.001116763916797936,0.0,0.0,-0.6,0.0,0.0005400180816650391,0.0005400180816650391,0.005925178527832031,0,0
3.1500542163848877,-0.07233481854200363,0.0698988288640976,-0.5895161032676697,-0.0006643649674525373,0.6996797796618344,0.011078724637627602,0.012750208377838135,0.0010767558123916388,0.0,0.0,-0.6,0.0,0.0004153251647949219,0.0004153251647949219,0.005747795104980469,0,0
3.1597840785980225,-0.07229115068912506,0.06977216899394989,-0.5899416208267212,-0.0006418359116865133,0.6998369755768985,0.011686661280691624,0.012019728310406208,0.0010389925446361303,0.0,0.0,-0.6,0.0,0.0004432201385498047,0.0004432201385498047,0.006526470184326172,0,0
3.169964551925659,-0.072244793176651,0.06963763386011124,-0.5903286337852478,-0.0006005878662680663,0.6999933984102619,0.012256746180355549,0.011456203646957874,0.0009957022266462445,0.0,0.0,-0.6,0.0,0.0003948211669921875,0.0003948211669921875,0.00560760498046875,0,0
3.1799187660217285,-0.0721958577632904,0.069499671459198,-0.5907200574874878,-0.0006208260914223931,0.7001521730271062,0.012497632764279842,0.01087586022913456,0.0009708130965009332,0.0,0.0,-0.6,0.0,0.0003993511199951172,0.0003993511199951172,0.005681037902832031,0,0
3.189840316772461,-0.07214561104774475,0.06936115771532059,-0.5910763740539551,-0.0006505059797863955,0.7002918608232874,0.012384717352688313,0.010235563851892948,0.0009619807824492455,0.0,0.0,-0.6,0.0,0.00035643577575683594,0.00035643577575683594,0.005395650863647461,0,0
3.200139284133911,-0.07209315150976181,0.06922377645969391,-0.5914008021354675,-0.0006612738334318154,0.7004237159155143,0.012116055004298687,0.009624332189559937,0.0009578444878570735,0.0,0.0,-0.6,0.0,0.0004191398620605469,0.0004191398620605469,0.005537509918212891,0,0
3.2098679542541504,-0.07197785377502441,0.06894082576036453,-0.5919442772865295,-0.0006298898675532558,0.7005935688600052,0.011665991507470608,0.008961189538240433,0.0009399903938174248,0.0,0.0,-0.6,0.0,0.00038814544677734375,0.00038814544677734375,0.006192684173583984,0,0
3.219935417175293,-0.07191753387451172,0.06879480928182602,-0.5921633839607239,-0.0006508721999882894,0.7007575709913707,0.011232089251279831,0.008383139967918396,0.0009336057701148093,0.0,0.0,-0.6,0.0,0.0003826618194580078,0.0003826618194580078,0.005493640899658203,0,0
3.2299675941467285,-0.07178466022014618,0.06849654763936996,-0.5925504565238953,-0.0006485090890875509,0.7009472516963898,0.01075565256178379,0.008112991228699684,0.0009300365345552564,0.0,0.0,-0.6,0.0,0.0003781318664550781,0.0003781318664550781,0.005489826202392578,0,0
3.2399280071258545,-0.0717170313000679,0.0683421939611435,-0.5926921963691711,-0.0006156409118767903,0.7011411002438959,0.010427014902234077,0.007615997921675444,0.0009104711934924126,0.0,0.0,-0.6,0.0,0.0003552436828613281,0.0003552436828613281,0.0056760311126708984,0,0
3.249962568283081,-0.07165402173995972,0.06818235665559769,-0.5928003191947937,-0.0006292078478284177,0.7013266733985585,0.010344886220991611,0.006800395902246237,0.0008944857399910688,0.0,0.0,-0.6,0.0,0.0003769397735595703,0.0003769397735595703,0.005391597747802734,0,0
3.2600257396698,-0.07159306108951569,0.06801778823137283,-0.5928776860237122,-0.0006164943619527363,0.7015033140917135,0.010305761359632015,0.006053208373486996,0.0008758035837672651,0.0,0.0,-0.6,0.0,0.0003924369812011719,0.0003924369812011719,0.005572080612182617,0,0
3.2699384689331055,-0.07146978378295898,0.06767652928829193,-0.5929452180862427,-0.0005848781945174217,0.7017027192170425,0.010457991622388363,0.005144780967384577,0.0008448509033769369,0.0,0.0,-0.6,0.0,0.00034928321838378906,0.00034928321838378906,0.00524449348449707,0,0
3.280195713043213,-0.07140740007162094,0.06750011444091797,-0.592978835105896,-0.0005768125065590601,0.7018991130435299,0.010596761479973793,0.004380949307233095,0.0008183327154256403,0.0,0.0,-0.6,0.0,0.0004017353057861328,0.0004017353057861328,0.0055158138275146484,0,0
3.2898049354553223,-0.07134594023227692,0.06732193380594254,-0.5929805636405945,-0.0005268478990803809,0.7020912120825162,0.010676874779164791,0.003698118031024933,0.000779012858401984,0.0,0.0,-0.6,0.0,0.00034737586975097656,0.00034737586975097656,0.005466938018798828,0,0
