time,x,y,z,yaw,throttle,roll_rate,pitch_rate,yaw_rate,x_ref,y_ref,z_ref,yaw_ref,pred_time,nr_time,ctrl_callback_time,v_norm,metadata
7.152557373046875e-07,0.011880584061145782,0.006363347638398409,-0.021849436685442924,0.018208583431004798,0.7149724791091815,-0.029434066381975533,0.08850477957171374,-0.0005235487481042174,0.0,0.0,-0.6,0.0,0.0023283958435058594,0.0023283958435058594,0.0029625892639160156,0.0,Sim
0.009990930557250977,0.011831862851977348,0.006364289205521345,-0.021813932806253433,0.018205021392263085,0.7296626471342496,-0.018581894886016973,0.06591778875340173,-0.0003760262039406275,0.0,0.0,-0.6,0.0,0.0021429061889648438,0.0021429061889648438,0.0026886463165283203,0.0,flat wardi normal
0.019963502883911133,0.01178332231938839,0.00636508921161294,-0.02178044058382511,0.018196125720140618,0.7398040172788162,-0.01200259202428559,0.04941726700788608,-0.0002750509978431365,0.0,0.0,-0.6,0.0,0.0019867420196533203,0.0019867420196533203,0.0024263858795166016,0.0,1x Speed
0.02996087074279785,0.011690427549183369,0.006362606771290302,-0.021717336028814316,0.018205488862324065,0.7468412181111097,-0.006866636185707828,0.03779763333856403,-0.00020660877188795985,0.0,0.0,-0.6,0.0,0.0019752979278564453,0.0019752979278564453,0.0025098323822021484,0.0,hover
0.04011178016662598,0.011646808125078678,0.006357869133353233,-0.021689577028155327,0.018216446629158462,0.7517340808826093,-0.004075881662564527,0.029579162985948627,-0.00016062928055074707,0.0,0.0,-0.6,0.0,0.0019030570983886719,0.0019030570983886719,0.0024199485778808594,0.0,0
0.04984474182128906,0.011604923754930496,0.00635147700086236,-0.021664384752511978,0.018235826758986468,0.7551455917109813,-0.0020653323410693607,0.023258756065226417,-0.0001251928558817964,0.0,0.0,-0.6,0.0,0.0020036697387695312,0.0020036697387695312,0.002434968948364258,0.0,0
0.06006050109863281,0.01156468503177166,0.00634400499984622,-0.02164195477962494,0.018240446845510704,0.7575261317183074,-0.0021506568246551987,0.017903285863522553,-9.611174838491239e-05,0.0,0.0,-0.6,0.0,0.003524303436279297,0.003524303436279297,0.004258394241333008,0.0,0
0.06986498832702637,0.011486831121146679,0.006326632108539343,-0.021531691774725914,0.018264663413630974,0.759199943131422,0.00039740715931421044,0.013303802535685952,-7.056614083167113e-05,0.0,0.0,-0.6,0.0,0.002099275588989258,0.002099275588989258,0.002575397491455078,0.0,0
0.08014559745788574,0.011449867859482765,0.006313642952591181,-0.021482771262526512,0.018286076066743737,0.7603537194658211,0.0018708950536003481,0.00951334318677319,-5.028131098613634e-05,0.0,0.0,-0.6,0.0,0.0023949146270751953,0.0023949146270751953,0.0029342174530029297,0.0,0
0.08996868133544922,0.011413399130105972,0.0062985969707369804,-0.021452976390719414,0.01829359481530526,0.7610643896666622,0.0029809374306055355,0.0062967549567745215,-3.332423302317794e-05,0.0,0.0,-0.6,0.0,0.002381563186645508,0.002381563186645508,0.0029599666595458984,0.0,0
0.09997034072875977,0.011376773938536644,0.006280459463596344,-0.021465860307216644,0.018285975161199643,0.7613880877289704,0.003915687249917784,0.0040676813090920125,-2.1670138162385735e-05,0.0,0.0,-0.6,0.0,0.002223968505859375,0.002223968505859375,0.002758026123046875,0.0,0
0.11002445220947266,0.011308463290333748,0.006238680798560381,-0.021678440272808075,0.018287556725843177,0.7611512568327534,0.0039751355069483525,0.0004971670740856013,-2.9942377705375937e-06,0.0,0.0,-0.6,0.0,0.0019593238830566406,0.0019593238830566406,0.0024690628051757812,0.0,0
0.12004756927490234,0.01127360574901104,0.006215202622115612,-0.0218944288790226,0.01828747487709484,0.7607152252213584,0.004740431121676507,-0.00029691205678082346,1.0585962309906654e-06,0.0,0.0,-0.6,0.0,0.002048015594482422,0.002048015594482422,0.002583026885986328,0.0,0
0.12981033325195312,0.011240202002227306,0.006188703700900078,-0.022179601714015007,0.0182896881997143,0.7601231964045073,0.004919545700658394,0.0003899508279513925,-3.081059332208215e-06,0.0,0.0,-0.6,0.0,0.0020401477813720703,0.0020401477813720703,0.0024728775024414062,0.0,0
0.14008712768554688,0.011210350319743156,0.006160775665193796,-0.022549018263816833,0.018272629352640648,0.7594060002981504,0.0030114401719685065,0.0018098314456797952,-1.1058587354416658e-05,0.0,0.0,-0.6,0.0,0.0021851062774658203,0.0021851062774658203,0.002721548080444336,0.0,0
0.15008211135864258,0.011135835200548172,0.006075285840779543,-0.024172667413949966,0.018271485704708396,0.7579761737660821,0.0019135612344178521,0.0031103966060613353,-1.8325383188004213e-05,0.0,0.0,-0.6,0.0,0.002034425735473633,0.002034425735473633,0.0024461746215820312,0.0,0
0.1600501537322998,0.011135835200548172,0.006075285840779543,-0.024172667413949966,0.018271485704708396,0.7569738791229625,0.0013493394109927476,0.00238278366979819,-1.4037550105419682e-05,0.0,0.0,-0.6,0.0,0.0019385814666748047,0.0019385814666748047,0.002468585968017578,0.0,0
0.16995620727539062,0.011115056462585926,0.00604603486135602,-0.024886058643460274,0.01827943671848759,0.7559518758851591,0.0022598720304525767,0.0018143899685423377,-1.100378408564989e-05,0.0,0.0,-0.6,0.0,0.0019233226776123047,0.0019233226776123047,0.0024247169494628906,0.0,0
0.17984414100646973,0.011094199493527412,0.006014849990606308,-0.02568550780415535,0.018271571134929238,0.7549164926530397,0.0026044003537032765,0.00019303270249397517,-1.7004151119978035e-06,0.0,0.0,-0.6,0.0,0.0020220279693603516,0.0020220279693603516,0.0024251937866210938,0.0,0
0.18994665145874023,0.011053123511373997,0.005944319535046816,-0.027541596442461014,0.01829726104158832,0.753545477465746,0.006730802306081385,-0.0002440497855008225,4.042417491810403e-07,0.0,0.0,-0.6,0.0,0.0020024776458740234,0.0020024776458740234,0.0025146007537841797,0.0,0
0.20008516311645508,0.011033598333597183,0.0059050219133496284,-0.028596030548214912,0.018300178274343055,0.7522632345676376,0.005220797520211952,-0.000796372558494705,4.258194128430966e-06,0.0,0.0,-0.6,0.0,0.0020639896392822266,0.0020639896392822266,0.002594470977783203,0.0,0
0.2098853588104248,0.011014619842171669,0.005864434409886599,-0.029732199385762215,0.018308282092500003,0.7510499734875741,0.004975527321270496,-0.0008131195240450378,4.697106504224362e-06,0.0,0.0,-0.6,0.0,0.0019998550415039062,0.0019998550415039062,0.0024535655975341797,0.0,0
0.22006869316101074,0.01099668350070715,0.00582149438560009,-0.03094870038330555,0.018313287903289413,0.7498768216813828,0.005494125771665503,-0.0006299078360159559,4.091124093526407e-06,0.0,0.0,-0.6,0.0,0.0025451183319091797,0.0025451183319091797,0.0030651092529296875,0.0,0
0.22980594635009766,0.010959574021399021,0.005731481127440929,-0.033622849732637405,0.01832204792150698,0.7484184254762858,0.00412010504188816,-0.00083334192848305,5.81305272824523e-06,0.0,0.0,-0.6,0.0,0.001932382583618164,0.001932382583618164,0.002346515655517578,0.0,0
0.2400662899017334,0.010941852815449238,0.005685722455382347,-0.03507520258426666,0.018319795921503526,0.7470862704238805,0.003573391088897072,-0.0004844905929378331,3.895331109921053e-06,0.0,0.0,-0.6,0.0,0.0019195079803466797,0.0019195079803466797,0.0024094581604003906,0.0,0
0.25007009506225586,0.010925756767392159,0.005638700909912586,-0.03660192713141441,0.01831534381313485,0.745843978146649,0.0034122905731675843,-0.00013735988376059754,2.0050536775200224e-06,0.0,0.0,-0.6,0.0,0.0018570423126220703,0.0018570423126220703,0.0023453235626220703,0.0,0
0.2599613666534424,0.01091055292636156,0.005591324996203184,-0.03820136934518814,0.01831301187890949,0.7446687700163306,0.002092102139883882,-0.000373397147096355,3.0922866686857896e-06,0.0,0.0,-0.6,0.0,0.0030333995819091797,0.0030333995819091797,0.0036554336547851562,0.0,0
0.27012181282043457,0.010885111056268215,0.005491782445460558,-0.0416080504655838,0.018319896728942187,0.7432537134062419,0.0057268306981890565,0.000731036606462672,-1.1671186394122846e-06,0.0,0.0,-0.6,0.0,0.002784252166748047,0.002784252166748047,0.0034427642822265625,0.0,0
0.28014326095581055,0.010873916558921337,0.005438555497676134,-0.04341278225183487,0.018321835307178562,0.7419632890984215,0.005611014741213353,-0.00014842807613356696,4.558017027532015e-06,0.0,0.0,-0.6,0.0,0.0024406909942626953,0.0024406909942626953,0.0030252933502197266,0.0,0
0.2899041175842285,0.010862591676414013,0.005383341573178768,-0.0452837310731411,0.018305597188554647,0.7407661704131023,0.005484202021785345,-0.0006583791009696583,8.074646560048567e-06,0.0,0.0,-0.6,0.0,0.0023641586303710938,0.0023641586303710938,0.0028951168060302734,0.0,0
0.30018067359924316,0.010851471684873104,0.0053266556933522224,-0.04721810668706894,0.018291529849611538,0.7396428353976008,0.005379181633269063,-0.0007604945804964176,9.248932740979995e-06,0.0,0.0,-0.6,0.0,0.0033893585205078125,0.0033893585205078125,0.004117012023925781,0.0,0
0.3101053237915039,0.010329904966056347,0.005240784026682377,-0.052407100796699524,0.018268444745153285,0.7380774709319773,0.007243391909071957,-0.0055658333887418174,4.154263773003286e-05,0.0,0.0,-0.6,0.0,0.0019068717956542969,0.0019068717956542969,0.002330780029296875,0.0,0
0.3200244903564453,0.010329904966056347,0.005240784026682377,-0.052407100796699524,0.018268444745153285,0.7369799660019111,0.0050846074299639235,-0.0045959529136431745,3.353959320282727e-05,0.0,0.0,-0.6,0.0,0.0019385814666748047,0.0019385814666748047,0.0024063587188720703,0.0,0
0.32992124557495117,0.010081867687404156,0.005225164815783501,-0.05410182476043701,0.018261024020017915,0.7359690903145347,0.003544015669789248,-0.006024270057105238,4.0796200733557055e-05,0.0,0.0,-0.6,0.0,0.0017855167388916016,0.0017855167388916016,0.0022575855255126953,0.0,0
0.3399171829223633,0.009837986901402473,0.005207162816077471,-0.05585916340351105,0.018274792567994927,0.735018052136601,0.004188561251822083,-0.007464306556290214,5.048648377471725e-05,0.0,0.0,-0.6,0.0,0.0019884109497070312,0.0019884109497070312,0.0024001598358154297,0.0,0
0.35013270378112793,0.009361345320940018,0.005163305904716253,-0.05955827981233597,0.018273514570030062,0.7338755852011958,0.003954702824855218,-0.01061836099784478,6.938400147011376e-05,0.0,0.0,-0.6,0.0,0.0037992000579833984,0.0037992000579833984,0.004515647888183594,0.0,0
0.3600332736968994,0.009130056016147137,0.0051398444920778275,-0.061496734619140625,0.018279696182658612,0.732837347932052,0.0022836594929782524,-0.010221368887816948,6.46302152534955e-05,0.0,0.0,-0.6,0.0,0.003987550735473633,0.003987550735473633,0.004841327667236328,0.0,0
0.3699374198913574,0.008902921341359615,0.005116401240229607,-0.06349118053913116,0.018292245790927475,0.7318841059857751,0.00031294582528248105,-0.010628455109387345,6.385896489748911e-05,0.0,0.0,-0.6,0.0,0.0033245086669921875,0.0033245086669921875,0.003960847854614258,0.0,0
0.3802299499511719,0.00867817085236311,0.0050925565883517265,-0.06553731113672256,0.018297273064282325,0.7309980302268376,-1.3460683710439254e-05,-0.011525441362300897,6.83616135398739e-05,0.0,0.0,-0.6,0.0,0.002688169479370117,0.002688169479370117,0.0032966136932373047,0.0,0
0.3899211883544922,0.008240588940680027,0.005042848642915487,-0.06977932155132294,0.018307424672697567,0.7299466811377089,-0.0013504646122500684,-0.012074656585555846,6.774958850260483e-05,0.0,0.0,-0.6,0.0,0.002305746078491211,0.002305746078491211,0.002870798110961914,0.0,0
0.3999519348144531,0.008029029704630375,0.005017848219722509,-0.07197006791830063,0.01830617038002463,0.7290056485015838,-0.001415175652722609,-0.010719396819969694,5.916328811805868e-05,0.0,0.0,-0.6,0.0,0.002197265625,0.002197265625,0.0026443004608154297,0.0,0
0.41045212745666504,0.007621346041560173,0.004966469015926123,-0.07648608088493347,0.018311074170329473,0.7279275134491817,-0.0012837499175956883,-0.010306924262998916,5.5775686618448256e-05,0.0,0.0,-0.6,0.0,0.001988649368286133,0.001988649368286133,0.002391815185546875,0.0,0
0.41980743408203125,0.007621346041560173,0.004966469015926123,-0.07648608088493347,0.018311074170329473,0.7271719738906848,-0.000922144699509308,-0.008346034065452493,4.533437590180105e-05,0.0,0.0,-0.6,0.0,0.0024590492248535156,0.0024590492248535156,0.0029594898223876953,0.0,0
0.4302678108215332,0.007424673996865749,0.004939599893987179,-0.07880851626396179,0.01831820422583885,0.726442768720617,-0.00040410921993388164,-0.008219979878957522,4.530091929355093e-05,0.0,0.0,-0.6,0.0,0.0043141841888427734,0.0043141841888427734,0.005326747894287109,0.0,0
0.4401223659515381,0.007040506694465876,0.004884802736341953,-0.08357387781143188,0.018315495437839783,0.7255351446782188,-0.002243937988410839,-0.010273933754686496,5.135174320597809e-05,0.0,0.0,-0.6,0.0,0.0030736923217773438,0.0030736923217773438,0.003782033920288086,0.0,0
0.44979023933410645,0.006854785140603781,0.004859087523072958,-0.08601304143667221,0.01830765650675284,0.7247132540642314,-0.0019460419066643982,-0.010474349279318059,5.250750708139863e-05,0.0,0.0,-0.6,0.0,0.0022742748260498047,0.0022742748260498047,0.0027251243591308594,0.0,0
0.45999693870544434,0.006672423332929611,0.004833204206079245,-0.08848701417446136,0.01828977448504026,0.7239475422223054,-0.0020840540118732985,-0.009026301754594113,4.378698224555953e-05,0.0,0.0,-0.6,0.0,0.0022084712982177734,0.0022084712982177734,0.0027451515197753906,0.0,0
0.4701714515686035,0.006149299442768097,0.004751130007207394,-0.09610594809055328,0.018301079732638025,0.7228712586253405,-0.0001834120802806404,-0.010117991039765564,5.4995011658718774e-05,0.0,0.0,-0.6,0.0,0.0018856525421142578,0.0018856525421142578,0.0022897720336914062,0.0,0
0.4798884391784668,0.006149299442768097,0.004751130007207394,-0.09610594809055328,0.018301079732638025,0.7221170155921361,-0.00014843181684022356,-0.008177921560688178,4.443730869091039e-05,0.0,0.0,-0.6,0.0,0.0018668174743652344,0.0018668174743652344,0.002285003662109375,0.0,0
0.4900219440460205,0.005982337053865194,0.004721376113593578,-0.0987076610326767,0.018308781694443797,0.7214095609498813,0.00030172270670333337,-0.00799084037085539,4.498227899774364e-05,0.0,0.0,-0.6,0.0,0.0019478797912597656,0.0019478797912597656,0.0025141239166259766,0.0,0
0.4997737407684326,0.005818719044327736,0.004690524190664291,-0.10133862495422363,0.018306739359222012,0.7207407443215329,0.0010283324113937048,-0.006867699197958035,4.139395462432529e-05,0.0,0.0,-0.6,0.0,0.0019211769104003906,0.0019211769104003906,0.002316713333129883,0.0,0
0.5100598335266113,0.005504638887941837,0.004626880865544081,-0.10668211430311203,0.01829729119315392,0.7199340803608453,-6.598983354883142e-05,-0.006930439949387181,3.8004066612866845e-05,0.0,0.0,-0.6,0.0,0.005106687545776367,0.005106687545776367,0.005894899368286133,0.0,0
0.5198893547058105,0.0053536370396614075,0.00459546223282814,-0.1093924343585968,0.018298310263844195,0.7192043828840213,-0.0013752388458128303,-0.006223056002729667,2.8967807433053427e-05,0.0,0.0,-0.6,0.0,0.0035474300384521484,0.0035474300384521484,0.004206180572509766,0.0,0
0.5298621654510498,0.005207242909818888,0.0045644487254321575,-0.11212721467018127,0.018295308096477073,0.7185279859683801,-0.0006760720714110308,-0.004276812736543049,2.0878510443278627e-05,0.0,0.0,-0.6,0.0,0.002663850784301758,0.002663850784301758,0.0031585693359375,0.0,0
0.5401654243469238,0.005067053250968456,0.004533099941909313,-0.11490317434072495,0.01828900596990984,0.7178979855129859,-0.0015050822514292796,-0.002601856161316182,7.956328451721099e-06,0.0,0.0,-0.6,0.0,0.0025565624237060547,0.0025565624237060547,0.0031752586364746094,0.0,0
0.5497820377349854,0.004801806062459946,0.004470053594559431,-0.12051641941070557,0.018278019687081398,0.7171460871337904,-0.0009999281584421092,-0.0021657887159514983,7.385217793457338e-06,0.0,0.0,-0.6,0.0,0.002094268798828125,0.002094268798828125,0.0026023387908935547,0.0,0
0.5600221157073975,0.004675795324146748,0.0044387029483914375,-0.12335163354873657,0.01827151622868713,0.7164726291721454,-0.0015502701903312179,-0.001253393122680097,-2.3505518047819078e-07,0.0,0.0,-0.6,0.0,0.002094745635986328,0.002094745635986328,0.002566814422607422,0.0,0
0.5699830055236816,0.00455532455816865,0.0044070095755159855,-0.12620390951633453,0.01826819098811106,0.7158527804431958,-0.0005700309242352311,-0.0004130010866803381,-4.0760313568141033e-07,0.0,0.0,-0.6,0.0,0.0025310516357421875,0.0025310516357421875,0.003124237060546875,0.0,0
0.5800399780273438,0.004439798649400473,0.004374484997242689,-0.12907297909259796,0.018281857273163494,0.715273348962259,-0.00038880069024531936,0.0004606105727492672,-4.347066013000417e-06,0.0,0.0,-0.6,0.0,0.003534555435180664,0.003534555435180664,0.0042057037353515625,0.0,0
0.5900287628173828,0.0043297684751451015,0.004341800231486559,-0.1319579780101776,0.018290350987397213,0.7147245640891757,-7.680272997477583e-05,0.0008819376450775603,-5.169547833364579e-06,0.0,0.0,-0.6,0.0,0.002616405487060547,0.002616405487060547,0.0032205581665039062,0.0,0
0.6001379489898682,0.004127100575715303,0.004272342659533024,-0.13776904344558716,0.018313080709275575,0.714071066134342,0.0011537691216695271,-0.00038889407360670545,8.036791775834718e-06,0.0,0.0,-0.6,0.0,0.002218961715698242,0.002218961715698242,0.0027854442596435547,0.0,0
0.6098189353942871,0.0040301429107785225,0.004236259963363409,-0.14069318771362305,0.018321048276799184,0.7134757435475875,0.001253441565139784,-0.0007657397296380297,1.0795017101086414e-05,0.0,0.0,-0.6,0.0,0.0019519329071044922,0.0019519329071044922,0.0023610591888427734,0.0,0
0.6201155185699463,0.0039375280030071735,0.004199973773211241,-0.14363092184066772,0.018334303132003307,0.7129191460567283,0.0003794527804906944,0.0009609306291968448,-3.2638561818853273e-06,0.0,0.0,-0.6,0.0,0.0021729469299316406,0.0021729469299316406,0.0026938915252685547,0.0,0
0.6297876834869385,0.003767032641917467,0.00413169339299202,-0.1495397686958313,0.018325252865609064,0.7122712078102903,-0.003805497291956991,0.0016629095689373763,-3.0382468970655707e-05,0.0,0.0,-0.6,0.0,0.002907991409301758,0.002907991409301758,0.0035910606384277344,0.0,0
0.6399657726287842,0.003688501426950097,0.004100476391613483,-0.15250955522060394,0.01832531242827917,0.7116864043258143,-0.004437063572300486,0.002679723321348369,-3.970049837574858e-05,0.0,0.0,-0.6,0.0,0.003686189651489258,0.003686189651489258,0.004359722137451172,0.0,0
0.6502196788787842,0.0036151038948446512,0.004070639610290527,-0.15548931062221527,0.018318937117901616,0.7111478531848725,-0.004496982271574178,0.0028113487822993394,-4.0967639402125724e-05,0.0,0.0,-0.6,0.0,0.0035059452056884766,0.0035059452056884766,0.004285335540771484,0.0,0
0.6599550247192383,0.0035447957925498486,0.004039954859763384,-0.15850694477558136,0.0183188802564051,0.7106467140019165,-0.0037783156314268544,0.0026489088731807393,-3.610929689318203e-05,0.0,0.0,-0.6,0.0,0.002562999725341797,0.002562999725341797,0.0030481815338134766,0.0,0
0.6700246334075928,0.003479183651506901,0.004010198637843132,-0.1615307331085205,0.01829963420563212,0.7101762634429022,-0.00459290643705097,0.0035498909985923178,-4.5890279204062827e-05,0.0,0.0,-0.6,0.0,0.001783132553100586,0.001783132553100586,0.002283811569213867,0.0,0
0.6801145076751709,0.0033626118674874306,0.003954003565013409,-0.16759362816810608,0.018299229348252757,0.7096136607994558,-0.00434689544616062,0.005301172471571045,-5.4106372568884543e-05,0.0,0.0,-0.6,0.0,0.001998424530029297,0.001998424530029297,0.0025060176849365234,0.0,0
0.6899993419647217,0.0033120401203632355,0.00392638286575675,-0.17063063383102417,0.01829587487376655,0.7091114487092284,-0.003559976552570624,0.005960626759399237,-5.308530835851899e-05,0.0,0.0,-0.6,0.0,0.0017659664154052734,0.0017659664154052734,0.0021631717681884766,0.0,0
0.700059175491333,0.0032674334943294525,0.0038984082639217377,-0.17366959154605865,0.018310509385346577,0.7086525531377017,-0.001515345369916527,0.006903966773306747,-4.573723307605753e-05,0.0,0.0,-0.6,0.0,0.0032465457916259766,0.0032465457916259766,0.003918647766113281,0.0,0
0.7098863124847412,0.0031903476919978857,0.0039384509436786175,-0.17940044403076172,0.01830233490176494,0.7081524521110332,0.000398143005252984,0.007116697976731935,-3.5255960788941144e-05,0.0,0.0,-0.6,0.0,0.002666473388671875,0.002666473388671875,0.003253936767578125,0.0,0
0.7200520038604736,0.0031561211217194796,0.004003868903964758,-0.18209873139858246,0.01828829775120493,0.7077227377067703,0.00015729692822436894,0.006793629292231878,-3.500430903947918e-05,0.0,0.0,-0.6,0.0,0.0023391246795654297,0.0023391246795654297,0.002856016159057617,0.0,0
0.7299997806549072,0.003126242896541953,0.004066053777933121,-0.1848020702600479,0.018284843681264727,0.7073467449264734,-0.000493632148626515,0.006017181764519293,-3.502647680991639e-05,0.0,0.0,-0.6,0.0,0.002127408981323242,0.002127408981323242,0.002671480178833008,0.0,0
0.7398378849029541,0.003100055968388915,0.004126177169382572,-0.18751008808612823,0.018259720318461757,0.7070070119649952,-0.0015953284564705075,0.006054751024235214,-4.207309209852616e-05,0.0,0.0,-0.6,0.0,0.002415180206298828,0.002415180206298828,0.0029392242431640625,0.0,0
0.7502753734588623,0.003062876407057047,0.004240965470671654,-0.192937433719635,0.018243492378569943,0.7066232629680281,-0.004136634814757651,0.008566340777374478,-7.157683710587303e-05,0.0,0.0,-0.6,0.0,0.003589153289794922,0.003589153289794922,0.0044231414794921875,0.0,0
0.7601938247680664,0.003051486797630787,0.004296429920941591,-0.19565492868423462,0.01824480816687776,0.7062837460245043,-0.004429283315061784,0.008645144160221632,-7.383867722413932e-05,0.0,0.0,-0.6,0.0,0.0025725364685058594,0.0025725364685058594,0.003210306167602539,0.0,0
0.7697815895080566,0.0030463405419141054,0.00435019563883543,-0.19837409257888794,0.018245947124078437,0.705977052664943,-0.003790474107186107,0.01020728756075739,-7.777021118367586e-05,0.0,0.0,-0.6,0.0,0.0021381378173828125,0.0021381378173828125,0.002577066421508789,0.0,0
0.7801880836486816,0.0030487319454550743,0.004401712212711573,-0.20109547674655914,0.01824285436804205,0.7056917981886,-0.0031081777954288813,0.011556728373968832,-8.056347798330656e-05,0.0,0.0,-0.6,0.0,0.0022318363189697266,0.0022318363189697266,0.0027618408203125,0.0,0
0.7899537086486816,0.0030729782301932573,0.004499776288866997,-0.20653779804706573,0.018243230914494445,0.7053660255836216,-0.005418174634066404,0.014496589113292444,-0.00011049619572458687,0.0,0.0,-0.6,0.0,0.006110191345214844,0.006110191345214844,0.0068323612213134766,0.0,0
0.7998669147491455,0.0030933490488678217,0.004546853248029947,-0.20925669372081757,0.018223438068702327,0.7050773462394123,-0.005009529741412381,0.013191436184339584,-0.00010046284979845468,0.0,0.0,-0.6,0.0,0.003498077392578125,0.003498077392578125,0.0041162967681884766,0.0,0
0.8101136684417725,0.003117866348475218,0.004592209123075008,-0.21197447180747986,0.018233481519302038,0.7048079534571714,-0.003967009308759856,0.012187790765475437,-8.844295702242315e-05,0.0,0.0,-0.6,0.0,0.0026814937591552734,0.0026814937591552734,0.0033712387084960938,0.0,0
0.819981575012207,0.00314678275026381,0.004635652527213097,-0.21469111740589142,0.018254217668349348,0.7045549891135456,-0.003316228240855091,0.012012706090353818,-8.323073676123065e-05,0.0,0.0,-0.6,0.0,0.0025548934936523438,0.0025548934936523438,0.0031137466430664062,0.0,0
0.8300814628601074,0.0032173211220651865,0.004717927426099777,-0.22012101113796234,0.01828479096975882,0.7042494916201967,-0.003581026699819887,0.012642394809631767,-8.81798198956752e-05,0.0,0.0,-0.6,0.0,0.00405120849609375,0.00405120849609375,0.0048825740814208984,0.0,0
0.840324878692627,0.003258151700720191,0.004756159149110317,-0.22283172607421875,0.01828106397699287,0.7039751650483049,-0.00253335450231579,0.011888817420574236,-7.771568469753601e-05,0.0,0.0,-0.6,0.0,0.0034112930297851562,0.0034112930297851562,0.0042378902435302734,0.0,0
0.8499107360839844,0.00330332457087934,0.004791946150362492,-0.22553890943527222,0.01828793335799637,0.7037255742983846,-0.0009360986593859471,0.011826795467700124,-6.763270718349208e-05,0.0,0.0,-0.6,0.0,0.0024051666259765625,0.0024051666259765625,0.002881765365600586,0.0,0
0.8601019382476807,0.0033556129783391953,0.004824291914701462,-0.2282407283782959,0.01829695018153526,0.7035012440048037,0.00045934792818653564,0.011273789367133425,-5.653329123524446e-05,0.0,0.0,-0.6,0.0,0.002345561981201172,0.002345561981201172,0.0029137134552001953,0.0,0
0.8698539733886719,0.003469325602054596,0.004881814122200012,-0.23362506926059723,0.01831754125353118,0.7032455261308636,-7.905476888005117e-05,0.011600823197506346,-6.26812722754439e-05,0.0,0.0,-0.6,0.0,0.00211334228515625,0.00211334228515625,0.002632617950439453,0.0,0
0.8799855709075928,0.0035317447036504745,0.004908802919089794,-0.23630745708942413,0.018310240626099167,0.7030139626893175,-0.0008692612361095716,0.012279788218583,-7.14523087111212e-05,0.0,0.0,-0.6,0.0,0.0019516944885253906,0.0019516944885253906,0.0023772716522216797,0.0,0
0.8900232315063477,0.003599658841267228,0.004933061543852091,-0.23898357152938843,0.018285888486748888,0.7028033486142854,0.002041426621002526,0.012255658453552677,-5.4800514370511256e-05,0.0,0.0,-0.6,0.0,0.002000093460083008,0.002000093460083008,0.002518892288208008,0.0,0
0.899899959564209,0.003671124577522278,0.004953634925186634,-0.24165771901607513,0.01828724500562498,0.7026083489452184,0.001728715060809431,0.011206096081808605,-5.180165965407994e-05,0.0,0.0,-0.6,0.0,0.0020494461059570312,0.0020494461059570312,0.002458810806274414,0.0,0
0.9099500179290771,0.0038252470549196005,0.004989651031792164,-0.24698464572429657,0.018258375584337815,0.7023745380816465,0.0012398963982448515,0.01375931805263737,-7.031783871420658e-05,0.0,0.0,-0.6,0.0,0.0022423267364501953,0.0022423267364501953,0.002809762954711914,0.0,0
0.9199545383453369,0.00390857458114624,0.005005317740142345,-0.24963536858558655,0.018252592735709006,0.7021726306843995,0.0007171576751269596,0.013083661020934003,-7.004274816555767e-05,0.0,0.0,-0.6,0.0,0.002728700637817383,0.002728700637817383,0.0032999515533447266,0.0,0
0.9299509525299072,0.003997210878878832,0.005015732254832983,-0.2522764205932617,0.018242496791100637,0.7019882240417846,0.0017746230642013846,0.01347027635038414,-6.661461572625784e-05,0.0,0.0,-0.6,0.0,0.003395557403564453,0.003395557403564453,0.004012107849121094,0.0,0
0.9402017593383789,0.004090240225195885,0.005023263860493898,-0.25490784645080566,0.018215915740637485,0.7018203050244788,0.0021278271333165736,0.012925328113035999,-6.211934843866405e-05,0.0,0.0,-0.6,0.0,0.0028145313262939453,0.0028145313262939453,0.0035026073455810547,0.0,0
0.9499139785766602,0.004288138821721077,0.005033569410443306,-0.2601872980594635,0.018201093703334788,0.701620527896548,0.0015654852645090582,0.014509696290172491,-7.515556734277003e-05,0.0,0.0,-0.6,0.0,0.0022907257080078125,0.0022907257080078125,0.002851724624633789,0.0,0
0.9598278999328613,0.004391427617520094,0.005036181304603815,-0.2628116011619568,0.01817364319802584,0.7014411764755966,0.0023307713763665505,0.013484546617861009,-6.584959317695945e-05,0.0,0.0,-0.6,0.0,0.0021257400512695312,0.0021257400512695312,0.0025713443756103516,0.0,0
0.9700477123260498,0.004497856833040714,0.00503607327118516,-0.2654246687889099,0.01815377513571023,0.7012796433722173,0.0029690975681123826,0.012894681467738894,-5.97032364601204e-05,0.0,0.0,-0.6,0.0,0.0026390552520751953,0.0026390552520751953,0.0033380985260009766,0.0,0
0.9800112247467041,0.00460828747600317,0.0050341784954071045,-0.2680246829986572,0.018145704601352307,0.7011376094629517,0.001711924831836108,0.013091510441111094,-6.830071755883498e-05,0.0,0.0,-0.6,0.0,0.0028641223907470703,0.0028641223907470703,0.003458738327026367,0.0,0
0.9899661540985107,0.0048378570936620235,0.0050296178087592125,-0.2731896936893463,0.01810981794311847,0.700964117577457,0.0005684172515222119,0.014133115677649865,-8.082613589091269e-05,0.0,0.0,-0.6,0.0,0.002235889434814453,0.002235889434814453,0.002780914306640625,0.0,0
1.0001544952392578,0.004960664547979832,0.005025084130465984,-0.27576255798339844,0.018087212647294973,0.70081315051262,0.0013062478194495713,0.014021483954117219,-7.65391431851121e-05,0.0,0.0,-0.6,0.0,0.002237081527709961,0.002237081527709961,0.0028133392333984375,0.0,0
1.0099461078643799,0.005086460616439581,0.005019031465053558,-0.27832216024398804,0.018076635845071794,0.7006754139900747,0.0008099432016202919,0.012687722376659893,-7.12068560629879e-05,0.0,0.0,-0.6,0.0,0.0059316158294677734,0.0059316158294677734,0.007012367248535156,0.0,0
1.0200541019439697,0.005214566830545664,0.005012419540435076,-0.28086966276168823,0.01807141756850923,0.7005391434936459,0.00022112271850137905,0.012288542115755642,-7.173163735122565e-05,0.0,0.0,-0.6,0.0,0.0034368038177490234,0.0034368038177490234,0.004096031188964844,0.0,0
1.0301096439361572,0.0053456807509064674,0.005004199221730232,-0.28340625762939453,0.01807594133354862,0.7004074474631584,0.001255877640877326,0.011983094673155215,-6.504360823258968e-05,0.0,0.0,-0.6,0.0,0.004047393798828125,0.004047393798828125,0.004851818084716797,0.0,0
1.0400092601776123,0.005615529138594866,0.004984396509826183,-0.28843945264816284,0.018069549022933756,0.7002553657537166,0.0013724759536060105,0.01263333632655271,-6.887229490950268e-05,0.0,0.0,-0.6,0.0,0.0023088455200195312,0.0023088455200195312,0.002807140350341797,0.0,0
1.0500035285949707,0.005753698758780956,0.004971827380359173,-0.29093652963638306,0.01805103400045227,0.700117386931921,0.002109657355169893,0.01279219874478411,-6.686383406105426e-05,0.0,0.0,-0.6,0.0,0.0021440982818603516,0.0021440982818603516,0.0027039051055908203,0.0,0
1.0598835945129395,0.005895338021218777,0.004957527853548527,-0.2934196889400482,0.01805836603153024,0.6999973552459772,0.002242109453318968,0.012440521993315672,-6.464614376449928e-05,0.0,0.0,-0.6,0.0,0.002077341079711914,0.002077341079711914,0.0024771690368652344,0.0,0
1.069932460784912,0.006192001048475504,0.004921792075037956,-0.29835835099220276,0.018036842028420003,0.6998667914433097,0.0057539490371187165,0.01517113545391222,-6.768201470472728e-05,0.0,0.0,-0.6,0.0,0.0020906925201416016,0.0020906925201416016,0.0025911331176757812,0.0,0
1.0801172256469727,0.006347663700580597,0.004899141378700733,-0.3008058965206146,0.018027343666057735,0.6997470125441679,0.005702278466415528,0.014246517860804261,-6.381160056942808e-05,0.0,0.0,-0.6,0.0,0.002019166946411133,0.002019166946411133,0.002523660659790039,0.0,0
1.0898146629333496,0.006505273282527924,0.004875142127275467,-0.30323874950408936,0.01801898691217762,0.6996437290358087,0.004161188874212995,0.012946471115703502,-6.301409766144819e-05,0.0,0.0,-0.6,0.0,0.0018596649169921875,0.0018596649169921875,0.0022673606872558594,0.0,0
1.1000564098358154,0.006664101965725422,0.004849881399422884,-0.30565544962882996,0.018017156957136248,0.6995506849514482,0.0037397544331414403,0.011703532987389001,-5.768906132738422e-05,0.0,0.0,-0.6,0.0,0.0020380020141601562,0.0020380020141601562,0.0025517940521240234,0.0,0
1.1100084781646729,0.006989599671214819,0.004873762372881174,-0.31045740842819214,0.018010995297328768,0.6994396867288859,0.001602474234150928,0.012294958527755332,-6.991736862919802e-05,0.0,0.0,-0.6,0.0,0.0020949840545654297,0.0020949840545654297,0.002650022506713867,0.0,0
1.1200428009033203,0.007157634012401104,0.004922031424939632,-0.3128456175327301,0.018003577587735832,0.6993378059538301,0.0010255654469131217,0.011930982651008799,-6.984312241541869e-05,0.0,0.0,-0.6,0.0,0.0026013851165771484,0.0026013851165771484,0.0031478404998779297,0.0,0
1.1301460266113281,0.0073282551020383835,0.004967400338500738,-0.3152191638946533,0.01801874815180259,0.699244015535547,0.00025339751707006584,0.012079490540639472,-7.350286376133123e-05,0.0,0.0,-0.6,0.0,0.0034189224243164062,0.0034189224243164062,0.004136085510253906,0.0,0
1.1400022506713867,0.007500654086470604,0.00501085352152586,-0.3175767958164215,0.01802127395864544,0.6991589985517048,-0.0010883684725579666,0.010967896309223906,-7.088257271208203e-05,0.0,0.0,-0.6,0.0,0.0027413368225097656,0.0027413368225097656,0.0033440589904785156,0.0,0
1.1500051021575928,0.0076738991774618626,0.005054089240729809,-0.3199195861816406,0.018037793649430683,0.6990732047236973,-0.001789472500240098,0.010702737498094417,-7.10326630986252e-05,0.0,0.0,-0.6,0.0,0.002274751663208008,0.002274751663208008,0.002810239791870117,0.0,0
1.1601252555847168,0.008025816641747952,0.0051360237412154675,-0.32455888390541077,0.018071678412418128,0.6989810694227089,-0.0032542396159776273,0.013130605386736188,-8.863180319929047e-05,0.0,0.0,-0.6,0.0,0.002232789993286133,0.002232789993286133,0.002778291702270508,0.0,0
1.169837474822998,0.008205990307033062,0.00517473416402936,-0.3268592655658722,0.018067675142081522,0.6989089801816805,-0.00421441581350779,0.012745918274693463,-8.785069780402572e-05,0.0,0.0,-0.6,0.0,0.0019805431365966797,0.0019805431365966797,0.002409696578979492,0.0,0
1.180114984512329,0.008387005887925625,0.005212979856878519,-0.32914113998413086,0.018063888207554245,0.6988473725473466,-0.004905787766579606,0.011234134361288244,-7.965352693107159e-05,0.0,0.0,-0.6,0.0,0.0020885467529296875,0.0020885467529296875,0.0025773048400878906,0.0,0
1.189784288406372,0.008751255460083485,0.005286077968776226,-0.3336518108844757,0.018010113956198563,0.6987866002352976,-0.004498794388550215,0.011756567672886681,-7.980248163632658e-05,0.0,0.0,-0.6,0.0,0.0020911693572998047,0.0020911693572998047,0.002567768096923828,0.0,0
1.2000110149383545,0.008935474790632725,0.005319184623658657,-0.33587923645973206,0.01798977991499436,0.6987363705269314,-0.0035555607041642626,0.012185596236603716,-7.869659469404723e-05,0.0,0.0,-0.6,0.0,0.002120494842529297,0.002120494842529297,0.0026078224182128906,0.0,0
1.2100472450256348,0.009124282747507095,0.005351620260626078,-0.3380887806415558,0.017973024320152794,0.6986895318967957,-0.005078543089646039,0.012700932793479064,-8.44376815334347e-05,0.0,0.0,-0.6,0.0,0.0023550987243652344,0.0023550987243652344,0.002953052520751953,0.0,0
1.219895362854004,0.009315171279013157,0.0053849006071686745,-0.34028175473213196,0.01796072419494,0.6986431665344808,-0.006997825769355605,0.012046933783113712,-8.421998948158943e-05,0.0,0.0,-0.6,0.0,0.0017719268798828125,0.0017719268798828125,0.0021181106567382812,0.0,0
1.229935646057129,0.009702407754957676,0.005453331861644983,-0.34462839365005493,0.01794510480958542,0.6985884505823843,-0.008401051292778718,0.013966504011974712,-9.600926900081362e-05,0.0,0.0,-0.6,0.0,0.002283334732055664,0.002283334732055664,0.0028069019317626953,0.0,0
1.2401039600372314,0.00989740714430809,0.005486566573381424,-0.34678003191947937,0.017974853231688834,0.6985469813204764,-0.0068686817617526555,0.01189394751402373,-7.989745542529745e-05,0.0,0.0,-0.6,0.0,0.0018887519836425781,0.0018887519836425781,0.0024003982543945312,0.0,0
1.2499191761016846,0.010092672891914845,0.005518386606127024,-0.34891343116760254,0.017979121574172967,0.698506125439204,-0.005761464919526205,0.011242030574087262,-7.303986736039733e-05,0.0,0.0,-0.6,0.0,0.0018830299377441406,0.0018830299377441406,0.002407073974609375,0.0,0
1.260087251663208,0.010289175435900688,0.005550198722630739,-0.3510303795337677,0.017980478923305173,0.698466008346562,-0.006409512574938725,0.010951213531578588,-7.201965873516618e-05,0.0,0.0,-0.6,0.0,0.0024068355560302734,0.0024068355560302734,0.002980947494506836,0.0,0
1.269935131072998,0.010684802196919918,0.005612751469016075,-0.3552111089229584,0.017996190104589083,0.6984249535398753,-0.0062018548737466555,0.011550669445892447,-7.369756299750292e-05,0.0,0.0,-0.6,0.0,0.0025544166564941406,0.0025544166564941406,0.003172159194946289,0.0,0
1.2799642086029053,0.010881843976676464,0.005642692092806101,-0.35727450251579285,0.0179945600190987,0.6983929612554238,-0.003808029778173062,0.010484064881299555,-6.320412208820787e-05,0.0,0.0,-0.6,0.0,0.0022826194763183594,0.0022826194763183594,0.0027294158935546875,0.0,0
1.2900116443634033,0.01108020730316639,0.005670842248946428,-0.35932958126068115,0.017996894006505754,0.6983651117805165,-0.0031340814810013728,0.010859815067840109,-6.392319511266107e-05,0.0,0.0,-0.6,0.0,0.0022132396697998047,0.0022132396697998047,0.0027723312377929688,0.0,0
1.29990816116333,0.011280694045126438,0.0056975469924509525,-0.36136606335639954,0.018022889997579988,0.6983431582015066,-0.0024619428067964378,0.010636622867638484,-6.158634285977568e-05,0.0,0.0,-0.6,0.0,0.0021724700927734375,0.0021724700927734375,0.002599954605102539,0.0,0
1.3100738525390625,0.011680328287184238,0.005748454947024584,-0.36538463830947876,0.018033855722537927,0.6983245604584587,-0.003882788225769053,0.008960165485200842,-5.410823373647228e-05,0.0,0.0,-0.6,0.0,0.0018248558044433594,0.0018248558044433594,0.002317667007446289,0.0,0
1.3200492858886719,0.011878006160259247,0.005773212295025587,-0.3673645555973053,0.018012329219431345,0.6983117083785932,-0.004430143517007712,0.007800205284120141,-4.7933881597416885e-05,0.0,0.0,-0.6,0.0,0.0019791126251220703,0.0019791126251220703,0.002496480941772461,0.0,0
1.3298733234405518,0.012075822800397873,0.005798663478344679,-0.36932510137557983,0.01801536592816332,0.6983069664076009,-0.005131074936962564,0.007844324353944403,-4.852126247458896e-05,0.0,0.0,-0.6,0.0,0.001905679702758789,0.001905679702758789,0.0023484230041503906,0.0,0
1.3400890827178955,0.012274450622498989,0.005823865998536348,-0.3712853491306305,0.0180279819337902,0.6983006925723114,-0.004519094699851085,0.007910236900785336,-4.790709432110547e-05,0.0,0.0,-0.6,0.0,0.002185821533203125,0.002185821533203125,0.0027222633361816406,0.0,0
1.3497262001037598,0.012477780692279339,0.005850270390510559,-0.3732278645038605,0.018023594997762706,0.6982886743728859,-0.004044707306217964,0.007947684999171018,-4.727802719857086e-05,0.0,0.0,-0.6,0.0,0.0020563602447509766,0.0020563602447509766,0.0025055408477783203,0.0,0
1.3601171970367432,0.012681683525443077,0.005876858718693256,-0.37515297532081604,0.018022355032256646,0.6982760122401793,-0.0052031790559270066,0.008022750337658317,-4.8376466515965e-05,0.0,0.0,-0.6,0.0,0.001943349838256836,0.001943349838256836,0.0024323463439941406,0.0,0
1.3699853420257568,0.01309314277023077,0.0059297760017216206,-0.3789471983909607,0.018027308409384983,0.6982708585623549,-0.004649054388592294,0.011015792035712587,-6.379532191099784e-05,0.0,0.0,-0.6,0.0,0.0019259452819824219,0.0019259452819824219,0.002429962158203125,0.0,0
1.3798604011535645,0.013301176019012928,0.005954021587967873,-0.3808155953884125,0.018009080523718628,0.6982672561448605,-0.0031814219751788043,0.010534926916115872,-5.971754623243718e-05,0.0,0.0,-0.6,0.0,0.0019910335540771484,0.0019910335540771484,0.0023882389068603516,0.0,0
1.3899853229522705,0.013720433227717876,0.005999046377837658,-0.38449424505233765,0.017971363541553664,0.6982770208883681,-0.0034245879802537247,0.012514730141018808,-7.00526826877259e-05,0.0,0.0,-0.6,0.0,0.002087831497192383,0.002087831497192383,0.0025932788848876953,0.0,0
1.400097131729126,0.013931097462773323,0.006020487751811743,-0.38632285594940186,0.017975472650976626,0.6982928190965171,-0.0023578253816541983,0.010598998209100235,-5.89410951557572e-05,0.0,0.0,-0.6,0.0,0.002074003219604492,0.002074003219604492,0.002619504928588867,0.0,0
1.4098334312438965,0.014141127467155457,0.006039710715413094,-0.38813087344169617,0.017962532175577132,0.6983101977652114,-0.0005511009071206012,0.009712784343344688,-5.3781061809595405e-05,0.0,0.0,-0.6,0.0,0.001989603042602539,0.001989603042602539,0.0024251937866210938,0.0,0
1.4201099872589111,0.014350395649671555,0.006056359503418207,-0.38991984724998474,0.017940021869068633,0.6983214205620254,-0.0001584378244927288,0.008440537433951135,-4.680004967751313e-05,0.0,0.0,-0.6,0.0,0.002094745635986328,0.002094745635986328,0.002613544464111328,0.0,0
1.429821252822876,0.014559358358383179,0.006072017829865217,-0.3916904330253601,0.017932713321783433,0.6983326621686187,-0.0009193280437649811,0.008379959261357026,-4.677291820085517e-05,0.0,0.0,-0.6,0.0,0.002111196517944336,0.002111196517944336,0.002602815628051758,0.0,0
1.4400577545166016,0.014974299818277359,0.0061027891933918,-0.3951759934425354,0.01796479110582307,0.6983453514404885,-0.0033450891670208597,0.007099432219695009,-4.007465890772209e-05,0.0,0.0,-0.6,0.0,0.002032756805419922,0.002032756805419922,0.0025212764739990234,0.0,0
1.4499835968017578,0.015179499983787537,0.006119712255895138,-0.39689427614212036,0.017962661739372766,0.698353569312031,-0.005078338529733892,0.005872010809204644,-3.2875197250750794e-05,0.0,0.0,-0.6,0.0,0.001851797103881836,0.001851797103881836,0.002359628677368164,0.0,0
1.460005760192871,0.015383101999759674,0.006137026473879814,-0.3985946774482727,0.017967842655432924,0.6983643315695723,-0.003534290794872773,0.00544612031578727,-3.0270092447121068e-05,0.0,0.0,-0.6,0.0,0.0021550655364990234,0.0021550655364990234,0.0026743412017822266,0.0,0
1.470381259918213,0.015987711027264595,0.006184750236570835,-0.4035763144493103,0.017983130529089383,0.6984027099440379,-0.0051710378973134205,0.005428062288185404,-2.935524761564305e-05,0.0,0.0,-0.6,0.0,0.001931905746459961,0.001931905746459961,0.0023183822631835938,0.0,0
1.4802627563476562,0.015987711027264595,0.006184750236570835,-0.4035763144493103,0.017983130529089383,0.6984295977370897,-0.003609470253032844,0.004342349340672995,-2.3463384805262984e-05,0.0,0.0,-0.6,0.0,0.0019850730895996094,0.0019850730895996094,0.0025043487548828125,0.0,0
1.4898507595062256,0.016189830377697945,0.00620120856910944,-0.40519946813583374,0.01797208541206927,0.698450935290052,-0.005038270420477457,0.003255948270033744,-1.6568714282502338e-05,0.0,0.0,-0.6,0.0,0.0021936893463134766,0.0021936893463134766,0.002692699432373047,0.0,0
1.5001580715179443,0.016389943659305573,0.00621816236525774,-0.4068056344985962,0.017975793156256976,0.6984681038932623,-0.003916693532906151,0.003196460789123326,-1.6152396759910696e-05,0.0,0.0,-0.6,0.0,0.00264739990234375,0.00264739990234375,0.003264188766479492,0.0,0
1.5097365379333496,0.016589278355240822,0.006232724990695715,-0.4084234833717346,0.017971922574420804,0.6984909617842673,0.0003961587481389167,0.003117897133263854,-1.7502647755145965e-05,0.0,0.0,-0.6,0.0,0.0018763542175292969,0.0018763542175292969,0.0022678375244140625,0.0,0
1.5200939178466797,0.01707281917333603,0.006286073476076126,-0.40999454259872437,0.01798601832242079,0.6985214155206538,0.0022810507981477343,0.004874224818449317,-2.8644170368390625e-05,0.0,0.0,-0.6,0.0,0.0020034313201904297,0.0020034313201904297,0.002515554428100586,0.0,0
1.5299832820892334,0.018019067123532295,0.00638413755223155,-0.41307970881462097,0.018003300785896428,0.6985648118296756,0.0010530817079688188,0.009936240600634154,-5.715251839513231e-05,0.0,0.0,-0.6,0.0,0.0020754337310791016,0.0020754337310791016,0.0026361942291259766,0.0,0
1.5398235321044922,0.018483204767107964,0.006429637782275677,-0.41459375619888306,0.01798847047679632,0.6986084354798933,0.0017530836972166719,0.011912288690773596,-6.938303120533288e-05,0.0,0.0,-0.6,0.0,0.0023627281188964844,0.0023627281188964844,0.002820253372192383,0.0,0
1.550006628036499,0.019396623596549034,0.006513334345072508,-0.41756874322891235,0.018003266894582155,0.6986575579945309,0.00126005269210166,0.016115517126148542,-9.395495030688736e-05,0.0,0.0,-0.6,0.0,0.001969575881958008,0.001969575881958008,0.0024940967559814453,0.0,0
1.5600206851959229,0.01984531432390213,0.006551438942551613,-0.41902923583984375,0.018023081921005497,0.6987030442473212,0.0023442396648005394,0.015322046172652834,-9.124354791514645e-05,0.0,0.0,-0.6,0.0,0.0020914077758789062,0.0020914077758789062,0.0026183128356933594,0.0,0
1.569861888885498,0.020287295803427696,0.006586064118891954,-0.42047250270843506,0.018030329385588722,0.698744178827398,0.0032039942230322025,0.014345788675637716,-8.740210028892834e-05,0.0,0.0,-0.6,0.0,0.0018367767333984375,0.0018367767333984375,0.0022699832916259766,0.0,0
1.5801737308502197,0.020723719149827957,0.006617633160203695,-0.42189717292785645,0.01805993191564759,0.698790201455082,0.002233339653302948,0.014643668240466437,-8.87026791915177e-05,0.0,0.0,-0.6,0.0,0.0019462108612060547,0.0019462108612060547,0.0024166107177734375,0.0,0
1.5899536609649658,0.021580811589956284,0.006678313948214054,-0.42469313740730286,0.018062977321053896,0.698846489649325,-9.956122374049906e-05,0.01666743606338222,-9.868783136670162e-05,0.0,0.0,-0.6,0.0,0.0019397735595703125,0.0019397735595703125,0.0025222301483154297,0.0,0
1.5999486446380615,0.022001029923558235,0.006706180516630411,-0.42606455087661743,0.018055682911969864,0.6988998245791316,0.0010066442630718008,0.015637021587762836,-9.385537000762446e-05,0.0,0.0,-0.6,0.0,0.0019114017486572266,0.0019114017486572266,0.0023474693298339844,0.0,0
1.6100282669067383,0.02241506054997444,0.006731753703206778,-0.4274192750453949,0.018034431242792123,0.6989435714659524,0.0004203335032295967,0.01380361064410979,-8.251374280399605e-05,0.0,0.0,-0.6,0.0,0.0019109249114990234,0.0019109249114990234,0.002464771270751953,0.0,0
1.619920253753662,0.022822780534625053,0.006756467279046774,-0.4287584125995636,0.018032142772479717,0.698983242571894,-0.0002449669185063973,0.013091469670290366,-7.744528283960006e-05,0.0,0.0,-0.6,0.0,0.0018682479858398438,0.0018682479858398438,0.0022721290588378906,0.0,0
1.6300079822540283,0.02322528325021267,0.006779879331588745,-0.43008360266685486,0.018032766562723977,0.6990250508984682,-0.0006370623886876617,0.012666980126286335,-7.42050898308809e-05,0.0,0.0,-0.6,0.0,0.0019643306732177734,0.0019643306732177734,0.0024721622467041016,0.0,0
1.6401193141937256,0.024019112810492516,0.006824762560427189,-0.4326815605163574,0.018052862813865367,0.6990842360904435,-0.0014995639506829818,0.015724206361255356,-9.083496839852251e-05,0.0,0.0,-0.6,0.0,0.002094745635986328,0.002094745635986328,0.0026535987854003906,0.0,0
1.6498677730560303,0.02441026270389557,0.006845122668892145,-0.43395450711250305,0.018050744583450188,0.699143073494425,0.0002849704446666089,0.015094938111172459,-8.942110402734702e-05,0.0,0.0,-0.6,0.0,0.0020723342895507812,0.0020723342895507812,0.002566814422607422,0.0,0
1.6602001190185547,0.02479732222855091,0.0068625821731984615,-0.43521052598953247,0.01807388869956637,0.6991952177475831,0.0014046350670436345,0.014078989143347775,-8.548572355545485e-05,0.0,0.0,-0.6,0.0,0.003163576126098633,0.003163576126098633,0.00386810302734375,0.0,0
1.669903039932251,0.025553306564688683,0.006892445497214794,-0.43767768144607544,0.018054906686936448,0.6992515266754018,0.0008663275967443194,0.013389458817711967,-8.051991114662858e-05,0.0,0.0,-0.6,0.0,0.002428293228149414,0.002428293228149414,0.002995729446411133,0.0,0
1.6799917221069336,0.025922808796167374,0.0069057815708220005,-0.4388866722583771,0.018053258898882416,0.6993089602787592,0.00036270381445070173,0.011812189238897939,-7.044122582795666e-05,0.0,0.0,-0.6,0.0,0.0021207332611083984,0.0021207332611083984,0.002562999725341797,0.0,0
1.6899425983428955,0.02628723904490471,0.006917531602084637,-0.44010913372039795,0.01807367149181212,0.6993697746940735,0.00138036786641097,0.011358512718602717,-6.971589953066445e-05,0.0,0.0,-0.6,0.0,0.0021407604217529297,0.0021407604217529297,0.0026710033416748047,0.0,0
1.6999783515930176,0.026646725833415985,0.006926436442881823,-0.44131362438201904,0.018080010447202012,0.6994268236276299,0.0025658136565322627,0.009904240654971528,-6.384609612806674e-05,0.0,0.0,-0.6,0.0,0.002210378646850586,0.002210378646850586,0.0026702880859375,0.0,0
1.7099175453186035,0.027001818642020226,0.006933752913028002,-0.4425017535686493,0.0180737936615922,0.6994745866980137,0.0015095180921400899,0.008269447020669096,-5.224719894599882e-05,0.0,0.0,-0.6,0.0,0.0019047260284423828,0.0019047260284423828,0.002386808395385742,0.0,0
1.7200095653533936,0.027350910007953644,0.006940406747162342,-0.4436756670475006,0.018066968375693857,0.6995132539171954,0.0008456721186148276,0.007788237449821851,-4.817118639213892e-05,0.0,0.0,-0.6,0.0,0.0018734931945800781,0.0018734931945800781,0.0023756027221679688,0.0,0
1.7302138805389404,0.028362980112433434,0.006946127861738205,-0.4471031725406647,0.018046328042853423,0.6995855027230324,0.002672117588251685,0.007471255100216368,-5.1473734577794724e-05,0.0,0.0,-0.6,0.0,0.0018074512481689453,0.0018074512481689453,0.0021638870239257812,0.0,0
1.7400791645050049,0.028362980112433434,0.006946127861738205,-0.4471031725406647,0.018046328042853423,0.6996361159298056,0.0018840062761080276,0.006003960157965627,-4.081463847295042e-05,0.0,0.0,-0.6,0.0,0.0018970966339111328,0.0018970966339111328,0.0023865699768066406,0.0,0
1.7497727870941162,0.028689173981547356,0.006947008427232504,-0.4482112228870392,0.018044737106962666,0.6996921691429411,0.0009131195155279367,0.006955074479853922,-4.440167638913487e-05,0.0,0.0,-0.6,0.0,0.0018410682678222656,0.0018410682678222656,0.0022542476654052734,0.0,0
1.7599995136260986,0.029331708326935768,0.006941789761185646,-0.45038095116615295,0.018022079102443415,0.6997541723452408,0.005978334424844457,0.008378712895114238,-6.795863849027109e-05,0.0,0.0,-0.6,0.0,0.0032262802124023438,0.0032262802124023438,0.003924131393432617,0.0,0
1.7701137065887451,0.029646018519997597,0.0069333286955952644,-0.4514428973197937,0.01801492243303279,0.699813521304961,0.005895185883893168,0.008193151556590611,-6.757557071370152e-05,0.0,0.0,-0.6,0.0,0.002706289291381836,0.002706289291381836,0.0034461021423339844,0.0,0
1.7799346446990967,0.029958350583910942,0.0069228303618729115,-0.4524894058704376,0.01801189106521481,0.6998680727440809,0.0038243420988792747,0.00746457741379767,-5.7836996071649315e-05,0.0,0.0,-0.6,0.0,0.0023500919342041016,0.0023500919342041016,0.0028221607208251953,0.0,0
1.7900099754333496,0.030568914487957954,0.006898033432662487,-0.4545357823371887,0.018029215125840506,0.6999405764735275,0.0045586742254936615,0.008197933384635099,-6.553453327011173e-05,0.0,0.0,-0.6,0.0,0.0024695396423339844,0.0024695396423339844,0.003057718276977539,0.0,0
1.8001060485839844,0.03086833283305168,0.006883047986775637,-0.45553672313690186,0.018034072071894516,0.7000019616844961,0.004346216191845361,0.008081807433757873,-6.495036748055406e-05,0.0,0.0,-0.6,0.0,0.002973318099975586,0.002973318099975586,0.0036618709564208984,0.0,0
1.8100676536560059,0.03145626187324524,0.006849328521639109,-0.45755499601364136,0.018027808057506582,0.7000861301520638,0.0039546270291736536,0.009426334558141685,-7.308768005919e-05,0.0,0.0,-0.6,0.0,0.0018961429595947266,0.0018961429595947266,0.0022606849670410156,0.0,0
1.820099115371704,0.03145626187324524,0.006849328521639109,-0.45755499601364136,0.018027808057506582,0.7001451001375437,0.0027850659733128923,0.007574780141342883,-5.7648774789039825e-05,0.0,0.0,-0.6,0.0,0.0020704269409179688,0.0020704269409179688,0.002592802047729492,0.0,0
1.8298254013061523,0.031745005398988724,0.006830553989857435,-0.4585387110710144,0.01803781634482734,0.700203860179871,0.0027430902543992357,0.007095712900581379,-5.475233948638993e-05,0.0,0.0,-0.6,0.0,0.002066373825073242,0.002066373825073242,0.0025434494018554688,0.0,0
1.8400163650512695,0.03230884298682213,0.006789718754589558,-0.4604588449001312,0.01805457782991473,0.7002750875343787,0.003734548657587804,0.006944669086414173,-5.7603270492253423e-05,0.0,0.0,-0.6,0.0,0.002005338668823242,0.002005338668823242,0.002450704574584961,0.0,0
1.849999189376831,0.03258371353149414,0.006766032427549362,-0.4613969624042511,0.018066472621381145,0.7003384268089392,0.004417333923866859,0.005946454227445621,-5.411882898802539e-05,0.0,0.0,-0.6,0.0,0.0018115043640136719,0.0018115043640136719,0.00234222412109375,0.0,0
1.8598978519439697,0.03285340219736099,0.006739713251590729,-0.4623204171657562,0.018062138632402854,0.7003982422055206,0.005336657741562731,0.004689150187457911,-4.9650572914946e-05,0.0,0.0,-0.6,0.0,0.0018308162689208984,0.0018308162689208984,0.002191781997680664,0.0,0
1.8701727390289307,0.03337971493601799,0.00668291887268424,-0.4641481637954712,0.01802987465556368,0.7004751014046343,0.0042120606324168655,0.005195589634245104,-4.902326135877012e-05,0.0,0.0,-0.6,0.0,0.005139589309692383,0.005139589309692383,0.0059757232666015625,0.0,0
1.880439043045044,0.03363601863384247,0.006653231102973223,-0.4650381803512573,0.018043446165957915,0.7005514382155792,0.004305205466702803,0.004052858767430657,-4.215322654842124e-05,0.0,0.0,-0.6,0.0,0.0023956298828125,0.0023956298828125,0.0030422210693359375,0.0,0
1.8898835182189941,0.033888284116983414,0.006621981039643288,-0.46591246128082275,0.01805385548643256,0.7006218350311916,0.0031675802481529376,0.004502671545139703,-4.0842104769371035e-05,0.0,0.0,-0.6,0.0,0.0031461715698242188,0.0031461715698242188,0.0037539005279541016,0.0,0
1.9002304077148438,0.03413689509034157,0.00659154262393713,-0.46677225828170776,0.018066225878034217,0.7006855422696815,0.0011742354881894752,0.0036698650544641684,-2.789519561256073e-05,0.0,0.0,-0.6,0.0,0.0029506683349609375,0.0029506683349609375,0.0036542415618896484,0.0,0
1.9098896980285645,0.03458394110202789,0.006378526333719492,-0.46862173080444336,0.01806570238065044,0.7007578170099577,0.0060416649757734095,0.0028042875694107307,-4.155725906890362e-05,0.0,0.0,-0.6,0.0,0.0019817352294921875,0.0019817352294921875,0.0025093555450439453,0.0,0
1.9199976921081543,0.034783944487571716,0.006197100505232811,-0.46960821747779846,0.01807809273781142,0.7008115994130685,0.007956579465624593,0.0018927268515465826,-4.3540605062231824e-05,0.0,0.0,-0.6,0.0,0.0021593570709228516,0.0021593570709228516,0.002608776092529297,0.0,0
1.930009126663208,0.0349801629781723,0.006016968749463558,-0.47059762477874756,0.018080785497737045,0.7008563862957496,0.007727299036406494,0.0013268998129268253,-3.9551658817057286e-05,0.0,0.0,-0.6,0.0,0.0029757022857666016,0.0029757022857666016,0.0036232471466064453,0.0,0
1.9400219917297363,0.03517213836312294,0.005839139223098755,-0.4715692400932312,0.018078057577666364,0.7008944664091905,0.007843710348321353,0.00018745574693871617,-3.319471168197352e-05,0.0,0.0,-0.6,0.0,0.002700328826904297,0.002700328826904297,0.003262042999267578,0.0,0
1.950019121170044,0.03554464876651764,0.005488316994160414,-0.47345998883247375,0.018049299628913374,0.7009380277025187,0.01054691888948464,-6.864227822385468e-05,-4.3680537567956304e-05,0.0,0.0,-0.6,0.0,0.0022804737091064453,0.0022804737091064453,0.0028562545776367188,0.0,0
1.96006441116333,0.03572541102766991,0.005314763635396957,-0.4743805527687073,0.018050988370637417,0.7009708325219385,0.010391268453440452,-0.0008670992300076954,-3.810285602935032e-05,0.0,0.0,-0.6,0.0,0.0022089481353759766,0.0022089481353759766,0.002778768539428711,0.0,0
1.9699046611785889,0.035901859402656555,0.005143286194652319,-0.47528547048568726,0.018048348181942387,0.700999461351192,0.007884544860636932,-0.001193509682124746,-2.5631566818937702e-05,0.0,0.0,-0.6,0.0,0.0018792152404785156,0.0018792152404785156,0.0023581981658935547,0.0,0
1.980100154876709,0.036074571311473846,0.004975000862032175,-0.47617489099502563,0.0180458183231836,0.7010241196497844,0.0066490921543115155,-0.0013804884968708316,-1.9211250223721368e-05,0.0,0.0,-0.6,0.0,0.0020198822021484375,0.0020198822021484375,0.00250244140625,0.0,0
1.9898180961608887,0.03640877455472946,0.0046474444679915905,-0.4779062569141388,0.018023689821331516,0.7010547427954287,0.00588245592199991,-0.0031478296822586593,-4.233756676097601e-06,0.0,0.0,-0.6,0.0,0.0019059181213378906,0.0019059181213378906,0.0023648738861083984,0.0,0
2.0,0.03656882047653198,0.004488310310989618,-0.4787502884864807,0.01801516575857102,0.7010796740487637,0.004819857957335756,-0.0036473778979365726,3.6872171956108554e-06,0.0,0.0,-0.6,0.0,0.0019385814666748047,0.0019385814666748047,0.002407073974609375,0.0,0
2.0099353790283203,0.036725420504808426,0.00433071656152606,-0.47957924008369446,0.01801193828268232,0.7011072491455792,0.006075044971410387,-0.003010628801422786,-6.138563012746703e-06,0.0,0.0,-0.6,0.0,0.0019483566284179688,0.0019483566284179688,0.0024776458740234375,0.0,0
2.0198614597320557,0.03687887266278267,0.004174679052084684,-0.48039302229881287,0.01801299174209366,0.7011346913148341,0.0054658473436847215,-0.0025129976215541197,-6.884274478006465e-06,0.0,0.0,-0.6,0.0,0.0020046234130859375,0.0020046234130859375,0.0024776458740234375,0.0,0
2.030263662338257,0.03717665374279022,0.003867356339469552,-0.4819786548614502,0.018004459112358377,0.7011642305805119,0.007673613530860603,-0.0029167429267376766,-1.4068937606454722e-05,0.0,0.0,-0.6,0.0,0.0021581649780273438,0.0021581649780273438,0.0025472640991210938,0.0,0
2.040245532989502,0.03717665374279022,0.003867356339469552,-0.4819786548614502,0.018004459112358377,0.7011848937097573,0.005366163262187636,-0.002308630805523035,-7.904973579113694e-06,0.0,0.0,-0.6,0.0,0.0030057430267333984,0.0030057430267333984,0.003744363784790039,0.0,0
2.0500659942626953,0.037458233535289764,0.0035651104990392923,-0.4835072159767151,0.017984657646886844,0.7012218540195401,0.007943309959491359,-0.004210400490328227,-6.1030272490760414e-06,0.0,0.0,-0.6,0.0,0.004663944244384766,0.004663944244384766,0.005461931228637695,0.0,0
2.059964895248413,0.03759373351931572,0.0034150653518736362,-0.484249085187912,0.017998815206139936,0.7012636911725519,0.007932107227308511,-0.003105731730001254,-1.3203463663309252e-05,0.0,0.0,-0.6,0.0,0.003426790237426758,0.003426790237426758,0.004128217697143555,0.0,0
2.0699992179870605,0.03785840794444084,0.0031170458532869816,-0.4856851100921631,0.017954289320840436,0.7013282982694702,0.01070551207820469,-0.004106922677927764,-1.8005030441230914e-05,0.0,0.0,-0.6,0.0,0.0032837390899658203,0.0032837390899658203,0.004035234451293945,0.0,0
2.079984664916992,0.03798522800207138,0.0029685189947485924,-0.48638051748275757,0.01795115725146199,0.7013877918191136,0.009541645702873755,-0.003774610766264396,-1.4883858098999473e-05,0.0,0.0,-0.6,0.0,0.0022749900817871094,0.0022749900817871094,0.002723217010498047,0.0,0
2.0900039672851562,0.03810901567339897,0.0028209968004375696,-0.4870617091655731,0.017941639609963794,0.7014427048458346,0.008601582755724667,-0.0038805946121415963,-9.914621532760094e-06,0.0,0.0,-0.6,0.0,0.002237081527709961,0.002237081527709961,0.002831697463989258,0.0,0
2.0999114513397217,0.0382283516228199,0.0026741819456219673,-0.48772895336151123,0.01792683529436896,0.7014944085695128,0.008045039130409515,-0.004353905475321887,-4.066902959316378e-06,0.0,0.0,-0.6,0.0,0.002084970474243164,0.002084970474243164,0.0024976730346679688,0.0,0
2.110029935836792,0.03845721483230591,0.0023844342213124037,-0.4890243113040924,0.017896525870618993,0.7015495792463975,0.008674540963596138,-0.005169860655571113,-6.273320981246194e-07,0.0,0.0,-0.6,0.0,0.0019228458404541016,0.0019228458404541016,0.0024518966674804688,0.0,0
2.120037317276001,0.038565654307603836,0.002241239883005619,-0.4896540343761444,0.017904388841144262,0.7015969793028044,0.0076275690031699485,-0.0053420732201945945,5.21604609865956e-06,0.0,0.0,-0.6,0.0,0.001990079879760742,0.001990079879760742,0.0024878978729248047,0.0,0
2.1298367977142334,0.03867093846201897,0.0020995058584958315,-0.49027034640312195,0.017895342752739633,0.701648161990857,0.006948673704935284,-0.004392166774853856,1.8190798368286917e-06,0.0,0.0,-0.6,0.0,0.001986980438232422,0.001986980438232422,0.0024073123931884766,0.0,0
2.1400952339172363,0.03877333179116249,0.0019591492600739002,-0.4908738434314728,0.017896990396474622,0.7016934214506676,0.006070331485341167,-0.004759729100868784,8.058132684942392e-06,0.0,0.0,-0.6,0.0,0.0021452903747558594,0.0021452903747558594,0.0026857852935791016,0.0,0
2.149850368499756,0.03896920382976532,0.0016821811441332102,-0.49204298853874207,0.017930274379636697,0.7017498438923666,0.007581060590682573,-0.003490689358286304,-6.586507183526864e-06,0.0,0.0,-0.6,0.0,0.0024514198303222656,0.0024514198303222656,0.002979278564453125,0.0,0
