time,x,y,z,yaw,throttle,roll_rate,pitch_rate,yaw_rate,x_ref,y_ref,z_ref,yaw_ref,mpc_time,ctrl_callback_time_history,metadata
7.152557373046875e-07,0.01781870611011982,0.017500203102827072,0.0844101756811142,0.015605884633682949,-0.9601152071861259,-0.07631897877524273,0.03251546898154229,-0.09977125516345356,0.0,0.0,-0.6,0.0,0.010318517684936523,0.011149883270263672,Sim
0.011249303817749023,0.01781870611011982,0.017500203102827072,0.0844101756811142,0.015605884633682949,-0.9601152071861259,-0.07631897877524273,0.03251546898154229,-0.09977125516345356,0.0,0.0,-0.6,0.0,0.00013494491577148438,0.0005211830139160156,1x Speed
0.01996469497680664,0.017490649595856667,0.017194369807839394,0.0839361920952797,0.01562820019609383,-0.9599235972937886,-0.07173240144745822,0.029106564874156957,-0.09991444741347841,0.0,0.0,-0.6,0.0,0.0007140636444091797,0.0013420581817626953,Horizon:3.0
0.02991175651550293,0.017380263656377792,0.017092915251851082,0.08381179720163345,0.015622754814864715,-0.9598663423995901,-0.07069843420626724,0.028077046459691144,-0.09987966263429991,0.0,0.0,-0.6,0.0,0.0011246204376220703,0.0020101070404052734,Num Steps:20
0.04006052017211914,0.017158862203359604,0.01689709722995758,0.08357615768909454,0.01560127533109498,-0.9597769222131354,-0.06961915493694804,0.025693333568452024,-0.09974189198458148,0.0,0.0,-0.6,0.0,0.0010445117950439453,0.0018525123596191406,No Pyjoules
0.0501708984375,0.01704772375524044,0.01680089719593525,0.0834653228521347,0.015609731012561932,-0.9597479323596622,-0.06846659754148327,0.024794407183853766,-0.09979599429258905,0.0,0.0,-0.6,0.0,0.0011138916015625,0.002130270004272461,0
0.059987783432006836,0.01693703606724739,0.016705568879842758,0.08336974680423737,0.015619311216217624,-0.9595639721995526,-0.06741984744587957,0.02389612349107957,-0.09985731000486557,0.0,0.0,-0.6,0.0,0.0010924339294433594,0.0018863677978515625,0
0.07035636901855469,0.01682700775563717,0.01661059632897377,0.08323846757411957,0.015591642660211956,-0.9570611533931087,-0.06535855123208796,0.023707429100895648,-0.09968124806957576,0.0,0.0,-0.6,0.0,0.001031637191772461,0.0018596649169921875,0
0.07991766929626465,0.016603730618953705,0.01641717739403248,0.08233175426721573,0.015388702607625097,-0.9433378190518208,-0.05787627261817042,0.02025798279736605,-0.09838663970392413,0.0,0.0,-0.6,0.0,0.0009059906005859375,0.0017077922821044922,0
0.08978652954101562,0.016487976536154747,0.01631595380604267,0.08137107640504837,0.015219888906809793,-0.9342126919011486,-0.05026449185571608,0.019073943796391924,-0.09731055223742639,0.0,0.0,-0.6,0.0,0.0007231235504150391,0.0013620853424072266,0
0.10003018379211426,0.016370275989174843,0.016209714114665985,0.08000217378139496,0.014988296203936055,-0.9243181845875258,-0.04270769732239436,0.017826591713826816,-0.09583327491336559,0.0,0.0,-0.6,0.0,0.0008497238159179688,0.001527547836303711,0
0.1099250316619873,0.01625000312924385,0.016100401058793068,0.07822169363498688,0.014707603250801164,-0.9139930928904503,-0.03413371448870735,0.016180367804861304,-0.0940422069384197,0.0,0.0,-0.6,0.0,0.0008573532104492188,0.0016071796417236328,0
0.11981868743896484,0.01599738374352455,0.015869246795773506,0.07340425997972488,0.013984013651377773,-0.8925371812433779,-0.015963825112157853,0.010218042226481826,-0.08942139503042118,0.0,0.0,-0.6,0.0,0.0008096694946289062,0.0014019012451171875,0
0.13007664680480957,0.015865202993154526,0.015746591612696648,0.07037846744060516,0.013566803086772732,-0.8817669262877079,-0.006620874872420394,0.008236477641868115,-0.0867567917748014,0.0,0.0,-0.6,0.0,0.0008652210235595703,0.0016360282897949219,0
0.13990235328674316,0.01573038473725319,0.01561878714710474,0.06695416569709778,0.013093077126087184,-0.870963874265186,0.0028919037274631573,0.006329030367060684,-0.08373068559214537,0.0,0.0,-0.6,0.0,0.0009453296661376953,0.0015897750854492188,0
0.15011382102966309,0.0155954509973526,0.01548401452600956,0.06314260512590408,0.012584236411680084,-0.8602228623014995,0.01221129817225839,0.004191312387540217,-0.08047963580018996,0.0,0.0,-0.6,0.0,0.0011415481567382812,0.002116680145263672,0
0.1599264144897461,0.015460389666259289,0.015342053957283497,0.0589570626616478,0.012035775764028587,-0.8495583230642914,0.02184890829075914,0.002213436031627322,-0.07697511543032397,0.0,0.0,-0.6,0.0,0.0008726119995117188,0.001659393310546875,0
0.16993331909179688,0.01518136728554964,0.015033978037536144,0.049531713128089905,0.010841945822371265,-0.8289561232034128,0.04061004639229978,-0.001792896212022275,-0.06934543768431754,0.0,0.0,-0.6,0.0,0.001125335693359375,0.001992464065551758,0
0.18006205558776855,0.01503836177289486,0.014869943261146545,0.04433269426226616,0.010208879472717371,-0.8190739198295849,0.0488811259863535,-0.003908979129692494,-0.06529874481718276,0.0,0.0,-0.6,0.0,0.0008630752563476562,0.0017590522766113281,0
0.18992996215820312,0.014893405139446259,0.01469982136040926,0.03883594274520874,0.00955887671806618,-0.809443067464615,0.05656328606763186,-0.005064755625702161,-0.06114396529968675,0.0,0.0,-0.6,0.0,0.0011699199676513672,0.0023746490478515625,0
0.2000274658203125,0.014747665263712406,0.01452313270419836,0.03305862471461296,0.008904575472914409,-0.8000440257230688,0.06420371528604898,-0.006169376518149209,-0.0569615490510912,0.0,0.0,-0.6,0.0,0.0012094974517822266,0.0022323131561279297,0
0.21020770072937012,0.014447982423007488,0.014148913323879242,0.020735815167427063,0.007566117521211298,-0.782097321181602,0.0779066106002858,-0.010435038018777296,-0.04840335850817847,0.0,0.0,-0.6,0.0,0.00128936767578125,0.002389669418334961,0
0.21993374824523926,0.014294582419097424,0.013953102752566338,0.014219358563423157,0.006907045811375568,-0.773592017251088,0.08284681975490282,-0.01107160762825444,-0.04418949363994822,0.0,0.0,-0.6,0.0,0.0009665489196777344,0.0017154216766357422,0
0.23001980781555176,0.014140374958515167,0.013752557337284088,0.007497281767427921,0.006265447794962853,-0.765486196690364,0.0871421130495694,-0.011939227377035807,-0.040086856198733437,0.0,0.0,-0.6,0.0,0.0011031627655029297,0.002187967300415039,0
0.24017000198364258,0.013827507384121418,0.013335448689758778,-0.006492192856967449,0.004931406327166745,-0.7501888944940704,0.09402982030199411,-0.013881059988231892,-0.03155556799626497,0.0,0.0,-0.6,0.0,0.002222776412963867,0.0036818981170654297,0
0.25028491020202637,0.01366964541375637,0.013119888491928577,-0.013727836310863495,0.004290921183788132,-0.742950537962278,0.09690656973486869,-0.014735975536530667,-0.027459490159194768,0.0,0.0,-0.6,0.0,0.0019338130950927734,0.003273487091064453,0
0.26025843620300293,0.013510750606656075,0.012899458408355713,-0.021102551370859146,0.0036519863429893087,-0.736125991068888,0.09855237570469694,-0.015256904061071068,-0.02337307222313579,0.0,0.0,-0.6,0.0,0.0013208389282226562,0.0024442672729492188,0
0.27010560035705566,0.01335082110017538,0.012676168233156204,-0.02859789878129959,0.003028506889191465,-0.7296805381923661,0.09827075312059828,-0.015593580289892026,-0.019385012332776425,0.0,0.0,-0.6,0.0,0.0013091564178466797,0.0022864341735839844,0
0.27995753288269043,0.013024965301156044,0.012224771082401276,-0.043923962861299515,0.0018065511491897528,-0.7176414683314806,0.09594427821773346,-0.017139242241153884,-0.011568124578871741,0.0,0.0,-0.6,0.0,0.0010662078857421875,0.0018725395202636719,0
0.29012489318847656,0.012863405980169773,0.011996296234428883,-0.05172857269644737,0.0012511661422184173,-0.7120911241567445,0.09410715922406553,-0.016741574953558033,-0.008015604391887957,0.0,0.0,-0.6,0.0,0.0010771751403808594,0.0019693374633789062,0
0.29996657371520996,0.01270260475575924,0.011765694245696068,-0.05959611386060715,0.0007134349078511834,-0.7068998514126776,0.0917524352402398,-0.015270945145192944,-0.004576392134940462,0.0,0.0,-0.6,0.0,0.0010886192321777344,0.00189208984375,0
0.31011056900024414,0.012543068267405033,0.011534270830452442,-0.0675126165151596,0.00017540394363104779,-0.7020615605322319,0.08764450594580173,-0.014292591721745178,-0.001134833221379874,0.0,0.0,-0.6,0.0,0.0009417533874511719,0.0017981529235839844,0
0.3201003074645996,0.012221930548548698,0.011068223975598812,-0.08344164490699768,-0.0007988847288761734,-0.6933413585301604,0.08060207483766678,-0.014542640424786094,0.0050984683095677075,0.0,0.0,-0.6,0.0,0.0010981559753417969,0.0019958019256591797,0
0.33002424240112305,0.012059981003403664,0.010833214968442917,-0.09142956882715225,-0.0012632919055903934,-0.6894339656774563,0.07564349972308274,-0.01404900492860684,0.008069526492793494,0.0,0.0,-0.6,0.0,0.001013040542602539,0.00182342529296875,0
0.3400394916534424,0.011897040531039238,0.010598046705126762,-0.0994383841753006,-0.0016915792720022908,-0.685780960529511,0.07034225856509736,-0.014101473192315701,0.010809726758454073,0.0,0.0,-0.6,0.0,0.0010085105895996094,0.001852273941040039,0
0.35005855560302734,0.01173414383083582,0.01036327239125967,-0.1074388325214386,-0.0020954669023211343,-0.6824172752091181,0.06399723292904431,-0.012746184445392742,0.013393532146027749,0.0,0.0,-0.6,0.0,0.0010514259338378906,0.0019350051879882812,0
0.3600809574127197,0.0116506926715374,0.009942962788045406,-0.12057393044233322,-0.002819793986404508,-0.6778188600688754,0.049364916887586444,-0.007922065181165977,0.018027161358106513,0.0,0.0,-0.6,0.0,0.0010704994201660156,0.0018877983093261719,0
0.3702554702758789,0.0116075798869133,0.009734269231557846,-0.12714576721191406,-0.0031374929319908326,-0.6758570943959414,0.04317668471557012,-0.0054429478642846335,0.020059709958361358,0.0,0.0,-0.6,0.0,0.0011072158813476562,0.002016305923461914,0
0.3799855709075928,0.011562836356461048,0.009526560083031654,-0.13370995223522186,-0.003421254920074128,-0.6740525357616306,0.0358479205893733,-0.002805226808391718,0.02187534909506757,0.0,0.0,-0.6,0.0,0.0010154247283935547,0.0017294883728027344,0
0.3899228572845459,0.011517883278429508,0.009321717545390129,-0.1402592808008194,-0.0036945287573702202,-0.6724816898994325,0.0277220340840248,0.0003786964781370126,0.023623978658257147,0.0,0.0,-0.6,0.0,0.0007054805755615234,0.0013549327850341797,0
0.3999602794647217,0.011425570584833622,0.008923600427806377,-0.15329580008983612,-0.004142366609491032,-0.6699318927216275,0.011197304524121992,0.005608561247155404,0.026490188443663753,0.0,0.0,-0.6,0.0,0.0008707046508789062,0.0015921592712402344,0
0.4098966121673584,0.011379686184227467,0.00873035378754139,-0.15976950526237488,-0.0043233139173297274,-0.6688578228091135,0.003691008857300357,0.008964874704257055,0.02764867476583497,0.0,0.0,-0.6,0.0,0.0009045600891113281,0.001619100570678711,0
0.4200770854949951,0.011333934031426907,0.008540697395801544,-0.166204571723938,-0.004503299783717356,-0.6678498804522581,-0.0036184879798325078,0.011893027715546588,0.028800949962908703,0.0,0.0,-0.6,0.0,0.0008990764617919922,0.0016932487487792969,0
0.4299497604370117,0.011287291534245014,0.0083552161231637,-0.17259740829467773,-0.004654629328364638,-0.6669882651153591,-0.011400724213675446,0.013655331263138918,0.029769685028828076,0.0,0.0,-0.6,0.0,0.0009577274322509766,0.001678466796875,0
0.44009947776794434,0.011195621453225613,0.007999413646757603,-0.18523992598056793,-0.004910277351794383,-0.6655940717085744,-0.02709907611461859,0.018155180859561693,0.03140660474909818,0.0,0.0,-0.6,0.0,0.0011630058288574219,0.0021219253540039062,0
0.4503214359283447,0.011148479767143726,0.007830427959561348,-0.19148209691047668,-0.004969889551310053,-0.6650653968857585,-0.033729838942639194,0.020077334361953074,0.03178876004519643,0.0,0.0,-0.6,0.0,0.0014314651489257812,0.002552509307861328,0
0.45982933044433594,0.011101569049060345,0.007665546145290136,-0.19770920276641846,-0.005041165678775185,-0.6646299999971371,-0.039344009092940675,0.02301713008493216,0.032245950542893996,0.0,0.0,-0.6,0.0,0.0008347034454345703,0.0014967918395996094,0
0.4703972339630127,0.011055820621550083,0.007505792658776045,-0.2038753479719162,-0.005079311874559811,-0.664238358599803,-0.04593698552177318,0.02512671518001026,0.03249091034177143,0.0,0.0,-0.6,0.0,0.0012879371643066406,0.0022852420806884766,0
0.4801616668701172,0.010959930717945099,0.007204769179224968,-0.21602000296115875,-0.005106423642615262,-0.6636449542761234,-0.05796593480273021,0.025734034486197436,0.03266460901669905,0.0,0.0,-0.6,0.0,0.0012886524200439453,0.002308368682861328,0
0.489971399307251,0.010910852812230587,0.007064077537506819,-0.22199532389640808,-0.005099488542722566,-0.6634243163599076,-0.06282543129879255,0.027385074917335973,0.032621009886558354,0.0,0.0,-0.6,0.0,0.0008397102355957031,0.0015170574188232422,0
0.5001590251922607,0.010862668044865131,0.006929044146090746,-0.22790367901325226,-0.005081763044207431,-0.663286163363654,-0.06680898029469584,0.028573719944126524,0.03250823925076599,0.0,0.0,-0.6,0.0,0.0009975433349609375,0.001979351043701172,0
0.5100667476654053,0.010814071632921696,0.006798701360821724,-0.23374348878860474,-0.005043677170375477,-0.6632185622908507,-0.07018663232010824,0.028482941456951082,0.032264646859918644,0.0,0.0,-0.6,0.0,0.0010676383972167969,0.0019965171813964844,0
0.520092248916626,0.010764803737401962,0.006674765609204769,-0.2395128309726715,-0.004994930426707193,-0.663218426491546,-0.0740855503854296,0.029170101400632958,0.03195308722992379,0.0,0.0,-0.6,0.0,0.0011339187622070312,0.0020673274993896484,0
0.5301105976104736,0.01066745538264513,0.006448026746511459,-0.2509116530418396,-0.004828002281012637,-0.6632882265820392,-0.08025399476264225,0.02992291851085906,0.030885526433312504,0.0,0.0,-0.6,0.0,0.0012333393096923828,0.0021996498107910156,0
0.5400335788726807,0.010618663392961025,0.006344446912407875,-0.25650182366371155,-0.004707500744965044,-0.6633741817068236,-0.0819003281148311,0.029885175266120903,0.030114858710290373,0.0,0.0,-0.6,0.0,0.0008664131164550781,0.0016987323760986328,0
0.5501754283905029,0.010570846498012543,0.006246631033718586,-0.2620178163051605,-0.004588815635202043,-0.6635581999869476,-0.08324625969356765,0.030983980958218974,0.029356399443773554,0.0,0.0,-0.6,0.0,0.0011310577392578125,0.002040863037109375,0
0.5601434707641602,0.010477995499968529,0.006069660186767578,-0.2728247046470642,-0.004285068028597582,-0.6639174225386607,-0.08412448068442017,0.02979498458982719,0.027413270219087675,0.0,0.0,-0.6,0.0,0.0010790824890136719,0.0019450187683105469,0
0.5702416896820068,0.010431412607431412,0.005990161094814539,-0.2781178057193756,-0.004128952898646448,-0.6641335390356403,-0.08402469905948147,0.029384376191679315,0.026414507178661013,0.0,0.0,-0.6,0.0,0.001102447509765625,0.0020089149475097656,0
0.5800659656524658,0.010386504232883453,0.005916064605116844,-0.2833678424358368,-0.003968560202626826,-0.6643786098637858,-0.0833542218310408,0.029277542738720446,0.02538848357545126,0.0,0.0,-0.6,0.0,0.0010440349578857422,0.001958608627319336,0
0.590111494064331,0.010342507623136044,0.0058468920178711414,-0.28854361176490784,-0.0038037958893906722,-0.6645884028911556,-0.08127696720194279,0.029382486578264914,0.024334535640440344,0.0,0.0,-0.6,0.0,0.0008962154388427734,0.0018200874328613281,0
0.599987268447876,0.010257935151457787,0.005728157237172127,-0.2986753582954407,-0.0034304508333673047,-0.6651029836668366,-0.0798795411451589,0.0283419736938563,0.021945871415363,0.0,0.0,-0.6,0.0,0.000873565673828125,0.0015804767608642578,0
0.6100740432739258,0.01021563820540905,0.00567775871604681,-0.30362963676452637,-0.0032464480488859832,-0.6654474335452637,-0.0767442372778368,0.026845724413472303,0.020768382947431687,0.0,0.0,-0.6,0.0,0.0009653568267822266,0.0019176006317138672,0
0.6199729442596436,0.010173066519200802,0.005631451960653067,-0.30850887298583984,-0.003069886189439818,-0.665810480432883,-0.07380401476709438,0.025002172777323906,0.01963852935559129,0.0,0.0,-0.6,0.0,0.0011146068572998047,0.0021746158599853516,0
0.6302902698516846,0.010128750465810299,0.005589477717876434,-0.31331366300582886,-0.0028860149462099495,-0.6661685643538561,-0.07039537324612255,0.02246965666791249,0.01846171100548862,0.0,0.0,-0.6,0.0,0.0007696151733398438,0.0018248558044433594,0
0.6403286457061768,0.01008396502584219,0.005550701636821032,-0.31804466247558594,-0.0027064586160163236,-0.6665537464940943,-0.06577533269191976,0.021697539108395326,0.017312854902300393,0.0,0.0,-0.6,0.0,0.0014481544494628906,0.0029184818267822266,0
0.6501860618591309,0.009999352507293224,0.005483889952301979,-0.3273329734802246,-0.0023518211310158206,-0.6673710110981246,-0.057999817765185424,0.019036617374177014,0.01504368952057256,0.0,0.0,-0.6,0.0,0.001628875732421875,0.002809762954711914,0
0.6601226329803467,0.009958467446267605,0.005455476697534323,-0.33186477422714233,-0.002170237862688987,-0.6678348549712889,-0.053634812983445364,0.016976649866847167,0.013881755828890724,0.0,0.0,-0.6,0.0,0.0009903907775878906,0.0019838809967041016,0
0.6700615882873535,0.009916888549923897,0.005429690703749657,-0.3363233804702759,-0.0019717378517545114,-0.6682494826052793,-0.04827216363095862,0.015026120985461825,0.012611622018957463,0.0,0.0,-0.6,0.0,0.00101470947265625,0.0019588470458984375,0
0.6800732612609863,0.009875213727355003,0.005406525917351246,-0.34071022272109985,-0.0017711871948316736,-0.6686735333586834,-0.04414114978600556,0.013475311542501197,0.01132839843832126,0.0,0.0,-0.6,0.0,0.0009319782257080078,0.0018074512481689453,0
0.6902406215667725,0.009789974428713322,0.005369469523429871,-0.349272757768631,-0.0014097423191347148,-0.6695019414509208,-0.03399980585242978,0.009691633847220734,0.009015421906903626,0.0,0.0,-0.6,0.0,0.0012366771697998047,0.002260923385620117,0
0.7000370025634766,0.009747229516506195,0.005354318767786026,-0.3534703850746155,-0.0012116097354568688,-0.6699667707509962,-0.028859509432775782,0.008436374793675181,0.007747647285667801,0.0,0.0,-0.6,0.0,0.001050710678100586,0.0019745826721191406,0
0.7103695869445801,0.009704704396426678,0.0053411079570651054,-0.35759738087654114,-0.0010166822820171174,-0.6704172727035163,-0.023703465521233924,0.006605940053691085,0.006500365767411165,0.0,0.0,-0.6,0.0,0.001401662826538086,0.0027565956115722656,0
0.7202353477478027,0.009616437368094921,0.005316311027854681,-0.3656449615955353,-0.0006727022368247436,-0.6713162332045247,-0.01079182796837667,0.0022486150188058534,0.004299123407425082,0.0,0.0,-0.6,0.0,0.0011000633239746094,0.002141237258911133,0
0.7300584316253662,0.00956996064633131,0.0053027025423944,-0.3695666193962097,-0.0005019597940366413,-0.6717748022776053,-0.005233469884013539,-2.6324132631137048e-05,0.0032067259968620583,0.0,0.0,-0.6,0.0,0.0009813308715820312,0.0018801689147949219,0
0.7401235103607178,0.009521329775452614,0.005289298016577959,-0.37342098355293274,-0.00034292123575611406,-0.6722497585856354,-6.6604014479745746e-06,-0.0029401830778163483,0.0021894943172991463,0.0,0.0,-0.6,0.0,0.0006999969482421875,0.00156402587890625,0
0.7499258518218994,0.009470725432038307,0.005275865085422993,-0.3772086501121521,-0.00016669394389598103,-0.6727281996245474,0.005015615653414031,-0.004710068326012552,0.0010620954408080898,0.0,0.0,-0.6,0.0,0.0009350776672363281,0.0019261837005615234,0
0.760033130645752,0.009526842273771763,0.0051069664768874645,-0.3816428482532501,-9.647765308551863e-06,-0.6728560344070132,0.011466174085590922,-0.006406167351426233,5.696707062263363e-05,0.0,0.0,-0.6,0.0,0.0008332729339599609,0.0016295909881591797,0
0.7701711654663086,0.009626099839806557,0.004776614252477884,-0.3902641534805298,0.0003102879390427082,-0.673112882373383,0.02481031532878444,-0.007859558904470371,-0.0019914986138317168,0.0,0.0,-0.6,0.0,0.0009002685546875,0.0018253326416015625,0
0.7801096439361572,0.009670441038906574,0.004614927340298891,-0.3944567143917084,0.0004760131277730493,-0.6731728723179952,0.030175479532361764,-0.008148309410455029,-0.0030524540121169372,0.0,0.0,-0.6,0.0,0.00103759765625,0.0019812583923339844,0
0.7901935577392578,0.009710106998682022,0.004455801099538803,-0.39857217669487,0.0006216610091511004,-0.6733218588043964,0.03591543899367455,-0.009579220133903915,-0.003984550412416952,0.0,0.0,-0.6,0.0,0.0011878013610839844,0.0022017955780029297,0
0.8001232147216797,0.009780177846550941,0.0041403756476938725,-0.40657517313957214,0.0008524557891214239,-0.6735704845393714,0.04604459976463557,-0.00937723625947169,-0.005462978309833705,0.0,0.0,-0.6,0.0,0.0010213851928710938,0.0019910335540771484,0
0.8099267482757568,0.00981112290173769,0.0039850883185863495,-0.4104657769203186,0.0009430018040858103,-0.6737065224610366,0.050383530833408324,-0.009595417296112223,-0.0060428891730886555,0.0,0.0,-0.6,0.0,0.0008137226104736328,0.001615285873413086,0
0.8202328681945801,0.009837557561695576,0.0038306755013763905,-0.414309024810791,0.0010391577290873697,-0.6738690169228874,0.054741498844892246,-0.010237890233844723,-0.006658387798667008,0.0,0.0,-0.6,0.0,0.0011179447174072266,0.0023479461669921875,0
0.8302581310272217,0.009860279969871044,0.0036764778196811676,-0.41807836294174194,0.0011407138022034463,-0.6741005081099231,0.059003572662424536,-0.010032487092448925,-0.0073088772717728855,0.0,0.0,-0.6,0.0,0.0014333724975585938,0.002777576446533203,0
0.8402032852172852,0.009897299110889435,0.003370254300534725,-0.4253983199596405,0.0013057777384064577,-0.6745678128301158,0.06507608033112408,-0.009944613850828243,-0.008365605408229903,0.0,0.0,-0.6,0.0,0.0011701583862304688,0.002247333526611328,0
0.8502600193023682,0.009911103174090385,0.0032181506976485252,-0.42894914746284485,0.0013903167478441793,-0.6748859191676077,0.0681988825857034,-0.008870615239751025,-0.008907307893201379,0.0,0.0,-0.6,0.0,0.0010218620300292969,0.002069711685180664,0
0.8601870536804199,0.009923308156430721,0.003066315082833171,-0.432428240776062,0.00147952562923799,-0.6751679806235423,0.07011198717971646,-0.008078155322013494,-0.009478342229755589,0.0,0.0,-0.6,0.0,0.0009262561798095703,0.0017735958099365234,0
0.8703255653381348,0.009933842346072197,0.0029143630526959896,-0.4358377754688263,0.0015285483280176161,-0.6754451129711766,0.07163054593135709,-0.007850077607116018,-0.009791962314738929,0.0,0.0,-0.6,0.0,0.0009181499481201172,0.0019102096557617188,0
0.8800699710845947,0.009948725812137127,0.002613154472783208,-0.44247645139694214,0.001607672084248701,-0.6761352590263313,0.07274904648717488,-0.0051703523064116534,-0.010298793075200097,0.0,0.0,-0.6,0.0,0.0010464191436767578,0.002165555953979492,0
0.8900654315948486,0.009954338893294334,0.0024641077034175396,-0.44570592045783997,0.0016327677190222292,-0.6764766288297471,0.07331364809037696,-0.0032949645041064836,-0.010459797499191414,0.0,0.0,-0.6,0.0,0.0011184215545654297,0.0022139549255371094,0
0.900169849395752,0.009958072565495968,0.002314650686457753,-0.44886770844459534,0.0016633571903666012,-0.676810267861974,0.07424427994249645,-0.0025422574555265653,-0.010655303908503026,0.0,0.0,-0.6,0.0,0.0010662078857421875,0.0021419525146484375,0
0.9100971221923828,0.00995846837759018,0.0021651796996593475,-0.45196297764778137,0.0016877481921309426,-0.6771711367452802,0.07337524993696025,-0.002661346741223358,-0.010810353841651408,0.0,0.0,-0.6,0.0,0.0010149478912353516,0.0020380020141601562,0
0.9201722145080566,0.009944887831807137,0.001872540800832212,-0.45795050263404846,0.001736841093926773,-0.6780506814137626,0.06861219546951323,-0.0030067163669426377,-0.011121824960485829,0.0,0.0,-0.6,0.0,0.001316070556640625,0.0026357173919677734,0
0.9305901527404785,0.009933330118656158,0.0017294699791818857,-0.4608455300331116,0.001747538506597186,-0.6784538156374296,0.06629784453782754,-0.0028629760493072763,-0.011189205489813446,0.0,0.0,-0.6,0.0,0.001445770263671875,0.0029287338256835938,0
0.9400944709777832,0.009917880408465862,0.0015882380539551377,-0.46371927857398987,0.0017336704213583266,-0.6788749585373183,0.06405498377296164,-0.002240657818435283,-0.011099763664913088,0.0,0.0,-0.6,0.0,0.001056671142578125,0.0020227432250976562,0
0.9503276348114014,0.009900584816932678,0.0014476979849860072,-0.46652814745903015,0.001722067157418454,-0.6792890990250008,0.06195051219716611,-0.0015322082382531446,-0.011024875442254814,0.0,0.0,-0.6,0.0,0.0012786388397216797,0.002586841583251953,0
0.9599888324737549,0.009861325845122337,0.001169497612863779,-0.4719562232494354,0.0017075315280830426,-0.6800707653095998,0.055741831020096395,0.0002690580685517891,-0.010930319983345661,0.0,0.0,-0.6,0.0,0.001054525375366211,0.0020494461059570312,0
0.9701881408691406,0.00984018761664629,0.0010339937871322036,-0.4745795428752899,0.0017004214926361698,-0.6804520927833813,0.05081346800338038,0.0005885661787736594,-0.010883645575123441,0.0,0.0,-0.6,0.0,0.0009827613830566406,0.001951456069946289,0
0.9801895618438721,0.009816623292863369,0.0009022842859849334,-0.4771426022052765,0.0016807401654721332,-0.6808763496979151,0.04597143938452089,0.0004211220638865371,-0.010756434513828027,0.0,0.0,-0.6,0.0,0.0009226799011230469,0.001878976821899414,0
0.9900145530700684,0.009790346957743168,0.0007740738801658154,-0.4796459674835205,0.0016419972037278934,-0.6812979474252848,0.04120599819603582,0.0002177622723729355,-0.010507401920953058,0.0,0.0,-0.6,0.0,0.0008614063262939453,0.0017163753509521484,0
1.0001347064971924,0.009760960005223751,0.0006483112229034305,-0.4820908308029175,0.001602402210882556,-0.6817334451835082,0.03764503429819219,-0.0005121238816737238,-0.010252982829575265,0.0,0.0,-0.6,0.0,0.0008730888366699219,0.0017306804656982422,0
1.0101847648620605,0.009727825410664082,0.0005253935232758522,-0.4844769835472107,0.0015628572484654576,-0.6822061400559811,0.03215973907107695,-0.0013930572332409008,-0.009998751872527446,0.0,0.0,-0.6,0.0,0.0009663105010986328,0.001953601837158203,0
1.0198943614959717,0.009657399728894234,0.00028889559325762093,-0.48907697200775146,0.0015018168079710822,-0.6831065605854453,0.022946620363901132,-0.001869186889942258,-0.009606293341789706,0.0,0.0,-0.6,0.0,0.0008382797241210938,0.0015904903411865234,0
1.0301446914672852,0.009618320502340794,0.0001764010521583259,-0.4912932515144348,0.0014494183418638006,-0.6835634097558306,0.01748480590885125,-0.002388288107052001,-0.009270196133811442,0.0,0.0,-0.6,0.0,0.0009164810180664062,0.001867532730102539,0
1.0400311946868896,0.009538059122860432,-3.496578574413434e-05,-0.49556422233581543,0.00133260587945192,-0.6845060192108711,0.007766179472126358,-0.0011872434314252182,-0.00852148932499018,0.0,0.0,-0.6,0.0,0.0014832019805908203,0.002846956253051758,0
1.0505216121673584,0.009495388716459274,-0.00013406753714662045,-0.49761855602264404,0.001268199861027798,-0.6849749816938456,0.0026167616375964813,-0.0017895406650565112,-0.008108790680137612,0.0,0.0,-0.6,0.0,0.0011858940124511719,0.0026586055755615234,0
1.060319185256958,0.009451525285840034,-0.00022829561203252524,-0.4996342658996582,0.0011976710003339418,-0.6854884525461207,-0.0021445957054660207,-0.0013461329728687134,-0.007657001226008283,0.0,0.0,-0.6,0.0,0.0013022422790527344,0.002621889114379883,0
1.0701897144317627,0.009406673721969128,-0.00031723332358524203,-0.5015977025032043,0.001140167948426141,-0.6859294743396027,-0.007355061246400103,-0.0015053588244932203,-0.007288494613376535,0.0,0.0,-0.6,0.0,0.0011501312255859375,0.0023157596588134766,0
1.080125093460083,0.009313554503023624,-0.00047913769958540797,-0.5053751468658447,0.0010099142793119204,-0.6868157256190331,-0.015575012996683452,-0.0013939498330450975,-0.006454330004979433,0.0,0.0,-0.6,0.0,0.0010647773742675781,0.002030611038208008,0
1.0901997089385986,0.009264891967177391,-0.0005531063070520759,-0.5071914792060852,0.0009471801865545928,-0.6872487737075791,-0.020303023613806995,-0.0011267644287805665,-0.006052495239434969,0.0,0.0,-0.6,0.0,0.0008139610290527344,0.0017535686492919922,0
1.1001322269439697,0.009216619655489922,-0.0006216610781848431,-0.5089589953422546,0.000896371388956549,-0.6877727930263966,-0.024343017460217744,0.0008583354940384085,-0.005726797629333077,0.0,0.0,-0.6,0.0,0.0013189315795898438,0.002604246139526367,0
1.1100749969482422,0.009168757125735283,-0.0006853931699879467,-0.510677695274353,0.0008276734568033116,-0.6882487388609565,-0.02807276366196877,0.000779181008931102,-0.005287029803457267,0.0,0.0,-0.6,0.0,0.0006639957427978516,0.0016293525695800781,0
1.1201884746551514,0.009069839492440224,-0.0008007675060071051,-0.5140294432640076,0.0006864458846660411,-0.6891191427449885,-0.03331158364931015,0.001345788297572281,-0.0043832949703664715,0.0,0.0,-0.6,0.0,0.0009095668792724609,0.0018644332885742188,0
1.130054235458374,0.009018858894705772,-0.0008529155165888369,-0.5156639814376831,0.000610781868295499,-0.6895321914895988,-0.03559687930158012,0.001748802928534161,-0.003899206831655689,0.0,0.0,-0.6,0.0,0.000713348388671875,0.001621246337890625,0
1.1401798725128174,0.008966493420302868,-0.0009000024874694645,-0.5172532796859741,0.0005374544737561414,-0.6899832434716179,-0.03853951413841562,0.0009071622658238162,-0.00343028417823701,0.0,0.0,-0.6,0.0,0.0009815692901611328,0.0019397735595703125,0
1.1499958038330078,0.008911533281207085,-0.0009416305692866445,-0.5187976956367493,0.00048458625048376487,-0.6904270990940714,-0.04047839803998026,-0.00010199890858995701,-0.0030923244253559592,0.0,0.0,-0.6,0.0,0.0007989406585693359,0.0017271041870117188,0
1.1600532531738281,0.008858757093548775,-0.0009794221259653568,-0.5202988982200623,0.0004349937547735357,-0.690812905650927,-0.04237900948587909,0.0007707128088171791,-0.002775043148048763,0.0,0.0,-0.6,0.0,0.0005931854248046875,0.001363992691040039,0
1.1702449321746826,0.008981999009847641,-0.000726232654415071,-0.5248206853866577,0.0003169055547166665,-0.6907432686801951,-0.04889094913435733,0.0013634165352417469,-0.0020197260126754973,0.0,0.0,-0.6,0.0,0.0009083747863769531,0.0018029212951660156,0
1.1799805164337158,0.009036073461174965,-0.0005979663692414761,-0.5270214080810547,0.00024529642116596163,-0.6908064127451298,-0.05071643313484189,0.0020247131883727072,-0.0015617493498068518,0.0,0.0,-0.6,0.0,0.0007646083831787109,0.0015306472778320312,0
1.190171480178833,0.009086038917303085,-0.00046862359158694744,-0.5291617512702942,0.000183465792386093,-0.6907943108195866,-0.053674410275449676,0.0023426786619955373,-0.0011663743952391402,0.0,0.0,-0.6,0.0,0.0009789466857910156,0.001965045928955078,0
1.2001771926879883,0.009172708727419376,-0.00020102248527109623,-0.533271074295044,5.3086679559651565e-05,-0.6908228003499296,-0.05919747634886948,0.003704378768370275,-0.00033271082748175364,0.0,0.0,-0.6,0.0,0.0010366439819335938,0.002054929733276367,0
1.2100951671600342,0.009210883639752865,-6.405237945728004e-05,-0.5352425575256348,6.920386401067847e-06,-0.6908082453186628,-0.060470120731820995,0.004587895214318684,-3.7628995897060815e-05,0.0,0.0,-0.6,0.0,0.0007693767547607422,0.0017178058624267578,0
1.220287799835205,0.009246792644262314,7.521197403548285e-05,-0.5371609926223755,-6.776985451866796e-05,-0.690830129920434,-0.06257578384108847,0.006139488820904884,0.00043993469407592527,0.0,0.0,-0.6,0.0,0.0013587474822998047,0.002777576446533203,0
1.230330467224121,0.009282544255256653,0.0002172469103243202,-0.5390270948410034,-0.00012626060750475538,-0.6908375670537388,-0.06482852718272362,0.00684636402883531,0.0008137813124872457,0.0,0.0,-0.6,0.0,0.0015189647674560547,0.003093719482421875,0
1.2401821613311768,0.009344574064016342,0.0005111312493681908,-0.5426494479179382,-0.00018990712242721378,-0.6909675740507812,-0.06683223930136759,0.007680212168502281,0.0012200955093704389,0.0,0.0,-0.6,0.0,0.0015392303466796875,0.0031118392944335938,0
1.2502765655517578,0.009371507912874222,0.0006616425234824419,-0.5444044470787048,-0.00020229480073088212,-0.6910629942773109,-0.0678092136180902,0.008547367002116493,0.0012989127931028357,0.0,0.0,-0.6,0.0,0.0012600421905517578,0.002587556838989258,0
1.259925365447998,0.009396177716553211,0.0008151535876095295,-0.5461097955703735,-0.0002518026049711895,-0.6910834125356016,-0.06872691300308222,0.009471573734893145,0.0016150071921249278,0.0,0.0,-0.6,0.0,0.0008838176727294922,0.0017306804656982422,0
1.2702817916870117,0.009419743902981281,0.0009709776495583355,-0.5477673411369324,-0.0002638613629389311,-0.6911449160217126,-0.06812062781709476,0.011426764126518434,0.0016914011246950131,0.0,0.0,-0.6,0.0,0.0008494853973388672,0.0017240047454833984,0
1.2800068855285645,0.009464536793529987,0.0012825911398977041,-0.5509354472160339,-0.0003311736223614071,-0.6914601756590256,-0.06344483124699521,0.01385990010189878,0.002120044898563844,0.0,0.0,-0.6,0.0,0.0007803440093994141,0.0016536712646484375,0
1.2898890972137451,0.009487763978540897,0.0014353106962516904,-0.5524473786354065,-0.0003448850266386731,-0.6915755886935018,-0.06154235755591072,0.014144297675997864,0.0022067234783035836,0.0,0.0,-0.6,0.0,0.0007066726684570312,0.0015308856964111328,0
1.299959421157837,0.009508156217634678,0.0015896284021437168,-0.5539329051971436,-0.00036900039736555514,-0.6916943898391469,-0.060463326785285744,0.014035390540190412,0.002360054434454532,0.0,0.0,-0.6,0.0,0.0008699893951416016,0.0017659664154052734,0
1.3098945617675781,0.009525093249976635,0.0017448869766667485,-0.5553725957870483,-0.000401495075293231,-0.6918707544629883,-0.05788575812788109,0.013192790879214298,0.0025669453859429136,0.0,0.0,-0.6,0.0,0.0007390975952148438,0.0016219615936279297,0
1.3199129104614258,0.009545615874230862,0.0020537949167191982,-0.5581136345863342,-0.0004490855504316131,-0.6923005773153783,-0.05159735017012831,0.010967994771378019,0.0028697483762749956,0.0,0.0,-0.6,0.0,0.00086212158203125,0.0017447471618652344,0
1.330214500427246,0.009551056660711765,0.002207008423283696,-0.5594161152839661,-0.0004906195418729265,-0.6924978306476941,-0.04820473579881632,0.010420772201516099,0.003134531531981144,0.0,0.0,-0.6,0.0,0.0007941722869873047,0.001917123794555664,0
1.3401129245758057,0.009553853422403336,0.0023594917729496956,-0.560675323009491,-0.0005190938601734112,-0.6927374351028222,-0.04540521333682131,0.010234426417378513,0.003315799775602914,0.0,0.0,-0.6,0.0,0.0008246898651123047,0.0018053054809570312,0
1.3501675128936768,0.009555403143167496,0.002511780709028244,-0.5618893504142761,-0.0005558517865191161,-0.6930623349304725,-0.042397716358092336,0.010978253662736102,0.0035497805827323908,0.0,0.0,-0.6,0.0,0.0010471343994140625,0.0024368762969970703,0
1.3601603507995605,0.00955677404999733,0.0026631467044353485,-0.5630584359169006,-0.0005604252457001814,-0.693334186983843,-0.038824918903258926,0.011746780982651896,0.003577869306089117,0.0,0.0,-0.6,0.0,0.0008921623229980469,0.0020058155059814453,0
1.3703596591949463,0.009555895812809467,0.002960400190204382,-0.5653817653656006,-0.0005895426182045077,-0.6938239201028469,-0.030234567735588552,0.011017686197925038,0.0037622015957968456,0.0,0.0,-0.6,0.0,0.0010051727294921875,0.0019752979278564453,0
1.380089521408081,0.00955262966454029,0.0031047307420521975,-0.5664785504341125,-0.0006003594617874349,-0.6941272819014078,-0.02598733713410448,0.01056024985607496,0.003830595857098147,0.0,0.0,-0.6,0.0,0.0006997585296630859,0.0016007423400878906,0
1.3898553848266602,0.009547707624733448,0.0032472554594278336,-0.5675320029258728,-0.0006120574108351179,-0.6944749525192031,-0.022639493598016733,0.010211461495645578,0.003904656445185832,0.0,0.0,-0.6,0.0,0.0007727146148681641,0.0016062259674072266,0
1.3999500274658203,0.00953310914337635,0.003524774219840765,-0.5695114135742188,-0.0006280811981842068,-0.6951267244617216,-0.013475455672142296,0.009149317974530611,0.004005529423113658,0.0,0.0,-0.6,0.0,0.0007293224334716797,0.00177001953125,0
1.4100074768066406,0.00952273327857256,0.0036592045798897743,-0.5704393982887268,-0.0006366411787582237,-0.6954822382168507,-0.009686106244460894,0.00809900902806841,0.004059859403393316,0.0,0.0,-0.6,0.0,0.0010135173797607422,0.0021393299102783203,0
1.4198801517486572,0.009510181844234467,0.0037912242114543915,-0.5713575482368469,-0.0006471839164097253,-0.6958146906599857,-0.006365961128116543,0.007205369775019104,0.004126919018429602,0.0,0.0,-0.6,0.0,0.0007193088531494141,0.0017523765563964844,0
1.4299564361572266,0.009495755657553673,0.003920973744243383,-0.5722364783287048,-0.0006628862948134312,-0.6960983384720181,-0.0023933905752658823,0.006808688902468257,0.004226643065191548,0.0,0.0,-0.6,0.0,0.001062631607055664,0.0021369457244873047,0
1.4400279521942139,0.009465759620070457,0.004169154446572065,-0.5738840699195862,-0.0006811411052092898,-0.696680160751101,0.0057431427176213344,0.003239901081223541,0.00434368164329814,0.0,0.0,-0.6,0.0,0.0010492801666259766,0.0021209716796875,0
1.4498376846313477,0.00944552756845951,0.0042884168215096,-0.5746522545814514,-0.0006696807384310882,-0.6970028415894595,0.008512704582626315,0.0019006033188455702,0.004270566411783475,0.0,0.0,-0.6,0.0,0.000644683837890625,0.0014350414276123047,0
1.4602162837982178,0.009422607719898224,0.004404755774885416,-0.5753843784332275,-0.0006854115666283091,-0.6973241140140154,0.012185589565128564,0.0002297946824247807,0.004371492933148513,0.0,0.0,-0.6,0.0,0.0009815692901611328,0.0022301673889160156,0
1.4700496196746826,0.0093966294080019,0.004514999687671661,-0.5760818719863892,-0.0007260636104696575,-0.6976135022168468,0.017162039036863152,-0.0009976684681513388,0.004631354760735994,0.0,0.0,-0.6,0.0,0.0008137226104736328,0.0018169879913330078,0
1.4802193641662598,0.00934002548456192,0.004720629658550024,-0.5774252414703369,-0.0007510983055551748,-0.6981775168367041,0.02273231721966438,-0.002321375961994966,0.004791211694395656,0.0,0.0,-0.6,0.0,0.0010623931884765625,0.0023126602172851562,0
1.4903013706207275,0.00930935237556696,0.004817647859454155,-0.5780717134475708,-0.0007471609777206293,-0.6984376339747236,0.02507027623656338,-0.003119111603985441,0.004766102436302356,0.0,0.0,-0.6,0.0,0.0008172988891601562,0.0019366741180419922,0
1.4999735355377197,0.009276744909584522,0.004912146367132664,-0.5786861181259155,-0.000737318558475745,-0.6986999646649572,0.0258117923112694,-0.0046313250049339685,0.0047040098427081995,0.0,0.0,-0.6,0.0,0.0011491775512695312,0.002378225326538086,0
1.5102941989898682,0.009240997955203056,0.005004480481147766,-0.5792698264122009,-0.0007111810606222126,-0.6989675592059067,0.027812133454807948,-0.006712763445814052,0.004537939789474689,0.0,0.0,-0.6,0.0,0.0011179447174072266,0.002461671829223633,0
1.520218849182129,0.009160833433270454,0.005179441999644041,-0.5803453326225281,-0.0006694131636704844,-0.6995130003971222,0.029051634040995932,-0.009320109248406115,0.004272500908050729,0.0,0.0,-0.6,0.0,0.0009644031524658203,0.0021843910217285156,0
1.5302414894104004,0.009117317385971546,0.005263424478471279,-0.5808390974998474,-0.0006445660676803415,-0.6997880766732683,0.03047512699858578,-0.010153758499395713,0.0041140232650407225,0.0,0.0,-0.6,0.0,0.0009672641754150391,0.002118825912475586,0
1.5403943061828613,0.009072101674973965,0.005342309828847647,-0.5813453793525696,-0.0006253526423859504,-0.7000089936167113,0.031752878455502606,-0.010550681781402156,0.003991331430860571,0.0,0.0,-0.6,0.0,0.0008492469787597656,0.0018918514251708984,0
1.5500552654266357,0.009024963714182377,0.005417633801698685,-0.5818234086036682,-0.0005874109330219895,-0.7002557833497426,0.03164487813117542,-0.011389158640094302,0.0037494514940497425,0.0,0.0,-0.6,0.0,0.0008699893951416016,0.0018985271453857422,0
1.5601248741149902,0.009115816093981266,0.005302561912685633,-0.584383487701416,-0.000549448484786746,-0.6999641142685692,0.0349885622535892,-0.011295282971612513,0.003506066318434991,0.0,0.0,-0.6,0.0,0.0007531642913818359,0.0017240047454833984,0
1.5704116821289062,0.009155301377177238,0.005242729559540749,-0.5855914354324341,-0.0005366602868954225,-0.6998390551744837,0.03652057058555014,-0.010900136949880398,0.0034237658724426997,0.0,0.0,-0.6,0.0,0.0008690357208251953,0.001954317092895508,0
1.580101490020752,0.009191806428134441,0.005182094406336546,-0.5867534875869751,-0.0005380832437592246,-0.6996905489923945,0.037190081489828955,-0.010139757696164136,0.0034322960923840553,0.0,0.0,-0.6,0.0,0.0008234977722167969,0.0017445087432861328,0
1.5899934768676758,0.00922468677163124,0.005122016184031963,-0.5878719687461853,-0.0005211012403727561,-0.6995595376882889,0.03692539199051308,-0.009691891990501689,0.0033235421552801707,0.0,0.0,-0.6,0.0,0.0005986690521240234,0.0013833045959472656,0
1.6000852584838867,0.009280477650463581,0.00500080082565546,-0.5899863839149475,-0.0005005162778852121,-0.6994280557063783,0.0372857813644376,-0.007869554914757068,0.0031909770495608036,0.0,0.0,-0.6,0.0,0.000690460205078125,0.0015780925750732422,0
1.6099328994750977,0.009302995167672634,0.0049403696320950985,-0.5909847617149353,-0.0004489513320679829,-0.699323712276587,0.03762583914140529,-0.007706633350009316,0.0028613096224478986,0.0,0.0,-0.6,0.0,0.0007834434509277344,0.0016865730285644531,0
1.6201531887054443,0.009321099147200584,0.0048788501881062984,-0.5919429659843445,-0.0003999328021880103,-0.6992541137296456,0.03792564786133687,-0.007244022289690004,0.0025478261911750307,0.0,0.0,-0.6,0.0,0.0006678104400634766,0.0019450187683105469,0
1.629990577697754,0.009334688074886799,0.004815942607820034,-0.5928616523742676,-0.00037695078454770114,-0.6991659224936299,0.038309003558907304,-0.006847057927262706,0.0024009239820376163,0.0,0.0,-0.6,0.0,0.0007519721984863281,0.001827239990234375,0
1.6400871276855469,0.009344342164695263,0.00475128460675478,-0.5937432050704956,-0.0003368243790601869,-0.699082318280827,0.038614173116987796,-0.006304741050061547,0.0021443041185826937,0.0,0.0,-0.6,0.0,0.0006878376007080078,0.0015816688537597656,0
1.6502189636230469,0.009349463507533073,0.004685063846409321,-0.5945860147476196,-0.0002962017214157061,-0.6991210881379316,0.03871768559659951,-0.006536937448448201,0.0018850285844323946,0.0,0.0,-0.6,0.0,0.0009398460388183594,0.0022149085998535156,0
1.659970760345459,0.009349416010081768,0.0045548249036073685,-0.596179723739624,-0.0002569063416973777,-0.699180803894775,0.034523065920366504,-0.006660288074453479,0.0016349093429956429,0.0,0.0,-0.6,0.0,0.0005776882171630859,0.0012929439544677734,0
1.6702101230621338,0.009344345889985561,0.004491036757826805,-0.5969330072402954,-0.00021199821115986062,-0.6992077974017514,0.03369853703556383,-0.005472735074398094,0.0013475589176995162,0.0,0.0,-0.6,0.0,0.0007975101470947266,0.001809835433959961,0
1.6802139282226562,0.009331944398581982,0.00436019292101264,-0.5983268618583679,-0.00012795832395039026,-0.6994058535929417,0.03227849162203031,-0.0016577960238838719,0.0008091348840861448,0.0,0.0,-0.6,0.0,0.0007460117340087891,0.0017352104187011719,0
1.6899802684783936,0.009323904290795326,0.004293379373848438,-0.598968505859375,-0.00010681911910476978,-0.6995454014397285,0.03135071335959043,-0.0007587353274282526,0.0006740119413558511,0.0,0.0,-0.6,0.0,0.0006856918334960938,0.001497507095336914,0
1.6998777389526367,0.009314185939729214,0.004225670825690031,-0.5995736718177795,-7.998394878649026e-05,-0.6996590944475586,0.03046256228857945,0.00042154587282677603,0.0005023948114736945,0.0,0.0,-0.6,0.0,0.00042057037353515625,0.0010166168212890625,0
1.709958553314209,0.009303967468440533,0.004157131537795067,-0.6001448035240173,-4.234906477343442e-05,-0.6997689584036438,0.029231859828068193,0.0023284492191557216,0.00026143797472629707,0.0,0.0,-0.6,0.0,0.0005078315734863281,0.00115966796875,0
1.7199363708496094,0.009281286038458347,0.00402154540643096,-0.6012243628501892,2.4401503194884587e-05,-0.7000300905862319,0.025056447360187813,0.004361263351318449,-0.00016499984586696128,0.0,0.0,-0.6,0.0,0.0005288124084472656,0.0011522769927978516,0
1.730093002319336,0.009269190952181816,0.003956094849854708,-0.601731538772583,4.9837978354836636e-05,-0.7002304960993672,0.022742021969925908,0.005526294925297215,-0.00032746466198043056,0.0,0.0,-0.6,0.0,0.0006086826324462891,0.001430511474609375,0
1.7399251461029053,0.009256668388843536,0.0038921714294701815,-0.6022037267684937,6.810008242722554e-05,-0.7004053617099965,0.020036551711667475,0.0076559781652616715,-0.00044431972810928417,0.0,0.0,-0.6,0.0,0.0006208419799804688,0.0013489723205566406,0
1.750185251235962,0.009243452921509743,0.0038302645552903414,-0.6026438474655151,7.918329399694622e-05,-0.7005588829405837,0.017230009339050223,0.008060673635321727,-0.0005146703921785432,0.0,0.0,-0.6,0.0,0.0007593631744384766,0.0017507076263427734,0
1.7600955963134766,0.009227854199707508,0.00377023802138865,-0.6030523777008057,0.00010753550212344609,-0.7007063765047815,0.015200221328459551,0.008483610877932897,-0.0006955454579577025,0.0,0.0,-0.6,0.0,0.0008518695831298828,0.0020439624786376953,0
1.7704017162322998,0.009187993593513966,0.0036546168848872185,-0.6037782430648804,0.0001692820740797486,-0.7010662337167662,0.011027298275076763,0.008187676008475689,-0.0010892590984065674,0.0,0.0,-0.6,0.0,0.0007371902465820312,0.0016512870788574219,0
1.7801463603973389,0.009165090508759022,0.003598935669288039,-0.6041157245635986,0.0001886866972274132,-0.7012073369620222,0.009210712474662883,0.008922354568254092,-0.0012130766411230548,0.0,0.0,-0.6,0.0,0.00067901611328125,0.001608133316040039,0
1.7899205684661865,0.009141579270362854,0.0035442416556179523,-0.6044244766235352,0.00020288602305609197,-0.7013817643685212,0.007266112088339034,0.009268426591116367,-0.001303453879338789,0.0,0.0,-0.6,0.0,0.0007207393646240234,0.0015878677368164062,0
1.7999582290649414,0.009088014252483845,0.003439326537773013,-0.6049555540084839,0.0002535643509876357,-0.7018083649800386,0.0028761069009009834,0.00818289845922461,-0.0016263523717499951,0.0,0.0,-0.6,0.0,0.0006618499755859375,0.0014963150024414062,0
1.8100872039794922,0.00905723124742508,0.0033897114917635918,-0.605178713798523,0.0002747853315559836,-0.7020403592702553,0.0012046729276180136,0.0077242677163839955,-0.001761581544569139,0.0,0.0,-0.6,0.0,0.0007917881011962891,0.001840829849243164,0
1.819955587387085,0.009025427512824535,0.003342486685141921,-0.6053737998008728,0.0002856349087737403,-0.7022809927491296,-0.0007940492927363009,0.007964412094087499,-0.0018306562846967362,0.0,0.0,-0.6,0.0,0.0006008148193359375,0.0013098716735839844,0
1.8302857875823975,0.008992447517812252,0.0032967233564704657,-0.6055415272712708,0.00027636714179509635,-0.7025386953526155,-0.0016994969980858611,0.007423832743671697,-0.0017709720120599882,0.0,0.0,-0.6,0.0,0.0009124279022216797,0.0020818710327148438,0
1.8400413990020752,0.008924071677029133,0.0032074488699436188,-0.6058070063591003,0.0002958531915525285,-0.7029512333556993,-0.003907811881113778,0.007904808721232514,-0.0018950396949593935,0.0,0.0,-0.6,0.0,0.00080108642578125,0.0018711090087890625,0
1.849877119064331,0.008888764306902885,0.003164540510624647,-0.6059070229530334,0.00029151207758952704,-0.7031578483920021,-0.005291991603395996,0.007257854326503958,-0.0018668781729202057,0.0,0.0,-0.6,0.0,0.0006082057952880859,0.0013692378997802734,0
1.8600866794586182,0.008854957297444344,0.0031219827942550182,-0.6059834957122803,0.00029370523066715195,-0.7034061962354496,-0.006270146902294766,0.006992531058408296,-0.0018805933531480562,0.0,0.0,-0.6,0.0,0.0008385181427001953,0.001920938491821289,0
1.8701586723327637,0.00881999172270298,0.0030812700279057026,-0.6060356497764587,0.0002887012784933766,-0.7036515079196849,-0.007838212469172998,0.006143779329300271,-0.0018481833620870274,0.0,0.0,-0.6,0.0,0.0008561611175537109,0.0019304752349853516,0
1.8799729347229004,0.008783519268035889,0.0030429342295974493,-0.6060656309127808,0.00030415183882045045,-0.7038532557333482,-0.008704160586161531,0.005492128652273283,-0.0019466908907516043,0.0,0.0,-0.6,0.0,0.0007295608520507812,0.0016582012176513672,0
1.8902792930603027,0.008706253953278065,0.0029722771141678095,-0.6060620546340942,0.00030995905077884446,-0.7043169933166824,-0.01069457145931877,0.003783820134196676,-0.001983161933886752,0.0,0.0,-0.6,0.0,0.0008571147918701172,0.0020074844360351562,0
1.9000146389007568,0.008664654567837715,0.00293961213901639,-0.606048047542572,0.00029815151831684216,-0.7045301127408128,-0.011288942875279468,0.0026187844160038077,-0.0019073595202839986,0.0,0.0,-0.6,0.0,0.0007491111755371094,0.0016226768493652344,0
1.9100370407104492,0.008621379733085632,0.002908423775807023,-0.6060143709182739,0.000289664375140939,-0.7047139431190812,-0.011600660597394187,0.0014149881374407786,-0.0018528195633851089,0.0,0.0,-0.6,0.0,0.0007748603820800781,0.0017824172973632812,0
1.9202282428741455,0.008527965284883976,0.0028499576728791,-0.6058887839317322,0.00028368813133678394,-0.7051557991073404,-0.011893509852520016,-0.0009370631542939621,-0.00181415268675243,0.0,0.0,-0.6,0.0,0.0007228851318359375,0.0017368793487548828,0
1.930021047592163,0.008481697179377079,0.0028233430348336697,-0.6057978868484497,0.0002797705171465475,-0.7053925011627363,-0.01251426610671906,-0.0009655660711739659,-0.0017889902990685118,0.0,0.0,-0.6,0.0,0.0006945133209228516,0.0015268325805664062,0
1.9401633739471436,0.008435648865997791,0.002798250876367092,-0.605688214302063,0.00027408548728381565,-0.7056125935422671,-0.012062054669613222,-0.0009530369496329983,-0.0017526669200527746,0.0,0.0,-0.6,0.0,0.0007245540618896484,0.0016667842864990234,0
1.949920892715454,0.008388438262045383,0.002774400170892477,-0.6055622100830078,0.0002556943680399467,-0.7057953664837285,-0.011679827688038918,-0.0022254363838677595,-0.0016349139732928816,0.0,0.0,-0.6,0.0,0.0007753372192382812,0.001707315444946289,0
1.960087776184082,0.008884802460670471,0.002554459497332573,-0.6069009304046631,0.0002468610999891809,-0.7054954552665145,-0.009532631433577056,0.003042175121617013,-0.0015796371682361093,0.0,0.0,-0.6,0.0,0.0015027523040771484,0.0028505325317382812,0
1.9707043170928955,0.009121919982135296,0.0024502784945070744,-0.6075252890586853,0.00026283431644943706,-0.7053204866652458,-0.009382805206875518,0.004882271996863339,-0.0016821941648358656,0.0,0.0,-0.6,0.0,0.0018661022186279297,0.00391697883605957,0
1.9798855781555176,0.00935009028762579,0.0023508374579250813,-0.6081153750419617,0.0002638974434767123,-0.7051326011323581,-0.009120761012784962,0.005792907548089097,-0.001689319269060238,0.0,0.0,-0.6,0.0,0.0007696151733398438,0.0016736984252929688,0
1.989865779876709,0.009569883346557617,0.0022565501276403666,-0.6086724400520325,0.00026294582865131694,-0.7049586097172177,-0.008720418600023669,0.007843002653790067,-0.001683802114248992,0.0,0.0,-0.6,0.0,0.0005483627319335938,0.0012073516845703125,0
1.9999990463256836,0.009994733147323132,0.0020751424599438906,-0.6096901893615723,0.00023452963465604357,-0.7046761923946697,-0.004928859148036855,0.013448267931867037,-0.0015039086448239022,0.0,0.0,-0.6,0.0,0.0009362697601318359,0.001928091049194336,0
2.0099000930786133,0.010198951698839664,0.0019875862635672092,-0.610152542591095,0.0002279883204046218,-0.7045493774488086,-0.004192054586486323,0.015196243317822569,-0.0014626790112176608,0.0,0.0,-0.6,0.0,0.0007309913635253906,0.001550912857055664,0
2.0200729370117188,0.010397015139460564,0.0019033066928386688,-0.6106120944023132,0.00021504266930587272,-0.7043925456444411,-0.0028130262298560957,0.017989603295605793,-0.0013808094861251106,0.0,0.0,-0.6,0.0,0.0006496906280517578,0.0015065670013427734,0
2.0297746658325195,0.01058895792812109,0.0018219881458207965,-0.6110430359840393,0.0002246624711970411,-0.7042495758361705,-0.0019986488218189306,0.01946428300899447,-0.0014430022109141133,0.0,0.0,-0.6,0.0,0.0005259513854980469,0.0012614727020263672,0
2.039879322052002,0.010950203984975815,0.0016707070171833038,-0.6118162274360657,0.00022073776713166286,-0.7041493476025115,0.0012842622783864218,0.02142348673431725,-0.0014193290378068256,0.0,0.0,-0.6,0.0,0.0005567073822021484,0.001306295394897461,0
2.050063371658325,0.01112049724906683,0.001597278518602252,-0.6121591329574585,0.00021141265333078543,-0.7040797722882449,0.0023197184700141315,0.022350324895098906,-0.0013603401671809343,0.0,0.0,-0.6,0.0,0.0006678104400634766,0.001573324203491211,0
2.059856653213501,0.011283211410045624,0.001527117216028273,-0.6124743819236755,0.00018406236609517154,-0.7040476595413303,0.0033982781010894903,0.02210486381040194,-0.0011857571023677527,0.0,0.0,-0.6,0.0,0.0006394386291503906,0.001384735107421875,0
2.0704450607299805,0.011442022398114204,0.0014580049319192767,-0.6127626299858093,0.00016852236387073625,-0.7039925895485397,0.004429529962231318,0.02371394297398248,-0.0010870312980441588,0.0,0.0,-0.6,0.0,0.0008366107940673828,0.0019538402557373047,0
2.0806617736816406,0.01174486055970192,0.001329217106103897,-0.6132857203483582,0.00013559713860526021,-0.7039974006424797,0.004877061489349299,0.025024604449755423,-0.000877341791218474,0.0,0.0,-0.6,0.0,0.0006768703460693359,0.002214193344116211,0
2.0899789333343506,0.011887156404554844,0.0012700761435553432,-0.6135182976722717,9.358182050749545e-05,-0.7040307865602087,0.0045695275531357875,0.024989362378331364,-0.0006088251525702107,0.0,0.0,-0.6,0.0,0.0006866455078125,0.0016121864318847656,0
2.1002166271209717,0.012023835442960262,0.0012140246108174324,-0.6137250065803528,9.217459487953681e-05,-0.7040459474676019,0.004862492711114644,0.025364117511005292,-0.0006001155910850426,0.0,0.0,-0.6,0.0,0.0007717609405517578,0.0017881393432617188,0
2.1100549697875977,0.012155714444816113,0.0011604158207774162,-0.6139059662818909,7.492244373029789e-05,-0.7041174036326657,0.005088911007152102,0.025721783408041855,-0.0004900971023849627,0.0,0.0,-0.6,0.0,0.0007944107055664062,0.001798868179321289,0
2.1200673580169678,0.01240194495767355,0.0010610324097797275,-0.6141918301582336,3.20913545629885e-05,-0.7042571066285934,0.005814610207009452,0.023864398271640094,-0.00021616748998439178,0.0,0.0,-0.6,0.0,0.000762939453125,0.0016624927520751953,0
2.1300337314605713,0.012515061534941196,0.0010143858380615711,-0.614298403263092,2.672428350489732e-05,-0.7043048567082894,0.005871452953278808,0.02194646759256085,-0.00018155948141920021,0.0,0.0,-0.6,0.0,0.0007882118225097656,0.0018298625946044922,0
2.1400396823883057,0.012626267969608307,0.0009694859618321061,-0.6144105792045593,-2.7487462677292556e-05,-0.7043710664326305,0.005468560270210209,0.021223948076894105,0.00016522062976615035,0.0,0.0,-0.6,0.0,0.0008618831634521484,0.0018763542175292969,0
2.150547504425049,0.012731517665088177,0.0009274632902815938,-0.6144979596138,-7.539806965089033e-05,-0.7045104407411075,0.00524960419806304,0.019378819098417165,0.0004719504445045152,0.0,0.0,-0.6,0.0,0.0012369155883789062,0.0027244091033935547,0
2.160022020339966,0.012923557311296463,0.0008509704493917525,-0.6145975589752197,-0.00012323175974448712,-0.7047909673014072,0.004753539958536224,0.016042011070687003,0.0007785281901932577,0.0,0.0,-0.6,0.0,0.0008442401885986328,0.00189971923828125,0
2.1702048778533936,0.01301188301295042,0.0008158663986250758,-0.6146125793457031,-0.00013242151156007758,-0.7049077621672802,0.004822891314169997,0.015220929204650319,0.0008373644858059124,0.0,0.0,-0.6,0.0,0.000885009765625,0.0019216537475585938,0
2.180227756500244,0.013095424510538578,0.0007836961885914207,-0.6146060228347778,-0.00013812361952933417,-0.7050073503425627,0.003974103642151908,0.01381299499437751,0.0008742682961627714,0.0,0.0,-0.6,0.0,0.0008232593536376953,0.0018489360809326172,0
2.190023183822632,0.013174055144190788,0.0007551312446594238,-0.6145786643028259,-0.00013627215754099221,-0.7051278933760193,0.0025985130516812008,0.012740940513976465,0.0008629357727233944,0.0,0.0,-0.6,0.0,0.0008039474487304688,0.0017676353454589844,0
2.1999356746673584,0.013249269686639309,0.0007296346593648195,-0.6145306825637817,-0.00015337994934263294,-0.705263799004117,0.002346945977119197,0.012661227103227148,0.0009723981029514355,0.0,0.0,-0.6,0.0,0.000705718994140625,0.0015802383422851562,0
2.210212230682373,0.013320988044142723,0.0007057272014208138,-0.6145001649856567,-0.00018097842970032734,-0.7054340830422444,0.0023749926019492567,0.010656578784484666,0.0011493111804289245,0.0,0.0,-0.6,0.0,0.0008280277252197266,0.001880645751953125,0
2.220025062561035,0.013443907722830772,0.0006681487429887056,-0.6143747568130493,-0.00022545737660609042,-0.7057217009766599,-0.00027374784651175096,0.005791185309267843,0.0014355756037299492,0.0,0.0,-0.6,0.0,0.0007853507995605469,0.001672983169555664,0
2.2303402423858643,0.013495667837560177,0.0006536864093504846,-0.6142809391021729,-0.00022308937957149331,-0.7059163533748813,-0.0004410746730890939,0.0025907895954933,0.0014212527381320666,0.0,0.0,-0.6,0.0,0.0007510185241699219,0.0019736289978027344,0
2.2403688430786133,0.013582750223577023,0.0006306691211648285,-0.6140315532684326,-0.00022914622110697065,-0.7062754953623456,-0.0024708446704270947,-0.0014651666986057802,0.0014616109159867332,0.0,0.0,-0.6,0.0,0.0010273456573486328,0.0024576187133789062,0
2.2498650550842285,0.013618338853120804,0.0006227203411981463,-0.6138778924942017,-0.00021724216810301846,-0.706469767451688,-0.0032807173016648128,-0.0035327079185377887,0.0013862751537895568,0.0,0.0,-0.6,0.0,0.0006208419799804688,0.0013377666473388672,0
2.259970188140869,0.01364916656166315,0.0006179308402352035,-0.6137514114379883,-0.0002124360831587706,-0.7066630988314934,-0.005343496559802509,-0.005025744617357525,0.00135662300775339,0.0,0.0,-0.6,0.0,0.0007348060607910156,0.0016543865203857422,0
2.2702112197875977,0.013674446381628513,0.0006164044607430696,-0.6136056780815125,-0.00021268192106343184,-0.7067954361819438,-0.006423713727099672,-0.007293776122788492,0.0013591001991293723,0.0,0.0,-0.6,0.0,0.0009307861328125,0.0019366741180419922,0
2.280344009399414,0.013693823479115963,0.0006173598812893033,-0.6134427785873413,-0.00020521159461601787,-0.706941425933745,-0.007488288341371524,-0.009647574287296377,0.001312253699260185,0.0,0.0,-0.6,0.0,0.0016536712646484375,0.0031762123107910156,0
2.2901833057403564,0.013719373382627964,0.0006234628963284194,-0.6130645275115967,-0.00017145937827217384,-0.7072285345425867,-0.008589681361010237,-0.013233583019657085,0.00109767521861379,0.0,0.0,-0.6,0.0,0.0010442733764648438,0.0021390914916992188,0
2.3000049591064453,0.013725372031331062,0.0006287286523729563,-0.6128513216972351,-0.00016235738074932518,-0.7073894002582732,-0.008936222580249717,-0.01333876602256122,0.0010396597050126714,0.0,0.0,-0.6,0.0,0.0007023811340332031,0.0015559196472167969,0
2.310181140899658,0.013728274963796139,0.0006363347638398409,-0.6126222014427185,-0.00016570256940952191,-0.7075371595323707,-0.010134940823413839,-0.014766447189443883,0.001061803500936179,0.0,0.0,-0.6,0.0,0.0008299350738525391,0.001888275146484375,0
2.3207643032073975,0.013712911866605282,0.0006605603266507387,-0.6121640801429749,-0.0001766843734232213,-0.7078209940561523,-0.0119655917852969,-0.02062599152581903,0.00113394932084334,0.0,0.0,-0.6,0.0,0.0027272701263427734,0.0051267147064208984,0
2.3300817012786865,0.013695921748876572,0.0006760605610907078,-0.6119353771209717,-0.00017908364824512744,-0.7079325352922711,-0.012006192541736667,-0.02222479971467785,0.0011496782738063891,0.0,0.0,-0.6,0.0,0.0009849071502685547,0.0021355152130126953,0
2.3401832580566406,0.013673637993633747,0.0006931786192581058,-0.6116926670074463,-0.00016396821671963853,-0.7080421006698255,-0.01275162738969564,-0.0237784540207523,0.0010536218312600769,0.0,0.0,-0.6,0.0,0.0008513927459716797,0.0019457340240478516,0
2.3500492572784424,0.013645476661622524,0.0007131651509553194,-0.6114365458488464,-0.0001624310413181085,-0.7081691260412631,-0.013382364605641597,-0.026011603137971438,0.0010445094954418704,0.0,0.0,-0.6,0.0,0.0010585784912109375,0.002035856246948242,0
2.3600833415985107,0.013796956278383732,0.0010609403252601624,-0.6124903559684753,-0.00012600511700376125,-0.7075207386373153,-0.018185172819769266,-0.0275690735421257,0.0008136898894082876,0.0,0.0,-0.6,0.0,0.0010521411895751953,0.0019617080688476562,0
2.3706002235412598,0.013860633596777916,0.0012335673673078418,-0.6129714250564575,-9.011378639132052e-05,-0.7072602038297642,-0.020488307421986998,-0.0281801987829812,0.000585149779674591,0.0,0.0,-0.6,0.0,0.0009481906890869141,0.001916646957397461,0
