time,x,y,z,yaw,throttle,roll_rate,pitch_rate,yaw_rate,x_ref,y_ref,z_ref,yaw_ref,mpc_time,ctrl_callback_time_history,metadata
4.76837158203125e-07,0.007766540162265301,-0.007559254299849272,0.018466882407665253,-0.01744476323851915,-0.9329941836505927,0.27051290345921647,0.051191792924336614,0.11144864391467102,0.0,0.0,-0.6,0.0,0.0016071796417236328,0.002173185348510742,Sim
0.010152816772460938,0.007787566632032394,-0.0076535530388355255,0.018643546849489212,-0.017431853611665275,-0.9331015139023545,0.27140647229672593,0.05126599850186803,0.11136565236504532,0.0,0.0,-0.6,0.0,0.0005407333374023438,0.001129150390625,1x Speed
0.0200808048248291,0.007809772156178951,-0.007749962154775858,0.018823916092514992,-0.017440186064309,-0.93317896420685,0.2723289195229118,0.0514292031614339,0.11141849968709115,0.0,0.0,-0.6,0.0,0.0006608963012695312,0.0011501312255859375,Horizon:3.0
0.030251026153564453,0.007859502919018269,-0.007950657978653908,0.019191816449165344,-0.017479424185994755,-0.9333186516983046,0.2749694820014135,0.05177467889568013,0.11166789927030236,0.0,0.0,-0.6,0.0,0.0006783008575439453,0.001298666000366211,Num Steps:20
0.040120601654052734,0.007885491475462914,-0.008055983111262321,0.019379153847694397,-0.017501457815570026,-0.9333893868232808,0.27661140508434146,0.05210685697709901,0.11180802803588798,0.0,0.0,-0.6,0.0,0.0008790493011474609,0.0015740394592285156,No Pyjoules
0.050214529037475586,0.007967638783156872,-0.00792139582335949,0.019440343603491783,-0.017526715211500687,-0.9334059347036046,0.27553627540404146,0.05320022791868021,0.11196839067287209,0.0,0.0,-0.6,0.0,0.0011792182922363281,0.0020673274993896484,0
0.060335397720336914,0.008133134804666042,-0.007671402767300606,0.019549423828721046,-0.017529881546404443,-0.9327879712260726,0.27049963743772143,0.05426432297007364,0.11198785879468223,0.0,0.0,-0.6,0.0,0.0012557506561279297,0.002236604690551758,0
0.07033681869506836,0.00821502972394228,-0.00754889938980341,0.019519131630659103,-0.017508586519335366,-0.9293259520740341,0.26310702168103317,0.054600887245279985,0.11185364541415341,0.0,0.0,-0.6,0.0,0.0010600090026855469,0.001817941665649414,0
0.08021259307861328,0.008295726031064987,-0.007426798343658447,0.019279712811112404,-0.017434127422285103,-0.9232551918210663,0.2517668978113468,0.05457784937783274,0.11138213616053282,0.0,0.0,-0.6,0.0,0.0011336803436279297,0.0019218921661376953,0
0.09035420417785645,0.008373413234949112,-0.007305239327251911,0.01874505914747715,-0.017278019839098716,-0.9156411366430589,0.23613563103083907,0.05365414385858174,0.11039118033764023,0.0,0.0,-0.6,0.0,0.0011119842529296875,0.002040386199951172,0
0.10019636154174805,0.008521635085344315,-0.007064880803227425,0.016632573679089546,-0.016805116113101086,-0.8981191582688167,0.19482353296476343,0.051863513869616046,0.1073866063734033,0.0,0.0,-0.6,0.0,0.0013108253479003906,0.0020568370819091797,0
0.11021780967712402,0.008592134341597557,-0.006947379559278488,0.015009481459856033,-0.016487190941410816,-0.8887046294882395,0.16948952510174148,0.049991700976814664,0.10536546574110339,0.0,0.0,-0.6,0.0,0.0010318756103515625,0.0018527507781982422,0
0.12003135681152344,0.008658941835165024,-0.0068293362855911255,0.013009435497224331,-0.01611452784627191,-0.8790675555258504,0.14224638688316235,0.046834720069206706,0.10299529070028247,0.0,0.0,-0.6,0.0,0.0010943412780761719,0.0019528865814208984,0
0.13013100624084473,0.008722230792045593,-0.006710418034344912,0.01063518412411213,-0.01570506052737244,-0.8693361553454637,0.11502901525852685,0.044667910029879944,0.1003894062050263,0.0,0.0,-0.6,0.0,0.0010788440704345703,0.0019724369049072266,0
0.14017820358276367,0.008842376992106438,-0.006463725119829178,0.004793064668774605,-0.014739262703400969,-0.8498444551566269,0.05786611318857628,0.03991836272445517,0.0942395611312271,0.0,0.0,-0.6,0.0,0.0015494823455810547,0.0025060176849365234,0
0.15012288093566895,0.008898424915969372,-0.006332073826342821,0.0013491575373336673,-0.014184048727718404,-0.8402653647624404,0.02941350639494573,0.03748363557061872,0.09070194896733375,0.0,0.0,-0.6,0.0,0.0011303424835205078,0.0018868446350097656,0
0.16022729873657227,0.008954828605055809,-0.006192693021148443,-0.0024250559508800507,-0.013589738174466664,-0.8308185597785471,0.0008733715160825024,0.03567901453329847,0.08691443184028437,0.0,0.0,-0.6,0.0,0.0013210773468017578,0.0021812915802001953,0
0.17046022415161133,0.009010548703372478,-0.00604288699105382,-0.006513528060168028,-0.01293383001796297,-0.8215849694284976,-0.027435171822032364,0.03402704342709561,0.08273309267003465,0.0,0.0,-0.6,0.0,0.0010349750518798828,0.001756906509399414,0
0.1802079677581787,0.009119108319282532,-0.005706646479666233,-0.015561296604573727,-0.011571827889591229,-0.8037951560096495,-0.08087275845409955,0.02971201895174659,0.07404786110303953,0.0,0.0,-0.6,0.0,0.0011610984802246094,0.0018260478973388672,0
0.190324068069458,0.009170426987111568,-0.0055209193378686905,-0.020487157627940178,-0.010879484428720526,-0.7953399870784239,-0.10580839782895506,0.027216091902276904,0.06963183431058709,0.0,0.0,-0.6,0.0,0.0012257099151611328,0.002115964889526367,0
0.2001326084136963,0.009219406172633171,-0.005320837255567312,-0.02565760165452957,-0.01016790233889177,-0.7871500931441902,-0.13132510345135562,0.024538361833222798,0.06509260866159086,0.0,0.0,-0.6,0.0,0.0020134449005126953,0.003276348114013672,0
0.2102956771850586,0.009265516884624958,-0.005105380900204182,-0.03105410933494568,-0.0094446574350943,-0.7793081664658503,-0.1545827546176167,0.021864405795977513,0.06047767805269485,0.0,0.0,-0.6,0.0,0.0016980171203613281,0.0027303695678710938,0
0.22023630142211914,0.009348665364086628,-0.00463075190782547,-0.04245680198073387,-0.007953866777510107,-0.764489131315359,-0.19574635667410065,0.01610546090789597,0.0509614236647462,0.0,0.0,-0.6,0.0,0.001708984375,0.002796649932861328,0
0.23027467727661133,0.009385086596012115,-0.004368405323475599,-0.0484294518828392,-0.007199793198340963,-0.7575739879767072,-0.21458715400264305,0.01347545494203527,0.04614681872452956,0.0,0.0,-0.6,0.0,0.0015537738800048828,0.0025267601013183594,0
0.24031281471252441,0.0094191525131464,-0.004090198781341314,-0.05456056818366051,-0.006433278810979075,-0.7509361045443683,-0.23070736159762548,0.011868059358909928,0.04125239931315871,0.0,0.0,-0.6,0.0,0.0014796257019042969,0.0024385452270507812,0
0.25039076805114746,0.009449891746044159,-0.003797069424763322,-0.06083706021308899,-0.005678853907563011,-0.7445176055659365,-0.24439321894521177,0.008890727971268794,0.03643239711682278,0.0,0.0,-0.6,0.0,0.0014081001281738281,0.0024056434631347656,0
0.2602055072784424,0.009501457214355469,-0.0031698981765657663,-0.07377377897500992,-0.004272763649244404,-0.7325734668242346,-0.2655616183245699,0.0036523522654514523,0.02744818475397665,0.0,0.0,-0.6,0.0,0.001275777816772461,0.0020325183868408203,0
0.2704150676727295,0.009522582404315472,-0.0028358923736959696,-0.08040276914834976,-0.0035775472033956926,-0.7271306087580516,-0.27309767651910777,0.002625622766842402,0.02300593988484475,0.0,0.0,-0.6,0.0,0.0012776851654052734,0.0021178722381591797,0
0.28016018867492676,0.009541725739836693,-0.0024899470154196024,-0.08711610734462738,-0.0028780117923916625,-0.721929633429901,-0.27729366491893115,-1.2973106200863017e-05,0.018533146784408285,0.0,0.0,-0.6,0.0,0.0013074874877929688,0.002048492431640625,0
0.29035401344299316,0.00955609604716301,-0.0021329999435693026,-0.09390660375356674,-0.0022102765106928,-0.717012188052633,-0.28006820674243393,-0.0033279915520914556,0.014261885151765543,0.0,0.0,-0.6,0.0,0.0012886524200439453,0.0021631717681884766,0
0.3007528781890869,0.009576446376740932,-0.0013846454676240683,-0.10767710953950882,-0.0009285255896283513,-0.7078186142102054,-0.2831372580034141,-0.00839270758999635,0.006062945291822055,0.0,0.0,-0.6,0.0,0.0024025440216064453,0.004120826721191406,0
0.3102848529815674,0.009580100886523724,-0.0009926831116899848,-0.1146351546049118,-0.00032163424570508383,-0.7037360789589193,-0.28096733080098085,-0.010328523176869246,0.002179876109096075,0.0,0.0,-0.6,0.0,0.0017616748809814453,0.0027952194213867188,0
0.32032322883605957,0.009580387733876705,-0.0005920063704252243,-0.12162521481513977,0.000255374812257217,-0.6998585956560381,-0.2758174568247524,-0.01210413595481871,-0.0015129827846371764,0.0,0.0,-0.6,0.0,0.0013365745544433594,0.0022897720336914062,0
0.33031392097473145,0.009577366523444653,-0.00018349773017689586,-0.12863962352275848,0.0008033586524273477,-0.696194277181631,-0.26955502062594694,-0.014013241549477506,-0.005020749847980249,0.0,0.0,-0.6,0.0,0.0009236335754394531,0.0017311573028564453,0
0.34007835388183594,0.009562203660607338,0.0006571044214069843,-0.14270128309726715,0.001807270001326633,-0.6895271050443821,-0.253938481579827,-0.016468363272292154,-0.011447989578212317,0.0,0.0,-0.6,0.0,0.0015478134155273438,0.0024187564849853516,0
0.3502476215362549,0.009550615213811398,0.0010874518193304539,-0.14973215758800507,0.0022474437246468495,-0.6865766281379888,-0.24309318323839527,-0.018020252191485776,-0.014267382751139398,0.0,0.0,-0.6,0.0,0.0007703304290771484,0.0014405250549316406,0
0.360107421875,0.009535708464682102,0.001521764905191958,-0.15675364434719086,0.0026939009906487973,-0.683815206259319,-0.23011218359494606,-0.01940261916854475,-0.017128297139073052,0.0,0.0,-0.6,0.0,0.0009417533874511719,0.0016338825225830078,0
0.37051987648010254,0.009518753737211227,0.0019579892978072166,-0.16375954449176788,0.003103213102226916,-0.6812263303178416,-0.21546397759664576,-0.02139463151206602,-0.019751907234980683,0.0,0.0,-0.6,0.0,0.0013647079467773438,0.002332925796508789,0
0.3804497718811035,0.009710729122161865,0.0012033003149554133,-0.17769870162010193,0.003683327321341744,-0.6765894177344303,-0.15846254002164817,-0.019290441213705545,-0.023488156283026543,0.0,0.0,-0.6,0.0,0.0014765262603759766,0.0024607181549072266,0
0.3902394771575928,0.009799028746783733,0.0008379345526918769,-0.1846216470003128,0.003879455058619868,-0.6745067121531262,-0.1291938351397088,-0.019120816480903066,-0.02475547008607903,0.0,0.0,-0.6,0.0,0.0012607574462890625,0.002348661422729492,0
0.40015316009521484,0.009882940910756588,0.00047842238564044237,-0.19152216613292694,0.004057905890007151,-0.6726459829912405,-0.09856804025002698,-0.017303856458783892,-0.025910990364399835,0.0,0.0,-0.6,0.0,0.0011811256408691406,0.0020148754119873047,0
0.41031789779663086,0.009964194148778915,0.00012343429261818528,-0.19837753474712372,0.004216587853690445,-0.6709290320517487,-0.06747323266882457,-0.014224125582216265,-0.026941260886578854,0.0,0.0,-0.6,0.0,0.0011258125305175781,0.002130746841430664,0
0.4202241897583008,0.010118883103132248,-0.000580933759920299,-0.21193838119506836,0.004448856965852342,-0.667862716922887,-0.003506548005269009,-0.011274491795791527,-0.028455430184060184,0.0,0.0,-0.6,0.0,0.0010831356048583984,0.0019321441650390625,0
0.4303104877471924,0.01019012089818716,-0.0009327825391665101,-0.21863539516925812,0.004513852484574334,-0.6665846234581002,0.028043286870146053,-0.009756718884144868,-0.028884926209638177,0.0,0.0,-0.6,0.0,0.0011093616485595703,0.0020182132720947266,0
0.4402756690979004,0.010260564275085926,-0.00128634471911937,-0.22527045011520386,0.004543342523714732,-0.6654490841786771,0.05923920684510031,-0.0072603710976579215,-0.029088138286533564,0.0,0.0,-0.6,0.0,0.001382589340209961,0.002467632293701172,0
0.4502294063568115,0.010370832867920399,-0.0013269551564007998,-0.23091480135917664,0.004547548218184121,-0.6648981520244315,0.08561092298956846,-0.002914437574810646,-0.029130496649962808,0.0,0.0,-0.6,0.0,0.0011436939239501953,0.0020525455474853516,0
0.4604489803314209,0.010586346499621868,-0.0014319982146844268,-0.24209707975387573,0.004506661314773387,-0.6640541370530921,0.13426594812267875,0.004426740798941946,-0.028896817889817007,0.0,0.0,-0.6,0.0,0.0013010501861572266,0.002343893051147461,0
0.4702141284942627,0.010690231807529926,-0.0014981951098889112,-0.24762828648090363,0.004433551627478492,-0.6638124284983205,0.15672316440909423,0.006841685679083293,-0.02844026053473536,0.0,0.0,-0.6,0.0,0.0010669231414794922,0.0018515586853027344,0
0.4800529479980469,0.010790492407977581,-0.001574000809341669,-0.25310346484184265,0.004348842181686696,-0.6636090878158698,0.17785584619962136,0.009752823814902082,-0.0279096703197258,0.0,0.0,-0.6,0.0,0.0007631778717041016,0.0013723373413085938,0
0.49030160903930664,0.010887835174798965,-0.001660180278122425,-0.2585219442844391,0.004262151565119429,-0.6634745119364798,0.1974043953333985,0.011965017824516372,-0.02736425149266133,0.0,0.0,-0.6,0.0,0.0007500648498535156,0.0014522075653076172,0
0.5001330375671387,0.010980866849422455,-0.0017573985969647765,-0.263879656791687,0.004183323734719116,-0.6635046056147329,0.2152920541098324,0.013573707576587485,-0.026867205973456945,0.0,0.0,-0.6,0.0,0.0009202957153320312,0.001577138900756836,0
0.5104141235351562,0.011159186251461506,-0.0019831955432891846,-0.2744017243385315,0.0039396138837238925,-0.6637609766318496,0.24385079368963922,0.017974659211650777,-0.02532170132467566,0.0,0.0,-0.6,0.0,0.001596212387084961,0.0027954578399658203,0
0.5203893184661865,0.011243465356528759,-0.002111774170771241,-0.27957454323768616,0.0037897137589771126,-0.6639161052192722,0.25561723280377263,0.01922607754631597,-0.024366707103171834,0.0,0.0,-0.6,0.0,0.0017235279083251953,0.0030710697174072266,0
0.5302939414978027,0.011323781684041023,-0.0022517594043165445,-0.28468063473701477,0.0036190027546602237,-0.6641150002134592,0.26524573266934964,0.01990199079234025,-0.02327651999197404,0.0,0.0,-0.6,0.0,0.001314401626586914,0.002292633056640625,0
0.5402512550354004,0.01140083558857441,-0.0024028627667576075,-0.2897193729877472,0.003408912981352156,-0.6643393024310825,0.27248216634056005,0.021774655877273615,-0.021936266704125254,0.0,0.0,-0.6,0.0,0.0017178058624267578,0.0028226375579833984,0
0.5502474308013916,0.011548363603651524,-0.002737270900979638,-0.2995896339416504,0.0030007420468529363,-0.6649940111861515,0.28118062337666544,0.023770294392537392,-0.019326603341542785,0.0,0.0,-0.6,0.0,0.001201629638671875,0.0020334720611572266,0
0.5602827072143555,0.01161776203662157,-0.0029184771701693535,-0.3044198155403137,0.002777645819569703,-0.665317539918292,0.2817167758795741,0.025075204055711623,-0.01789978575282396,0.0,0.0,-0.6,0.0,0.0011703968048095703,0.0021064281463623047,0
0.5705039501190186,0.011685858480632305,-0.003108162200078368,-0.3091816008090973,0.0025341198768594284,-0.6656154267359239,0.28104091332094594,0.02673707635995847,-0.01634242237781533,0.0,0.0,-0.6,0.0,0.0011780261993408203,0.0021016597747802734,0
0.5802032947540283,0.011882082559168339,-0.0018986087525263429,-0.3185478746891022,0.0018983390774520194,-0.6663534213216976,0.24952029916099291,0.0291252653122822,-0.012268346726714134,0.0,0.0,-0.6,0.0,0.001123189926147461,0.0018978118896484375,0
0.59039306640625,0.011977856047451496,-0.0013159740483388305,-0.3231496512889862,0.0015085857394458138,-0.6667027433553312,0.23114032658758193,0.030696920635247035,-0.009771375419338599,0.0,0.0,-0.6,0.0,0.001094818115234375,0.001974821090698242,0
0.6001827716827393,0.012073157355189323,-0.0007471335120499134,-0.3276827335357666,0.0011125000825426752,-0.6670469480174315,0.21121517871716336,0.03275460609247077,-0.0072337963380661435,0.0,0.0,-0.6,0.0,0.0011899471282958984,0.002024412155151367,0
0.610271692276001,0.01216763537377119,-0.00019102502847090364,-0.3321473002433777,0.0007050846443182352,-0.6674366844289865,0.19047179814305476,0.03328575125010014,-0.0046206933249235745,0.0,0.0,-0.6,0.0,0.001069784164428711,0.0018963813781738281,0
0.6203649044036865,0.012346879579126835,0.0008876463398337364,-0.34087085723876953,-8.311575426064975e-05,-0.6682263160166537,0.14530182327944577,0.03201578308351133,0.00043942139026388794,0.0,0.0,-0.6,0.0,0.0012462139129638672,0.0023086071014404297,0
0.6301896572113037,0.012432855553925037,0.0014124237932264805,-0.3451310694217682,-0.00046234182737764986,-0.6686628342280942,0.12051970855325755,0.03159214230390839,0.0028749524646484058,0.0,0.0,-0.6,0.0,0.0010807514190673828,0.0018596649169921875,0
0.6401302814483643,0.012516089715063572,0.001929387217387557,-0.3493368625640869,-0.0008451701085017304,-0.6690840253846517,0.09516106517666338,0.03005363986919595,0.005335175924315576,0.0,0.0,-0.6,0.0,0.0011975765228271484,0.0021049976348876953,0
0.6505963802337646,0.01259667333215475,0.0024391512852162123,-0.3534769117832184,-0.0012314944484796333,-0.6694477678513774,0.06963106657679567,0.029978538769364547,0.00781654040589362,0.0,0.0,-0.6,0.0,0.0018818378448486328,0.0032787322998046875,0
0.6602578163146973,0.012677287682890892,0.002945423126220703,-0.3575519919395447,-0.0016029407575624706,-0.6698487476097063,0.043200194974816156,0.02955638632413733,0.010203716745403523,0.0,0.0,-0.6,0.0,0.0013511180877685547,0.002305269241333008,0
0.6705038547515869,0.012755763716995716,0.003447646973654628,-0.3615628480911255,-0.001947346472543702,-0.6702216492860144,0.017592507003115147,0.02881286083276491,0.012418308108557341,0.0,0.0,-0.6,0.0,0.0012023448944091797,0.002079486846923828,0
0.680095911026001,0.012908587232232094,0.004437912255525589,-0.36939316987991333,-0.0026422380140350035,-0.6710259241534163,-0.02987940664077249,0.027848501947179544,0.01688573099470732,0.0,0.0,-0.6,0.0,0.0008823871612548828,0.0015332698822021484,0
0.6901907920837402,0.01298356894403696,0.00492783123627305,-0.37321487069129944,-0.002988367803463472,-0.6714152072188473,-0.05383910682478872,0.027212383243666954,0.01911145243749729,0.0,0.0,-0.6,0.0,0.0009224414825439453,0.0016639232635498047,0
0.7003450393676758,0.013126599602401257,0.005905612837523222,-0.3807060122489929,-0.0036302522211464653,-0.6722770508881674,-0.09941508966233992,0.023040035950215997,0.02324094901703395,0.0,0.0,-0.6,0.0,0.0010993480682373047,0.0019459724426269531,0
0.7102251052856445,0.013194376602768898,0.006396197713911533,-0.38437408208847046,-0.003923932522802725,-0.6726782435395405,-0.12104136977996471,0.021664079427845862,0.025131017817761524,0.0,0.0,-0.6,0.0,0.0010828971862792969,0.0018417835235595703,0
0.7202515602111816,0.013259959407150745,0.006888777017593384,-0.3879811465740204,-0.004200989888179345,-0.6730983516885232,-0.14161438211772973,0.019361635188883473,0.026914373738942003,0.0,0.0,-0.6,0.0,0.001102447509765625,0.0018768310546875,0
0.7304286956787109,0.01332295686006546,0.007385438308119774,-0.391526460647583,-0.004477510241849791,-0.6735935495121387,-0.1610523796298296,0.016776848056316636,0.028693889696083077,0.0,0.0,-0.6,0.0,0.0011165142059326172,0.002048015594482422,0
0.7401347160339355,0.013436458073556423,0.008385900408029556,-0.39843499660491943,-0.0049422087298082755,-0.6744272468701884,-0.19429033426209477,0.010184241542520782,0.03168474598733189,0.0,0.0,-0.6,0.0,0.0012059211730957031,0.002117156982421875,0
0.7504117488861084,0.013486725278198719,0.008889828808605671,-0.401802122592926,-0.005134714638198826,-0.6748402236111116,-0.20871084433259693,0.0079573365307178,0.03292435117825483,0.0,0.0,-0.6,0.0,0.001199483871459961,0.002182483673095703,0
0.7601182460784912,0.013533425517380238,0.009396972134709358,-0.4051107168197632,-0.005329156468457826,-0.6753167480571547,-0.22142488661710552,0.004817705172621641,0.034175456090489546,0.0,0.0,-0.6,0.0,0.0012407302856445312,0.0021207332611083984,0
0.7703564167022705,0.013575642369687557,0.00990787148475647,-0.40836089849472046,-0.00552154920592393,-0.67578254048741,-0.23215659124547608,0.00216521802635427,0.035412287177531976,0.0,0.0,-0.6,0.0,0.0010333061218261719,0.0018298625946044922,0
0.780231237411499,0.013614392839372158,0.0104219364002347,-0.41155317425727844,-0.005687280092499677,-0.676253945395449,-0.2405970038008792,-0.0006987584164302258,0.03647798468488436,0.0,0.0,-0.6,0.0,0.0011048316955566406,0.0019795894622802734,0
0.79012131690979,0.013680185191333294,0.011458633467555046,-0.4177706241607666,-0.00595136372667051,-0.6771331357546839,-0.2528410600916661,-0.00618813759923139,0.03817629989389818,0.0,0.0,-0.6,0.0,0.0010457038879394531,0.0018160343170166016,0
0.800227165222168,0.013706439174711704,0.01198198739439249,-0.4207959771156311,-0.006053057657039053,-0.6776177647802554,-0.2561529679464353,-0.009920243003962327,0.03883003484658751,0.0,0.0,-0.6,0.0,0.0010504722595214844,0.0017991065979003906,0
0.8102290630340576,0.013729020021855831,0.012506939470767975,-0.4237658977508545,-0.006112876069244948,-0.678109163362689,-0.25784044454879446,-0.011155145731314011,0.03921519035470474,0.0,0.0,-0.6,0.0,0.0010166168212890625,0.001867532730102539,0
0.8202202320098877,0.013768123462796211,0.013561706990003586,-0.4295850098133087,-0.006174741632060048,-0.6789005145339397,-0.25567709669034666,-0.013795241769398782,0.039612452110118546,0.0,0.0,-0.6,0.0,0.0010571479797363281,0.001847982406616211,0
0.8303518295288086,0.013783200643956661,0.014089351519942284,-0.43243780732154846,-0.006200390733830905,-0.6792604644836832,-0.2515339044773522,-0.015016600070341557,0.03977557339104956,0.0,0.0,-0.6,0.0,0.0010132789611816406,0.0019044876098632812,0
0.8401775360107422,0.013795394450426102,0.014615941792726517,-0.4352392852306366,-0.006203399769908963,-0.6796868048789524,-0.24561831540895424,-0.016407331034525685,0.039792912227243876,0.0,0.0,-0.6,0.0,0.0009436607360839844,0.001710653305053711,0
0.8503639698028564,0.013779186643660069,0.015242808498442173,-0.43871009349823,-0.006177393803148837,-0.6797478435706014,-0.24053502007646677,-0.017613385315629598,0.03962497133412635,0.0,0.0,-0.6,0.0,0.0011832714080810547,0.002225160598754883,0
0.8605043888092041,0.013740825466811657,0.01648702472448349,-0.44545090198516846,-0.006099821409440701,-0.6798569099212836,-0.22546621572991637,-0.01890669387264987,0.03912222064062295,0.0,0.0,-0.6,0.0,0.0013580322265625,0.002401590347290039,0
0.8701801300048828,0.013720327988266945,0.017102329060435295,-0.44872403144836426,-0.006031051826398642,-0.6798828759090463,-0.21613314057364508,-0.01984215876877213,0.038678485725619396,0.0,0.0,-0.6,0.0,0.0006988048553466797,0.0012753009796142578,0
0.8801784515380859,0.013696731999516487,0.017711739987134933,-0.45193415880203247,-0.005953170945378638,-0.6799557313849317,-0.20533266479586637,-0.021441700492730233,0.03817568193263042,0.0,0.0,-0.6,0.0,0.0008428096771240234,0.0016269683837890625,0
0.8903999328613281,0.013669884763658047,0.01831487938761711,-0.4550808072090149,-0.005835885019585916,-0.6800729535113456,-0.1943193963900782,-0.022091614456033862,0.03742061098235442,0.0,0.0,-0.6,0.0,0.0009627342224121094,0.0018739700317382812,0
0.9002766609191895,0.013640428893268108,0.018912116065621376,-0.45816442370414734,-0.005745304721888934,-0.6802198839206048,-0.1823353398015215,-0.023220799725892936,0.03683636141874503,0.0,0.0,-0.6,0.0,0.0013391971588134766,0.0024700164794921875,0
0.9103286266326904,0.013607493601739407,0.01950223371386528,-0.46118491888046265,-0.005605719602916323,-0.6803930601000036,-0.1693558445057213,-0.02451300705599462,0.03593853756154924,0.0,0.0,-0.6,0.0,0.0010476112365722656,0.0020172595977783203,0
0.9202277660369873,0.013531298376619816,0.020655235275626183,-0.46704378724098206,-0.00528786749409514,-0.6806793018936804,-0.13960803762853743,-0.02610944486262132,0.033892856765723366,0.0,0.0,-0.6,0.0,0.0010464191436767578,0.0019621849060058594,0
0.9301884174346924,0.013487543910741806,0.021214714273810387,-0.46988430619239807,-0.005135576900336192,-0.680837289036973,-0.12373246239234505,-0.02726752562176705,0.032913173076986185,0.0,0.0,-0.6,0.0,0.0007712841033935547,0.0015256404876708984,0
0.9402155876159668,0.013392197899520397,0.02229643240571022,-0.47540658712387085,-0.004732741821093735,-0.6812395008909935,-0.09109238795778135,-0.028481558053381012,0.03032461032561745,0.0,0.0,-0.6,0.0,0.0011494159698486328,0.002147674560546875,0
0.9502100944519043,0.013341382145881653,0.02281857654452324,-0.4780921936035156,-0.004530916427129669,-0.6814133826389864,-0.07544620424356434,-0.028900704936918497,0.029028044886043252,0.0,0.0,-0.6,0.0,0.0010266304016113281,0.0018808841705322266,0
0.9601137638092041,0.0132870152592659,0.02332802675664425,-0.48072096705436707,-0.004321214938032281,-0.6816408146708084,-0.05954769237978638,-0.02938728106316956,0.027681335567614995,0.0,0.0,-0.6,0.0,0.0008025169372558594,0.0014233589172363281,0
0.9704296588897705,0.013230057433247566,0.023823844268918037,-0.4832930564880371,-0.0041032355176631435,-0.6818761728249513,-0.04271146471977429,-0.028373386479364875,0.026279082769393995,0.0,0.0,-0.6,0.0,0.0010700225830078125,0.0020635128021240234,0
0.9802103042602539,0.013113870285451412,0.024767300114035606,-0.48827067017555237,-0.0036655066200434717,-0.6823609739433139,-0.00791350505903602,-0.02594315317401427,0.023462304155783386,0.0,0.0,-0.6,0.0,0.0009071826934814453,0.0016980171203613281,0
0.9903700351715088,0.013051489368081093,0.025213368237018585,-0.49067726731300354,-0.003426052750253225,-0.6826644732046607,0.008743379214176977,-0.02672052514137094,0.021926775769216155,0.0,0.0,-0.6,0.0,0.0009591579437255859,0.001870870590209961,0
1.0002694129943848,0.01298508234322071,0.025643067434430122,-0.4930374324321747,-0.0031617785270677636,-0.6829676640777251,0.024084994350272365,-0.026687133771044265,0.020231835667833365,0.0,0.0,-0.6,0.0,0.0010106563568115234,0.0019054412841796875,0
1.0103256702423096,0.012915641069412231,0.026055987924337387,-0.495343953371048,-0.0029102149642090684,-0.6832349156742111,0.03948390869298076,-0.026498819309936215,0.018618198611728084,0.0,0.0,-0.6,0.0,0.0012216567993164062,0.0023555755615234375,0
1.0205094814300537,0.012767053209245205,0.026828279718756676,-0.4998018443584442,-0.0024364568765742715,-0.683797500451443,0.06817254229627152,-0.02477569880696274,0.015577322358317089,0.0,0.0,-0.6,0.0,0.0012400150299072266,0.0021698474884033203,0
1.0302186012268066,0.012690995819866657,0.027187546715140343,-0.5019538998603821,-0.0021728961281852477,-0.6840980486862728,0.08121383235980957,-0.02278515384833139,0.013884381849810282,0.0,0.0,-0.6,0.0,0.0010509490966796875,0.0019097328186035156,0
1.040308952331543,0.012614789418876171,0.027527911588549614,-0.5040554404258728,-0.0019453727323287375,-0.6844101076720158,0.09426293398214854,-0.020990942871961075,0.012422515511805229,0.0,0.0,-0.6,0.0,0.0010616779327392578,0.0020275115966796875,0
1.0504498481750488,0.012537820264697075,0.02784871682524681,-0.5061069130897522,-0.001715224655396334,-0.6847419412206202,0.1058596680197086,-0.019622479678299394,0.010945539550985076,0.0,0.0,-0.6,0.0,0.0010402202606201172,0.0020160675048828125,0
1.060248613357544,0.012380405329167843,0.028433678671717644,-0.5100579857826233,-0.0012362891916129866,-0.6855240828533319,0.1256204269610504,-0.01652200641590426,0.007873336864256852,0.0,0.0,-0.6,0.0,0.001051187515258789,0.0019235610961914062,0
1.0705525875091553,0.012298287823796272,0.02869824320077896,-0.5119585394859314,-0.0010006231786807388,-0.6858948516447481,0.13459090095432946,-0.016601094893896395,0.006366315903689834,0.0,0.0,-0.6,0.0,0.0010209083557128906,0.0019388198852539062,0
1.080268144607544,0.012212350964546204,0.0289428923279047,-0.5138109922409058,-0.0007845302058956876,-0.6862509562182826,0.14285358868717563,-0.015803163551033856,0.004982629440309789,0.0,0.0,-0.6,0.0,0.001070261001586914,0.0020270347595214844,0
1.0902941226959229,0.012129396200180054,0.029169104993343353,-0.5156173706054688,-0.0005717727644922898,-0.6865677753033181,0.15001523524396906,-0.0131241378990696,0.0036158642304627247,0.0,0.0,-0.6,0.0,0.0009894371032714844,0.0018727779388427734,0
1.1004135608673096,0.01196464616805315,0.02956443279981613,-0.519091784954071,-0.00015786817592831976,-0.687337825685798,0.16045097853192852,-0.010014045444034182,0.0009635541221739092,0.0,0.0,-0.6,0.0,0.0010309219360351562,0.0019986629486083984,0
1.1101634502410889,0.011881373822689056,0.029732786118984222,-0.5207614898681641,4.671677687815446e-05,-0.6876609508675335,0.1649957468593779,-0.008097182607372997,-0.00034789425125040683,0.0,0.0,-0.6,0.0,0.0008623600006103516,0.0015859603881835938,0
1.1202664375305176,0.011797865852713585,0.02988150343298912,-0.5224081873893738,0.0002512517494028455,-0.6879562317047595,0.16842883518340762,-0.006392543722704211,-0.001658072484139159,0.0,0.0,-0.6,0.0,0.0009279251098632812,0.0017528533935546875,0
1.1304559707641602,0.011714356951415539,0.030010901391506195,-0.5240125060081482,0.0004552241195591944,-0.688301773696011,0.17081115502600017,-0.004398900795080171,-0.0029649710559327314,0.0,0.0,-0.6,0.0,0.0009365081787109375,0.001926422119140625,0
1.1401805877685547,0.011543658562004566,0.03021155297756195,-0.5270914435386658,0.0008132825083657173,-0.6890448024542903,0.17491514231419308,-0.004347168540334314,-0.005249789316173853,0.0,0.0,-0.6,0.0,0.0013022422790527344,0.0023927688598632812,0
1.150418996810913,0.011454235762357712,0.030282409861683846,-0.5285676717758179,0.0009776876463921376,-0.6894451549922767,0.1745749982176427,-0.003097717698787524,-0.006301199735942812,0.0,0.0,-0.6,0.0,0.001068115234375,0.0021131038665771484,0
1.160254955291748,0.011363090947270393,0.030338693410158157,-0.5300024747848511,0.0011489072650575968,-0.6898076729021261,0.17294294425852816,-0.001994034815222535,-0.007395563951514933,0.0,0.0,-0.6,0.0,0.0011200904846191406,0.0024449825286865234,0
1.1707086563110352,0.01127094216644764,0.03037840873003006,-0.5313966870307922,0.0013053508129135779,-0.6902153542895962,0.17075218387169688,-0.001765657768417148,-0.008393723931528155,0.0,0.0,-0.6,0.0,0.0015032291412353516,0.002936124801635742,0
1.1804940700531006,0.01117800548672676,0.03040264919400215,-0.5327498912811279,0.0014326671782427499,-0.6906198859552287,0.16754385306991537,-0.0007491125524956609,-0.009207037611644762,0.0,0.0,-0.6,0.0,0.0011887550354003906,0.002402067184448242,0
1.190204381942749,0.010994133539497852,0.03040476329624653,-0.5353386998176575,0.0016526617134772976,-0.6913644487337035,0.15957042818991557,0.002637512342595446,-0.010614512444006935,0.0,0.0,-0.6,0.0,0.0010154247283935547,0.0019843578338623047,0
1.20013427734375,0.010903996415436268,0.030384816229343414,-0.5365777611732483,0.0017438000923007803,-0.6917127526573952,0.15441463725008406,0.004155522347216609,-0.011197336159502627,0.0,0.0,-0.6,0.0,0.0011141300201416016,0.0021092891693115234,0
1.2102985382080078,0.010815993882715702,0.030351251363754272,-0.5377805233001709,0.0018287894390759142,-0.6920686492897158,0.1489880706571819,0.006029497052687264,-0.011741202727174707,0.0,0.0,-0.6,0.0,0.0010135173797607422,0.0020601749420166016,0
1.2201595306396484,0.010641772300004959,0.030243897810578346,-0.540076732635498,0.0020298108823473947,-0.6928806983697261,0.1368047414173784,0.007999730602233485,-0.013023744378707347,0.0,0.0,-0.6,0.0,0.00091552734375,0.0017361640930175781,0
1.2303359508514404,0.010554308071732521,0.030174408107995987,-0.5411713123321533,0.0020815309901479114,-0.6932689928369559,0.12943489208136974,0.008667050047574818,-0.013352401007336083,0.0,0.0,-0.6,0.0,0.0008180141448974609,0.0016689300537109375,0
1.2402918338775635,0.01046737376600504,0.03009459376335144,-0.5422315001487732,0.0021337452197229133,-0.6936201319704581,0.12121560428651618,0.009554090541072424,-0.01368452853548914,0.0,0.0,-0.6,0.0,0.0011966228485107422,0.0022497177124023438,0
1.2503201961517334,0.010380232706665993,0.03000553324818611,-0.5432600378990173,0.0021791344797763785,-0.6939196647951242,0.11234984089487883,0.009079373940568198,-0.013971142399321025,0.0,0.0,-0.6,0.0,0.00110626220703125,0.0020813941955566406,0
1.2604091167449951,0.009362014941871166,0.030906973406672478,-0.5463373064994812,0.002235543370898415,-0.6939576472145503,0.08028798687096231,0.0004428271367185728,-0.014314317134350553,0.0,0.0,-0.6,0.0,0.0010576248168945312,0.002079486846923828,0
1.2704849243164062,0.00886845774948597,0.03133078292012215,-0.5478137135505676,0.002247499862817274,-0.6939300521546208,0.06483987621097771,-0.002311865260548823,-0.014385198098161599,0.0,0.0,-0.6,0.0,0.0011568069458007812,0.0021178722381591797,0
1.2803633213043213,0.008385292254388332,0.031736765056848526,-0.5492502450942993,0.002256703671843097,-0.6939507649713164,0.0502571081227766,-0.006084227298284001,-0.014438104066520433,0.0,0.0,-0.6,0.0,0.0011668205261230469,0.002228260040283203,0
1.2902307510375977,0.00791136920452118,0.032126523554325104,-0.5506469011306763,0.0022580761644581102,-0.6939825118862676,0.0346243452049482,-0.009526963361578477,-0.014441989269096777,0.0,0.0,-0.6,0.0,0.0010409355163574219,0.002078533172607422,0
1.3000807762145996,0.006993331480771303,0.03286303952336311,-0.5533232092857361,0.002209740871547392,-0.6941015645827889,0.00586900569747592,-0.016811725196060154,-0.014124706288680825,0.0,0.0,-0.6,0.0,0.0009760856628417969,0.0017423629760742188,0
1.3102548122406006,0.00654791621491313,0.033212047070264816,-0.5546040534973145,0.0021935472518209553,-0.6941658897809202,-0.008325825343060641,-0.020697197439787155,-0.014017704278403195,0.0,0.0,-0.6,0.0,0.0009615421295166016,0.0018711090087890625,0
1.3200831413269043,0.006110012996941805,0.03354821726679802,-0.55584716796875,0.0021673735956611474,-0.6942805900114951,-0.02144167057273161,-0.024595405025616086,-0.013847460778164842,0.0,0.0,-0.6,0.0,0.0010094642639160156,0.0018382072448730469,0
1.3302786350250244,0.005680210888385773,0.0338723249733448,-0.5570530891418457,0.0021457718962242856,-0.6943686418594117,-0.03474391678460023,-0.027892347947507373,-0.013707185527354154,0.0,0.0,-0.6,0.0,0.0009508132934570312,0.0018775463104248047,0
1.3401765823364258,0.004844379145652056,0.03448711335659027,-0.5593590140342712,0.0020748373642307904,-0.694530980137928,-0.05768649624463785,-0.03493870050082839,-0.01325040327556143,0.0,0.0,-0.6,0.0,0.0014424324035644531,0.0025925636291503906,0
1.3500726222991943,0.004438103176653385,0.034777212888002396,-0.5604733824729919,0.00202231093473284,-0.6946048464150535,-0.0680804317540127,-0.03659800151211435,-0.012914368890174537,0.0,0.0,-0.6,0.0,0.0008478164672851562,0.0016026496887207031,0
1.3600928783416748,0.004041137173771858,0.035056956112384796,-0.561553955078125,0.0019661117011729253,-0.6947328187285889,-0.07764400253681376,-0.03853018431599404,-0.012554853540870643,0.0,0.0,-0.6,0.0,0.001049041748046875,0.00194549560546875,0
1.3704845905303955,0.003651954233646393,0.035327330231666565,-0.5625991225242615,0.001925583235396775,-0.69492782850696,-0.08667922608639578,-0.04066421059456822,-0.012295770486054344,0.0,0.0,-0.6,0.0,0.0010175704956054688,0.0019719600677490234,0
1.380258321762085,0.002895815297961235,0.03584301844239235,-0.5645866394042969,0.0018167475378180976,-0.6952902479213673,-0.10091498524545821,-0.04523627696893305,-0.011600683106304306,0.0,0.0,-0.6,0.0,0.0009305477142333984,0.0018470287322998047,0
1.390336275100708,0.0025270527694374323,0.03608827292919159,-0.5655295252799988,0.0017665089994496003,-0.6954883795828316,-0.10708856333900484,-0.04609772556516286,-0.011280655584974337,0.0,0.0,-0.6,0.0,0.0009226799011230469,0.0018646717071533203,0
1.400104284286499,0.002165837213397026,0.03632674738764763,-0.5664392113685608,0.0017117287778878837,-0.6957041851256327,-0.1116784322276686,-0.04663099729527399,-0.010931929086855313,0.0,0.0,-0.6,0.0,0.0009529590606689453,0.0018286705017089844,0
1.410205602645874,0.0018108231015503407,0.03655696660280228,-0.5673488974571228,0.0016414985725277148,-0.6958607054227711,-0.11493169782683259,-0.04778510557883401,-0.010484069026640295,0.0,0.0,-0.6,0.0,0.0009148120880126953,0.0017652511596679688,0
1.4203746318817139,0.0011216159909963608,0.036997806280851364,-0.5690732002258301,0.0014844884512203644,-0.696264591140322,-0.1200317875263659,-0.04704389649663636,-0.00948371891315559,0.0,0.0,-0.6,0.0,0.0009582042694091797,0.0019118785858154297,0
1.4302799701690674,0.0007877412717789412,0.037209246307611465,-0.5698881149291992,0.0014172813718796207,-0.6964593840218808,-0.12131488466551313,-0.046137918848052906,-0.009056173769974219,0.0,0.0,-0.6,0.0,0.0008931159973144531,0.0017445087432861328,0
1.4401962757110596,0.00046386351459659636,0.037416115403175354,-0.5706731081008911,0.0013509979705143618,-0.6966391372001752,-0.1211704623164196,-0.044742986100813766,-0.008634367425035254,0.0,0.0,-0.6,0.0,0.0005524158477783203,0.0011677742004394531,0
1.4502530097961426,0.00014706904767081141,0.03761644288897514,-0.5714284181594849,0.0012634991056910806,-0.6968646349511464,-0.11950817781798821,-0.04364494941470396,-0.008076735770556669,0.0,0.0,-0.6,0.0,0.0005850791931152344,0.0012867450714111328,0
1.4601447582244873,-0.00046496043796651065,0.0379951037466526,-0.5728937983512878,0.0010917428389292598,-0.6972672077287249,-0.11260263455498075,-0.03926724271835431,-0.006983543214256763,0.0,0.0,-0.6,0.0,0.0006856918334960938,0.001348257064819336,0
1.4700984954833984,-0.0007603743579238653,0.03817185014486313,-0.5735825300216675,0.0010105975189684101,-0.6974978728564667,-0.10781789947855358,-0.03672830517800247,-0.0064676469518906935,0.0,0.0,-0.6,0.0,0.0005135536193847656,0.0010704994201660156,0
1.479949951171875,-0.00104884197935462,0.03834052383899689,-0.5742427706718445,0.000951564961533615,-0.6977197013381546,-0.10290230671936941,-0.033983627644089714,-0.0060928987767983386,0.0,0.0,-0.6,0.0,0.0005724430084228516,0.0011625289916992188,0
1.4899849891662598,-0.0013311984948813915,0.038502469658851624,-0.5748739242553711,0.0008815283714602714,-0.6980129297333098,-0.09812595028010175,-0.03248145347178636,-0.005646663060632422,0.0,0.0,-0.6,0.0,0.0005180835723876953,0.0010685920715332031,0
1.500206470489502,-0.0018764105625450611,0.038805149495601654,-0.5760493278503418,0.0007037032586017301,-0.6985619439385785,-0.08563450500164956,-0.026809825032056703,-0.004514195861972052,0.0,0.0,-0.6,0.0,0.0012607574462890625,0.002418041229248047,0
1.5105583667755127,-0.002137609291821718,0.03894354775547981,-0.5765960216522217,0.0006148845520362767,-0.6987827579981735,-0.07826329203094334,-0.02397661102208872,-0.003948225969747833,0.0,0.0,-0.6,0.0,0.002027750015258789,0.003654956817626953,0
1.520350456237793,-0.0023916312493383884,0.03907311335206032,-0.5771312713623047,0.0005183227974344433,-0.6989793308706437,-0.0703379122018576,-0.020033689463771764,-0.003333334086805135,0.0,0.0,-0.6,0.0,0.001260995864868164,0.0025734901428222656,0
1.5304782390594482,-0.0026368347462266684,0.039192285388708115,-0.5776422023773193,0.0004503416244827328,-0.6991842167501744,-0.06092595219504812,-0.015662535292783,-0.0029010090146147378,0.0,0.0,-0.6,0.0,0.0013556480407714844,0.0027780532836914062,0
1.540276050567627,-0.003105130046606064,0.039397675544023514,-0.5785918831825256,0.0003155631988908809,-0.6995847627949835,-0.04297101055663637,-0.008822140955730674,-0.0020424438881027334,0.0,0.0,-0.6,0.0,0.001276254653930664,0.002451181411743164,0
1.5502502918243408,-0.003326909616589546,0.03948661684989929,-0.5790321230888367,0.0002571336159939207,-0.6998203554226918,-0.03469286635125497,-0.0037153887986704597,-0.001672349678283723,0.0,0.0,-0.6,0.0,0.0010952949523925781,0.0021529197692871094,0
1.5601959228515625,-0.0035400670021772385,0.03956564888358116,-0.5794487595558167,0.0001909511989011768,-0.7000585929018558,-0.02558178666406342,0.00032296903677879295,-0.0012512455923253073,0.0,0.0,-0.6,0.0,0.0011811256408691406,0.002460002899169922,0
1.570646047592163,-0.0037449225783348083,0.03963389992713928,-0.5798432230949402,0.00013535755644654922,-0.700249157998656,-0.01619333909724605,0.0047258040600612955,-0.0008981448645321032,0.0,0.0,-0.6,0.0,0.0013532638549804688,0.002499103546142578,0
1.5804526805877686,-0.004127625375986099,0.03973894193768501,-0.5805973410606384,5.21213455313258e-05,-0.7006401907104582,0.0008179357692084216,0.012978313083684972,-0.0003704526045443805,0.0,0.0,-0.6,0.0,0.0011243820190429688,0.0022432804107666016,0
1.5902636051177979,-0.004305857699364424,0.03977702185511589,-0.5809434056282043,-3.6720075300751e-06,-0.7008262473861671,0.00895680147916155,0.017001207073701497,-1.5930539117784152e-05,0.0,0.0,-0.6,0.0,0.0009725093841552734,0.001833200454711914,0
1.6004180908203125,-0.004475163295865059,0.039805684238672256,-0.5812692046165466,-5.79109355102574e-05,-0.7010277845425164,0.016299071315365583,0.021340265580571456,0.00032790676192236015,0.0,0.0,-0.6,0.0,0.001285552978515625,0.0025687217712402344,0
1.610353708267212,-0.004635997116565704,0.039823632687330246,-0.5815752744674683,-9.406546980517697e-05,-0.7012303606558806,0.024911208431591458,0.024337154275376815,0.0005585563348189245,0.0,0.0,-0.6,0.0,0.0012981891632080078,0.0025835037231445312,0
1.6203243732452393,-0.00493307551369071,0.03982386738061905,-0.5821323394775391,-0.00020759029276080275,-0.7015783830239899,0.04092330012225472,0.031040664118871197,0.0012821698594102737,0.0,0.0,-0.6,0.0,0.001745462417602539,0.0030841827392578125,0
1.6304190158843994,-0.005069499369710684,0.03980643302202225,-0.5823831558227539,-0.00025850690727806884,-0.701801806744056,0.04768426554671256,0.033451735270331295,0.0016074316311179716,0.0,0.0,-0.6,0.0,0.0009348392486572266,0.002096891403198242,0
1.6407787799835205,-0.005197902210056782,0.03977818042039871,-0.5826212763786316,-0.0002983512791900248,-0.7019635095347101,0.053806784931096585,0.03657755636884125,0.0018605968343003928,0.0,0.0,-0.6,0.0,0.0009655952453613281,0.0029015541076660156,0
1.6504173278808594,-0.005436460021883249,0.03976813703775406,-0.5832936763763428,-0.0003184937438229025,-0.7018979784417751,0.059873013555970384,0.03888553174768127,0.0019893685439450887,0.0,0.0,-0.6,0.0,0.0008327960968017578,0.0018668174743652344,0
1.6602811813354492,-0.005874065216630697,0.03971226140856743,-0.584560215473175,-0.0003819602028221303,-0.701793373968378,0.07009666594264756,0.0416070892578596,0.002397066040182408,0.0,0.0,-0.6,0.0,0.000774383544921875,0.0017693042755126953,0
1.6705107688903809,-0.006075268145650625,0.03966612368822098,-0.5851535797119141,-0.0004186841739374766,-0.7017964702853896,0.07421267630096662,0.04358451569714372,0.002631529197769028,0.0,0.0,-0.6,0.0,0.0008864402770996094,0.0019006729125976562,0
1.680309534072876,-0.006265127100050449,0.03960823640227318,-0.5857217907905579,-0.00044929461712618277,-0.7017387024706703,0.07792405346194227,0.04436327059837444,0.0028285056330503103,0.0,0.0,-0.6,0.0,0.0007956027984619141,0.0019450187683105469,0
1.6904094219207764,-0.006445251405239105,0.03953864052891731,-0.5862661004066467,-0.0004578883833921779,-0.7017460904845173,0.08108806266475055,0.04382311001808508,0.0028863972044476274,0.0,0.0,-0.6,0.0,0.001008749008178711,0.0020551681518554688,0
1.700242280960083,-0.006616279948502779,0.03945837914943695,-0.5868108868598938,-0.0004845447508214373,-0.7017473194599068,0.0828797633935801,0.043775238728341534,0.0030584954575151335,0.0,0.0,-0.6,0.0,0.0013720989227294922,0.002313852310180664,0
1.7103350162506104,-0.006929958239197731,0.03926511108875275,-0.5878255367279053,-0.0005313479688768101,-0.701808553904612,0.08712238254779156,0.04333864716072074,0.0033617671159919295,0.0,0.0,-0.6,0.0,0.0009775161743164062,0.0019989013671875,0
1.720201015472412,-0.007071349304169416,0.0391525961458683,-0.5882959365844727,-0.0005421569375710581,-0.7018442490932241,0.08735069757168447,0.04330940324535722,0.0034317301341602853,0.0,0.0,-0.6,0.0,0.0009548664093017578,0.001901865005493164,0
1.7303135395050049,-0.0072006904520094395,0.03903176262974739,-0.5887429714202881,-0.0005521517483927826,-0.7018782805973655,0.08740701863009345,0.04413781901043756,0.003495295469967847,0.0,0.0,-0.6,0.0,0.0009579658508300781,0.001859426498413086,0
1.7404072284698486,-0.007426664233207703,0.0387614481151104,-0.5895709991455078,-0.0005569756790931657,-0.7019044286840356,0.08727244201841218,0.04401486568426413,0.003527855491797243,0.0,0.0,-0.6,0.0,0.0009167194366455078,0.0018715858459472656,0
1.7501649856567383,-0.007523939944803715,0.03861148655414581,-0.5899520516395569,-0.0005858859616292189,-0.7020166269681076,0.08654823887810942,0.04422713812641528,0.003713050827383164,0.0,0.0,-0.6,0.0,0.0008275508880615234,0.0015671253204345703,0
1.760359525680542,-0.007611763197928667,0.03845256194472313,-0.5903095602989197,-0.0006232862196286616,-0.702130659156011,0.08485600774659313,0.04302889951064289,0.003954092141919322,0.0,0.0,-0.6,0.0,0.000972747802734375,0.0019278526306152344,0
1.7705090045928955,-0.007692549377679825,0.038284655660390854,-0.5906450748443604,-0.000640800584791509,-0.7022188710808345,0.08328597903095333,0.0407175664078751,0.004069374980561741,0.0,0.0,-0.6,0.0,0.0010256767272949219,0.002053976058959961,0
1.7801880836486816,-0.007831941358745098,0.037924401462078094,-0.5912557244300842,-0.0006390773822504635,-0.702315962159902,0.07904538487388983,0.03856038722455147,0.004061391731713791,0.0,0.0,-0.6,0.0,0.0011458396911621094,0.0025081634521484375,0
1.79048752784729,-0.007889012806117535,0.0377328060567379,-0.5915326476097107,-0.0006195156810873685,-0.7024049306416782,0.07567992316356668,0.037212254184515924,0.003937821607776946,0.0,0.0,-0.6,0.0,0.0012176036834716797,0.0024564266204833984,0
1.8003253936767578,-0.007938873954117298,0.03753369301557541,-0.5917904376983643,-0.0006062316870878101,-0.7025024295814973,0.07335864005670054,0.035063331126966656,0.0038555477354442337,0.0,0.0,-0.6,0.0,0.0011942386627197266,0.002228260040283203,0
1.8102068901062012,-0.007981966249644756,0.03732750192284584,-0.5920290350914001,-0.0005794107074871758,-0.70259782506936,0.06966457690842603,0.03343908371047025,0.0036857284890182136,0.0,0.0,-0.6,0.0,0.0006644725799560547,0.0013782978057861328,0
1.8204917907714844,-0.008051353506743908,0.03689921274781227,-0.5924873352050781,-0.0005314902306375388,-0.702770015288096,0.06096561932600811,0.02852793020766926,0.003384049291698222,0.0,0.0,-0.6,0.0,0.0011627674102783203,0.0023565292358398438,0
1.830275058746338,-0.008077018894255161,0.036677975207567215,-0.5926895141601562,-0.0005125151887675697,-0.7028557058781439,0.056636266669768474,0.02677939570167982,0.0032644005450341274,0.0,0.0,-0.6,0.0,0.0010416507720947266,0.0019941329956054688,0
1.8402771949768066,-0.008096059784293175,0.03645218536257744,-0.5928733944892883,-0.000505317074611711,-0.7030238762891494,0.05186335396172961,0.025266401680614673,0.003219795275418268,0.0,0.0,-0.6,0.0,0.000896453857421875,0.0017478466033935547,0
1.8504223823547363,-0.008108146488666534,0.03622233495116234,-0.5930375456809998,-0.0005035515632220988,-0.7032027535784064,0.04737321721083857,0.02423940501591241,0.0032096087405149533,0.0,0.0,-0.6,0.0,0.0011229515075683594,0.0022475719451904297,0
1.860328197479248,-0.0081142233684659,0.035988256335258484,-0.5931831002235413,-0.0005011197460068941,-0.7033397998625953,0.042833629684827866,0.02171385115961494,0.0031963873912515717,0.0,0.0,-0.6,0.0,0.0009844303131103516,0.0019097328186035156,0
1.870405912399292,-0.008115400560200214,0.0357508547604084,-0.5933125019073486,-0.0004933583520668975,-0.7034331704577457,0.03875038187488286,0.0192860565605788,0.0031490071540200637,0.0,0.0,-0.6,0.0,0.0008401870727539062,0.001676797866821289,0
1.8803386688232422,-0.008095650002360344,0.035266585648059845,-0.5935245752334595,-0.00042244155423797297,-0.7036634714778013,0.029275156070312478,0.016256804869081938,0.0026985868754942077,0.0,0.0,-0.6,0.0,0.0013196468353271484,0.0024611949920654297,0
1.8903191089630127,-0.008079051971435547,0.03502108156681061,-0.5936084985733032,-0.00037139984537396973,-0.7037383663924403,0.02509092381019914,0.014047240762673371,0.0023742277589744068,0.0,0.0,-0.6,0.0,0.0009894371032714844,0.0019407272338867188,0
1.900132656097412,-0.008034151047468185,0.03452608361840248,-0.5937360525131226,-0.0003106839051417176,-0.7039593759479187,0.014946996696145189,0.010349432777332695,0.00198943018463392,0.0,0.0,-0.6,0.0,0.0008149147033691406,0.0016224384307861328,0
1.9101698398590088,-0.008006511256098747,0.03427734971046448,-0.5937787294387817,-0.0003022635461176126,-0.7040763263612376,0.010180887557871577,0.007793403873583187,0.0019376255938135325,0.0,0.0,-0.6,0.0,0.000942230224609375,0.0018391609191894531,0
1.920257806777954,-0.007977220229804516,0.03402818366885185,-0.5938082933425903,-0.0002875411072457223,-0.7041931418750147,0.005781615847163472,0.005257936136087352,0.0018454221195942544,0.0,0.0,-0.6,0.0,0.0009760856628417969,0.0018992424011230469,0
1.930391550064087,-0.00794580765068531,0.03377898409962654,-0.5938243865966797,-0.000253554027406138,-0.7043340691043177,0.0009201569045031831,0.0035926843137913667,0.0016295281505720697,0.0,0.0,-0.6,0.0,0.0009446144104003906,0.0019042491912841797,0
1.940190076828003,-0.007874349132180214,0.033280979841947556,-0.5938152074813843,-0.00021700605290680202,-0.7046689858856241,-0.005634868173766378,0.0003371668605561701,0.0013983759538849913,0.0,0.0,-0.6,0.0,0.0011196136474609375,0.002101421356201172,0
1.9502546787261963,-0.007835447788238525,0.0330301895737648,-0.5937905311584473,-0.00016335839330965167,-0.704817552598576,-0.007871878724107082,-0.0007862872401509875,0.0010562177977221194,0.0,0.0,-0.6,0.0,0.0006740093231201172,0.001394033432006836,0
1.9602437019348145,-0.007794405333697796,0.03277964890003204,-0.5937530398368835,-0.00013230205967083245,-0.7049887620992151,-0.01121944421261456,-0.0021603987965726403,0.0008587166866725582,0.0,0.0,-0.6,0.0,0.0008127689361572266,0.0016896724700927734,0
1.9707722663879395,-0.0077515956945717335,0.03252985328435898,-0.5937040448188782,-0.00010046180771881523,-0.7050821435990666,-0.014260511129252066,-0.0036753820611937155,0.0006562071549476541,0.0,0.0,-0.6,0.0,0.0011637210845947266,0.0025572776794433594,0
1.9805400371551514,-0.007708430755883455,0.03228146955370903,-0.593644380569458,-5.301938522820553e-05,-0.7052399984720646,-0.017035892029244885,-0.006086621396065722,0.0003542788438777586,0.0,0.0,-0.6,0.0,0.0009591579437255859,0.0021517276763916016,0
1.990281581878662,-0.007616026792675257,0.031789202243089676,-0.5934922695159912,-1.2982984057916456e-05,-0.7055089727394052,-0.021346030025348208,-0.006771838567451108,9.958914914464056e-05,0.0,0.0,-0.6,0.0,0.0011076927185058594,0.0021543502807617188,0
2.0004148483276367,-0.00756542244926095,0.031544119119644165,-0.5934109687805176,-5.35213452419472e-06,-0.7056618301076689,-0.02190223985219378,-0.006646144601132895,5.097020999298287e-05,0.0,0.0,-0.6,0.0,0.0014197826385498047,0.002594470977783203,0
2.010457992553711,-0.007511928677558899,0.031299836933612823,-0.5933181643486023,1.3649019608049574e-05,-0.7058541502473253,-0.02310206491989111,-0.006502506162442498,-7.018426597969694e-05,0.0,0.0,-0.6,0.0,0.0008723735809326172,0.0019989013671875,0
2.020294427871704,-0.00739655876532197,0.030812697485089302,-0.5931000113487244,1.5239503873956127e-05,-0.7061348053311599,-0.024340387059784727,-0.005653668948036683,-8.006741524454839e-05,0.0,0.0,-0.6,0.0,0.0011105537414550781,0.0021288394927978516,0
2.0301342010498047,-0.007335563190281391,0.030572840943932533,-0.5929765105247498,2.8814004238805005e-05,-0.7062958197244794,-0.025925003292758094,-0.005428601221155505,-0.00016664114745286768,0.0,0.0,-0.6,0.0,0.0007085800170898438,0.0016200542449951172,0
2.0401899814605713,-0.007273494731634855,0.030336648225784302,-0.5928428769111633,3.67918990164476e-05,-0.7064484586215177,-0.02704109022567412,-0.0063364651956072555,-0.00021724374762897156,0.0,0.0,-0.6,0.0,0.0009539127349853516,0.002013683319091797,0
2.050553798675537,-0.007533454801887274,0.030309030786156654,-0.5929759740829468,2.327227343598792e-05,-0.7064039953886001,-0.029411410101806434,-0.009972940032380811,-0.0001292102361851533,0.0,0.0,-0.6,0.0,0.0013332366943359375,0.002673625946044922,0
2.0602660179138184,-0.008028129115700722,0.030248068273067474,-0.593224287033081,3.710742517213066e-05,-0.7063128586420544,-0.03426206805376927,-0.015047594206465202,-0.00021480935437316706,0.0,0.0,-0.6,0.0,0.0008885860443115234,0.0017826557159423828,0
2.0704617500305176,-0.008263826370239258,0.030215198174118996,-0.5933293104171753,4.1565336209893936e-05,-0.7062551968939372,-0.03620501838329621,-0.01910861976829561,-0.00024151411064604714,0.0,0.0,-0.6,0.0,0.0010499954223632812,0.0019915103912353516,0
2.080293893814087,-0.008493488654494286,0.03018203005194664,-0.5934218168258667,3.820168918549435e-05,-0.7062256789879098,-0.03850152783130598,-0.02178802641633276,-0.00021845290715259255,0.0,0.0,-0.6,0.0,0.0011115074157714844,0.002313375473022461,0
2.0903677940368652,-0.00871479045599699,0.03014759160578251,-0.5935027003288269,3.013311553217354e-05,-0.7061513967707443,-0.03930557426477881,-0.023905942106054012,-0.00016550934642389672,0.0,0.0,-0.6,0.0,0.000985860824584961,0.0020093917846679688,0
2.1003034114837646,-0.009135555475950241,0.030074086040258408,-0.5936297178268433,3.146130379932834e-05,-0.7061278178844571,-0.04153494531460649,-0.02912817868514287,-0.00017087961272153684,0.0,0.0,-0.6,0.0,0.0010538101196289062,0.002093791961669922,0
2.110456705093384,-0.00933593325316906,0.030035350471735,-0.5936768651008606,3.8220442660150177e-05,-0.7060573739743076,-0.04210899224514412,-0.03123221129837894,-0.00021270675184949342,0.0,0.0,-0.6,0.0,0.0013256072998046875,0.002737760543823242,0
2.120340347290039,-0.00952920876443386,0.029996003955602646,-0.593714714050293,3.0070680330407937e-05,-0.7060125271932426,-0.04276199105390646,-0.03247815486034787,-0.0001595326225469345,0.0,0.0,-0.6,0.0,0.0018401145935058594,0.0032949447631835938,0
2.1303091049194336,-0.009715618565678596,0.029955629259347916,-0.5937415361404419,1.749630613083985e-05,-0.7060584674290126,-0.042327373577727465,-0.034168215523272684,-7.808305422937825e-05,0.0,0.0,-0.6,0.0,0.0010912418365478516,0.0020470619201660156,0
2.1401116847991943,-0.01007027830928564,0.029868097975850105,-0.5937609672546387,5.2993184624794794e-05,-0.7060672647286105,-0.04058281471450462,-0.03617643726248741,-0.0003036675302611321,0.0,0.0,-0.6,0.0,0.000812530517578125,0.0016396045684814453,0
2.1501104831695557,-0.01023880671709776,0.029822226613759995,-0.5937564373016357,5.297982999934686e-05,-0.7060444329157924,-0.03961330788640952,-0.037792642742809586,-0.00030253025214611445,0.0,0.0,-0.6,0.0,0.0006797313690185547,0.0013365745544433594,0
2.1603386402130127,-0.010400986298918724,0.029775481671094894,-0.5937433838844299,3.6165909857519964e-05,-0.7060342581422602,-0.03806986509586665,-0.036865884033566027,-0.00019527133142738335,0.0,0.0,-0.6,0.0,0.0011014938354492188,0.002152681350708008,0
2.1706132888793945,-0.010555659420788288,0.02972685918211937,-0.5937203764915466,3.48170555424264e-05,-0.7060969259862336,-0.036339425358204544,-0.036414204105533296,-0.00018675338121008176,0.0,0.0,-0.6,0.0,0.0009701251983642578,0.0019183158874511719,0
2.180164337158203,-0.01084967702627182,0.029624847695231438,-0.5936844348907471,1.0097693923735297e-05,-0.7062352026880492,-0.03222672468395023,-0.03699104554439915,-2.8527046250080246e-05,0.0,0.0,-0.6,0.0,0.001112222671508789,0.002011537551879883,0
2.1905806064605713,-0.010989532805979252,0.029570110142230988,-0.5936485528945923,-1.2082171878662643e-05,-0.7063563831807749,-0.02969759053729916,-0.03572523335422515,0.00011247585932313528,0.0,0.0,-0.6,0.0,0.001341104507446289,0.002642393112182617,0
2.200371503829956,-0.011123579926788807,0.029513422399759293,-0.593601644039154,-1.724544554586787e-05,-0.7063942100465737,-0.027586298916968198,-0.034774918295121804,0.0001449449263094513,0.0,0.0,-0.6,0.0,0.0016896724700927734,0.0028831958770751953,0
2.210270881652832,-0.011251764371991158,0.02945508062839508,-0.5935461521148682,-2.20720577140639e-05,-0.7064119451254828,-0.025119044509096043,-0.03245203125404354,0.00017435091955695883,0.0,0.0,-0.6,0.0,0.001012563705444336,0.0019199848175048828,0
2.2203617095947266,-0.011486495845019817,0.029333969578146935,-0.5934075117111206,-4.581437411510413e-05,-0.7065504776111393,-0.02034502382830028,-0.02747285653821749,0.0003229349625617097,0.0,0.0,-0.6,0.0,0.0010497570037841797,0.0020329952239990234,0
2.230222463607788,-0.01159396581351757,0.029270580038428307,-0.5933241248130798,-6.583246707922171e-05,-0.70662761547003,-0.016964286864939265,-0.026168687208656605,0.000450045512519782,0.0,0.0,-0.6,0.0,0.0009298324584960938,0.0017414093017578125,0
2.240196943283081,-0.01169619895517826,0.02920408360660076,-0.5932438969612122,-5.557842546928345e-05,-0.7066876612795057,-0.013426597743306505,-0.023869906934630796,0.0003830662795857945,0.0,0.0,-0.6,0.0,0.0010137557983398438,0.0019125938415527344,0
2.250257730484009,-0.011792219243943691,0.029134342446923256,-0.5931558012962341,-6.642478103954042e-05,-0.7067000078220033,-0.010020587024305787,-0.021487166683715572,0.0004509313449246582,0.0,0.0,-0.6,0.0,0.0008416175842285156,0.0017740726470947266,0
2.2603392601013184,-0.011963887140154839,0.02898840606212616,-0.5929571390151978,-7.086116111008709e-05,-0.7068174756580777,-0.005234674484873591,-0.014809967637129452,0.0004744964926508725,0.0,0.0,-0.6,0.0,0.0014443397521972656,0.0027077198028564453,0
2.270376443862915,-0.01203899271786213,0.028912680223584175,-0.5928452610969543,-7.121819419680353e-05,-0.7068924768447042,-0.0030842451928052564,-0.011159935840586225,0.00047399648216612893,0.0,0.0,-0.6,0.0,0.0006949901580810547,0.0015604496002197266,0
2.2802584171295166,-0.012107126414775848,0.02883373573422432,-0.5927261710166931,-6.70099014831056e-05,-0.7069239063633553,0.00041330280573759974,-0.007864510520660345,0.0004446113274188288,0.0,0.0,-0.6,0.0,0.0007822513580322266,0.0016944408416748047,0
2.2902464866638184,-0.012168938294053078,0.028750363737344742,-0.5926008820533752,-5.215063327285098e-05,-0.706959445301294,0.004167275907740117,-0.004393995727050765,0.0003470797012583432,0.0,0.0,-0.6,0.0,0.0007715225219726562,0.001650094985961914,0
2.300248861312866,-0.01226772926747799,0.02856905199587345,-0.5923280119895935,-2.4785018093882418e-05,-0.7071767773719835,0.011659941061044954,0.003787291299049454,0.00016604924238348528,0.0,0.0,-0.6,0.0,0.0007295608520507812,0.0016384124755859375,0
2.3100733757019043,-0.012305131182074547,0.02847149595618248,-0.592178225517273,-2.5532133177323003e-05,-0.7072991795925854,0.014932911883756934,0.006385614253075735,0.0001690310492091332,0.0,0.0,-0.6,0.0,0.0006349086761474609,0.0013451576232910156,0
2.3202383518218994,-0.012337379157543182,0.028370441868901253,-0.5920209884643555,-4.762580795362873e-05,-0.7073801618603929,0.01774167154339662,0.009203779654401728,0.00030827503788778395,0.0,0.0,-0.6,0.0,0.0007874965667724609,0.001638650894165039,0
2.330341100692749,-0.01236343290656805,0.02826579660177231,-0.5918577909469604,-7.60925741710945e-05,-0.7074290079655955,0.02019037620248824,0.012882771735286428,0.00048750283551335366,0.0,0.0,-0.6,0.0,0.00069427490234375,0.0016450881958007812,0
2.340024709701538,-0.01239498145878315,0.028045624494552612,-0.5915139317512512,-9.882198674244559e-05,-0.7075570113507823,0.025161051902238905,0.020039411782624365,0.0006275645708411052,0.0,0.0,-0.6,0.0,0.0008676052093505859,0.0020830631256103516,0
2.3502392768859863,-0.012399036437273026,0.027929358184337616,-0.5913354158401489,-0.00011217569235989477,-0.7075641075093292,0.027538529177581574,0.0230738310573501,0.0007108231575511431,0.0,0.0,-0.6,0.0,0.0005700588226318359,0.0013151168823242188,0
2.360172748565674,-0.012396889738738537,0.027809545397758484,-0.5911534428596497,-0.0001172244511377296,-0.7075793348996873,0.029016787985135593,0.02541333585158548,0.0007413902615086746,0.0,0.0,-0.6,0.0,0.0006330013275146484,0.0014030933380126953,0
2.370408058166504,-0.012388085015118122,0.027685824781656265,-0.5909683704376221,-0.00013487572584749752,-0.7076096725157704,0.03198527743373453,0.02835706906789971,0.0008523986739614343,0.0,0.0,-0.6,0.0,0.0007071495056152344,0.001531839370727539,0
2.380425453186035,-0.01234764326363802,0.027429359033703804,-0.5905853509902954,-0.00015736013230837766,-0.7076954916310494,0.0341628968926779,0.03204073583661381,0.0009935394640488088,0.0,0.0,-0.6,0.0,0.0008146762847900391,0.0018258094787597656,0
